,Timestamp (seconds),Speed (km/h),Latitude coordinate (degrees),Longitude coordinate (degrees),Acceleration in X (Gs),Acceleration in Y (Gs),Acceleration in Z (Gs),Acceleration in Z filtered by KF (Gs),Roll (degrees),Pitch (degrees),Yaw (degrees),Maximum allowed speed of current road (km/h),GPS speed (km/h) [same as in RAW GPS]],class,Driver
0,8.83,64.5,40.512924,-3.404577,-0.032,-0.0,0.022,0.008,-1.535,0.0289999999999999,0.023,60.0,61.7,normal,D1
1,9.82,63.6,40.513065000000005,-3.4046800000000004,0.0289999999999999,-0.005,0.0,-0.006,-1.523,0.022,0.025,60.0,61.7,normal,D1
2,10.8,62.2,40.51321,-3.404772,-0.033,-0.013,0.05,0.036,-1.518,0.035,0.037,60.0,61.7,normal,D1
3,11.8,60.9,40.513348,-3.404868,0.0559999999999999,0.017,0.071,0.065,-1.533,0.018,0.048,60.0,61.7,normal,D1
4,12.82,61.2,40.513477,-3.404971,0.026,-0.0579999999999999,0.0409999999999999,0.042,-1.56,0.022,0.06,60.0,61.7,normal,D1
5,13.81,61.7,40.513615,-3.4050800000000003,0.002,-0.012,0.0139999999999999,0.018,-1.5759999999999998,0.039,0.087,60.0,61.7,normal,D1
6,14.84,64.3,40.513741,-3.405192,-0.01,-0.009,0.02,0.025,-1.567,0.059,0.1009999999999999,60.0,61.7,normal,D1
7,15.82,66.8,40.513882,-3.4053150000000003,-0.01,-0.023,0.013,0.017,-1.589,0.0289999999999999,0.103,60.0,61.7,normal,D1
8,16.83,68.9,40.514019,-3.405443,-0.0,0.0139999999999999,0.004,0.0069999999999999,-1.592,0.02,0.099,60.0,68.9,normal,D1
9,17.81,71.4,40.514164,-3.405575,0.0289999999999999,0.033,-0.002,0.002,-1.595,0.005,0.088,60.0,68.9,normal,D1
10,18.8,73.5,40.514317,-3.4057160000000004,-0.012,0.018,-0.054,-0.047,-1.574,-0.004,0.075,60.0,71.4,normal,D1
11,19.82,73.5,40.514465,-3.405856,-0.053,0.0139999999999999,-0.008,-0.017,-1.564,0.001,0.062,60.0,73.5,normal,D1
12,20.8,73.8,40.514614,-3.405996,-0.065,0.002,-0.003,0.0,-1.587,-0.0279999999999999,0.054,60.0,73.5,normal,D1
13,21.83,75.7,40.514771,-3.406132,0.002,-0.043,0.001,0.001,-1.5930000000000002,-0.031,0.0579999999999999,60.0,73.8,normal,D1
14,22.88,78.0,40.515102,-3.406422,-0.005,-0.081,0.006,-0.006,-1.588,-0.003,0.098,60.0,75.7,normal,D1
15,23.89,78.3,40.515263,-3.4065830000000004,0.032,-0.025,0.002,-0.004,-1.588,0.017,0.144,100.0,78.3,aggressive,D1
16,24.89,79.2,40.515411,-3.406743,0.003,0.083,-0.001,0.002,-1.592,0.005,0.153,100.0,78.3,aggressive,D1
17,25.82,79.2,40.515411,-3.406743,-0.044,0.09,0.001,0.006,-1.596,-0.04,0.127,100.0,78.3,aggressive,D1
18,26.82,80.1,40.515564000000005,-3.406911,0.078,0.031,0.013,0.009,-1.598,-0.077,0.067,100.0,78.3,normal,D1
19,27.82,80.5,40.515736,-3.407051,-0.018,-0.01,0.047,0.034,-1.6030000000000002,-0.067,0.039,100.0,78.3,normal,D1
20,28.81,82.0,40.515903,-3.4072,-0.048,-0.036,0.039,0.034,-1.629,-0.059,0.03,100.0,92.7,normal,D1
21,29.84,84.4,40.516090000000005,-3.40734,-0.076,-0.059,0.033,0.02,-1.656,-0.022,0.038,100.0,92.7,normal,D1
22,30.83,86.1,40.516262,-3.4074910000000003,0.004,0.025,-0.004,-0.0139999999999999,-1.656,0.008,0.067,100.0,92.7,normal,D1
23,31.82,92.7,40.516453000000006,-3.407653,-0.0409999999999999,0.0069999999999999,-0.005,-0.01,-1.648,-0.009,0.077,100.0,92.7,normal,D1
24,32.81,94.6,40.516651,-3.407831,0.008,0.0289999999999999,-0.025,-0.012,-1.642,-0.032,0.077,100.0,94.6,normal,D1
25,33.9,99.2,40.51704,-3.408188,0.019,0.012,-0.072,-0.079,-1.5930000000000002,-0.043,0.076,100.0,94.6,normal,D1
26,34.85,99.2,40.51704,-3.408188,0.012,-0.009,0.01,0.013,-1.582,-0.04,0.076,100.0,99.2,normal,D1
27,35.83,98.7,40.517246,-3.408372,-0.011,-0.043,0.008,0.013,-1.59,0.001,0.096,100.0,98.7,normal,D1
28,36.82,99.8,40.517445,-3.408561,-0.063,0.0069999999999999,0.001,0.004,-1.594,0.015,0.119,100.0,98.7,normal,D1
29,37.85,101.1,40.517643,-3.408758,0.024,0.0289999999999999,-0.001,0.001,-1.601,-0.025,0.119,100.0,98.7,normal,D1
30,38.9,104.7,40.518063,-3.4091690000000003,-0.0279999999999999,0.046,-0.008,-0.006,-1.601,-0.0289999999999999,0.113,100.0,98.7,normal,D1
31,39.81,104.7,40.518063,-3.4091690000000003,0.033,0.032,0.021,0.0139999999999999,-1.6030000000000002,-0.025,0.106,100.0,107.1,normal,D1
32,40.8,106.3,40.518272,-3.409384,-0.024,-0.076,-0.003,-0.001,-1.599,-0.009,0.102,100.0,107.1,normal,D1
33,41.81,107.1,40.51849,-3.409592,0.0279999999999999,0.018,-0.004,-0.005,-1.597,0.015,0.106,100.0,107.1,normal,D1
34,42.81,108.7,40.518681,-3.409816,0.057,0.023,0.009,0.003,-1.594,0.001,0.099,100.0,107.1,normal,D1
35,43.8,109.3,40.518906,-3.410023,-0.059,-0.002,0.011,0.003,-1.584,-0.012,0.091,100.0,109.3,normal,D1
36,44.8,109.9,40.519127000000005,-3.410235,0.043,-0.002,-0.001,-0.009,-1.577,-0.0069999999999999,0.086,100.0,109.3,normal,D1
37,45.8,110.5,40.519344,-3.410446,0.005,0.004,-0.015,-0.008,-1.5730000000000002,-0.008,0.086,100.0,109.3,normal,D1
38,46.81,114.8,40.519577000000005,-3.41066,0.025,0.026,-0.0069999999999999,-0.001,-1.5659999999999998,-0.003,0.089,100.0,114.8,normal,D1
39,47.8,111.2,40.519798,-3.410874,-0.016,0.025,-0.001,-0.004,-1.5590000000000002,-0.005,0.09,100.0,114.8,normal,D1
40,48.83,110.9,40.52002,-3.411085,-0.044,0.006,0.004,0.002,-1.56,-0.04,0.074,100.0,110.9,normal,D1
41,49.8,112.3,40.520237,-3.411296,0.01,-0.011,0.004,0.011,-1.564,-0.044,0.06,100.0,110.9,normal,D1
42,50.85,110.9,40.520458000000005,-3.411503,0.011,-0.0289999999999999,0.005,-0.004,-1.57,-0.018,0.0579999999999999,100.0,110.9,normal,D1
43,51.81,111.1,40.520683,-3.411703,-0.057,-0.065,-0.045,-0.047,-1.5530000000000002,0.006,0.067,100.0,110.9,normal,D1
44,52.8,110.4,40.520901,-3.4119050000000004,0.039,-0.018,0.001,-0.008,-1.541,0.032,0.0819999999999999,100.0,110.9,normal,D1
45,53.8,109.1,40.52113,-3.412107,0.094,0.013,0.027,0.015,-1.536,0.02,0.088,100.0,106.9,normal,D1
46,54.8,107.2,40.521347,-3.412303,-0.019,0.004,0.0409999999999999,0.03,-1.547,0.012,0.09,100.0,106.9,normal,D1
47,55.8,106.9,40.521572,-3.412506,-0.023,0.004,0.017,0.01,-1.5659999999999998,0.012,0.09,100.0,106.9,normal,D1
48,56.9,107.5,40.522015,-3.412914,-0.02,-0.006,-0.0069999999999999,-0.0,-1.578,0.017,0.096,100.0,106.9,normal,D1
49,57.81,107.5,40.522015,-3.412914,-0.081,-0.038,-0.01,-0.016,-1.5830000000000002,0.015,0.102,100.0,107.5,normal,D1
50,58.81,107.5,40.522232,-3.413118,-0.079,-0.035,-0.026,-0.005,-1.589,0.006,0.115,100.0,107.5,normal,D1
51,59.87,104.5,40.522457,-3.4132839999999995,0.024,-0.038,-0.008,-0.003,-1.592,0.036,0.15,100.0,107.5,normal,D1
52,60.84,107.5,40.522667,-3.413532,-0.032,-0.034,-0.035,-0.022,-1.589,0.044,0.187,100.0,107.5,normal,D1
53,61.81,107.6,40.522877,-3.4137470000000003,0.044,-0.002,-0.004,-0.001,-1.582,0.031,0.226,100.0,107.6,normal,D1
54,62.83,107.6,40.523075,-3.413988,-0.03,0.002,-0.002,0.0069999999999999,-1.58,0.036,0.265,100.0,107.6,normal,D1
55,63.82,107.3,40.52327,-3.4142330000000003,-0.009,-0.0289999999999999,0.006,0.0139999999999999,-1.584,0.026,0.299,100.0,107.6,normal,D1
56,64.83,107.7,40.523457,-3.414495,0.024,0.004,0.032,0.016,-1.5830000000000002,0.032,0.337,100.0,107.6,normal,D1
57,65.86,107.3,40.523636,-3.4147550000000004,0.024,-0.047,0.0289999999999999,0.012,-1.591,0.031,0.372,100.0,108.3,normal,D1
58,66.83,108.8,40.523804,-3.415022,0.001,0.005,-0.04,-0.005,-1.5930000000000002,0.047,0.406,100.0,108.3,normal,D1
59,67.82,110.1,40.523956,-3.415304,0.001,0.039,-0.049,-0.045,-1.5519999999999998,0.03,0.43,100.0,108.3,normal,D1
60,68.8,108.3,40.52412,-3.415602,0.038,0.006,-0.022,-0.017,-1.519,0.024,0.451,100.0,108.3,normal,D1
61,69.81,106.2,40.524269,-3.415896,-0.044,-0.003,-0.0069999999999999,-0.013,-1.506,0.022,0.472,100.0,108.3,normal,D1
62,70.84,104.4,40.524403,-3.416199,0.018,-0.002,-0.005,-0.0069999999999999,-1.5,0.03,0.496,100.0,104.4,normal,D1
63,71.92,101.3,40.524624,-3.416811,0.012,-0.001,-0.009,-0.009,-1.495,0.035,0.523,100.0,104.4,normal,D1
64,72.84,101.3,40.524624,-3.416811,0.039,0.035,0.016,0.0139999999999999,-1.491,0.025,0.541,100.0,101.3,normal,D1
65,73.82,99.7,40.524719,-3.417124,0.079,-0.003,0.026,0.027,-1.494,0.035,0.547,100.0,101.3,normal,D1
66,74.84,99.1,40.524803000000006,-3.417439,-0.023,0.068,0.011,0.0069999999999999,-1.503,0.035,0.546,100.0,99.7,normal,D1
67,75.82,98.6,40.524868,-3.417746,0.016,0.031,0.006,0.018,-1.508,0.013,0.528,100.0,99.7,normal,D1
68,76.81,98.1,40.52494,-3.418057,0.031,0.08,-0.018,-0.017,-1.5019999999999998,0.013,0.514,100.0,99.7,normal,D1
69,77.81,97.9,40.524998,-3.418366,-0.016,0.039,-0.006,-0.01,-1.494,0.019,0.481,100.0,99.7,normal,D1
70,78.8,96.1,40.525063,-3.4186690000000004,0.011,0.017,0.001,0.015,-1.493,0.025,0.4539999999999999,100.0,99.7,normal,D1
71,79.82,95.7,40.525131,-3.418975,-0.003,0.049,-0.051,-0.046,-1.473,0.013,0.422,100.0,99.7,normal,D1
72,80.8,94.9,40.525196,-3.419267,-0.016,0.045,0.023,0.025,-1.491,0.0,0.384,100.0,99.7,normal,D1
73,81.8,93.1,40.525257,-3.419561,0.052,0.073,-0.042,-0.026,-1.506,-0.0139999999999999,0.3379999999999999,100.0,99.7,normal,D1
74,82.82,92.1,40.525326,-3.419853,-0.0,0.0139999999999999,0.023,0.015,-1.492,-0.038,0.2739999999999999,100.0,87.5,normal,D1
75,83.89,89.3,40.525490000000005,-3.420415,-0.051,-0.013,0.018,0.008,-1.5119999999999998,-0.009,0.2339999999999999,100.0,87.5,normal,D1
76,84.81,89.3,40.525490000000005,-3.420415,0.009,0.027,-0.008,0.002,-1.516,-0.022,0.1889999999999999,100.0,87.5,normal,D1
77,85.88,89.0,40.525677,-3.4209440000000004,-0.038,0.088,0.001,-0.0139999999999999,-1.526,-0.034,0.151,100.0,87.5,normal,D1
78,86.92,87.9,40.52578,-3.4211970000000003,0.039,0.012,-0.004,-0.004,-1.5219999999999998,-0.039,0.105,100.0,87.5,normal,D1
79,87.82,87.9,40.52578,-3.4211970000000003,-0.013,0.06,-0.009,-0.0069999999999999,-1.5219999999999998,-0.0559999999999999,0.05,100.0,87.5,normal,D1
80,88.82,87.5,40.52589,-3.4214480000000003,-0.031,-0.0559999999999999,0.0,-0.004,-1.524,-0.071,-0.003,100.0,87.5,normal,D1
81,89.89,87.1,40.526142,-3.421921,0.004,-0.037,0.001,0.006,-1.5219999999999998,-0.074,-0.054,100.0,87.5,normal,D1
82,90.82,87.1,40.526142,-3.421921,-0.064,-0.054,0.0069999999999999,-0.008,-1.5219999999999998,-0.076,-0.094,90.0,87.1,normal,D1
83,91.81,86.0,40.526268,-3.422138,0.006,-0.051,0.005,0.006,-1.531,-0.064,-0.13,90.0,87.1,normal,D1
84,92.84,85.6,40.526409,-3.422347,-0.03,-0.019,-0.005,-0.006,-1.528,-0.04,-0.166,90.0,86.0,normal,D1
85,93.82,85.5,40.526566,-3.422556,-0.009,0.003,0.002,0.004,-1.529,-0.048,-0.2019999999999999,90.0,85.5,normal,D1
86,94.84,85.0,40.526722,-3.4227480000000003,-0.031,-0.047,0.017,0.011,-1.531,-0.037,-0.22,90.0,85.5,normal,D1
87,95.84,84.8,40.526867,-3.422936,-0.031,0.017,0.011,0.009,-1.535,-0.042,-0.245,90.0,84.8,normal,D1
88,96.86,86.5,40.527031,-3.423129,0.002,-0.032,0.004,0.001,-1.538,-0.05,-0.282,90.0,84.8,normal,D1
89,97.81,86.3,40.527206,-3.423306,0.005,0.0139999999999999,-0.008,-0.006,-1.537,-0.051,-0.312,90.0,86.5,normal,D1
90,98.8,86.3,40.527397,-3.4234440000000004,-0.03,-0.02,-0.027,-0.024,-1.537,-0.054,-0.3339999999999999,90.0,86.3,normal,D1
91,99.8,86.7,40.527588,-3.423585,0.0069999999999999,-0.011,-0.013,-0.013,-1.523,-0.057,-0.351,90.0,86.3,normal,D1
92,100.8,85.7,40.527779,-3.4237300000000004,-0.002,-0.046,-0.005,-0.0,-1.525,-0.057,-0.354,90.0,86.3,normal,D1
93,101.83,85.4,40.527969,-3.423861,-0.001,-0.048,-0.02,-0.01,-1.523,-0.055,-0.355,90.0,86.3,normal,D1
94,102.8,84.6,40.528164,-3.4239910000000005,-0.019,-0.003,-0.013,-0.012,-1.514,-0.035,-0.345,90.0,86.3,normal,D1
95,103.8,84.7,40.528355,-3.424115,-0.019,-0.059,0.004,0.004,-1.508,-0.055,-0.332,90.0,82.2,normal,D1
96,104.89,83.2,40.528721,-3.424363,-0.0069999999999999,-0.03,-0.0,0.002,-1.513,-0.012,-0.3,90.0,82.2,normal,D1
97,105.8,83.2,40.528721,-3.424363,-0.04,0.005,-0.008,-0.006,-1.514,-0.01,-0.273,90.0,82.2,normal,D1
98,106.8,82.2,40.528908,-3.424492,-0.002,-0.03,0.033,0.0279999999999999,-1.518,-0.0279999999999999,-0.248,90.0,82.2,normal,D1
99,107.8,82.4,40.529091,-3.424612,0.127,0.023,0.0289999999999999,0.042,-1.5490000000000002,-0.033,-0.223,90.0,82.2,normal,D1
100,108.85,82.8,40.529278000000005,-3.424732,-0.008,0.005,0.021,0.016,-1.5530000000000002,-0.026,-0.192,90.0,82.4,normal,D1
101,109.8,84.7,40.529465,-3.4248550000000004,-0.021,-0.031,-0.005,0.009,-1.5619999999999998,-0.02,-0.161,90.0,82.4,normal,D1
102,110.8,86.2,40.529648,-3.424988,-0.057,-0.024,0.005,-0.0,-1.567,-0.012,-0.127,90.0,86.2,normal,D1
103,111.8,86.8,40.529835,-3.425131,0.015,0.017,-0.0409999999999999,-0.024,-1.547,-0.001,-0.089,90.0,86.2,normal,D1
104,112.81,88.6,40.530022,-3.4252769999999995,0.05,0.043,-0.024,-0.017,-1.543,0.006,-0.055,90.0,86.8,normal,D1
105,113.8,86.9,40.530201,-3.425436,0.073,-0.011,-0.034,-0.027,-1.536,0.006,-0.023,90.0,86.9,normal,D1
106,114.83,87.8,40.530376,-3.4256010000000003,0.016,0.01,0.032,0.015,-1.529,-0.004,0.025,90.0,86.9,normal,D1
107,115.8,88.2,40.53056,-3.425774,0.0409999999999999,-0.016,0.034,0.026,-1.531,-0.005,0.059,90.0,88.2,normal,D1
108,116.83,87.4,40.530731,-3.4259480000000004,-0.046,0.012,0.024,0.02,-1.538,-0.0139999999999999,0.089,90.0,88.2,normal,D1
109,117.84,88.6,40.530903,-3.426134,-0.0139999999999999,0.0279999999999999,0.004,0.009,-1.557,0.012,0.121,90.0,88.6,normal,D1
110,118.82,89.4,40.531075,-3.4263230000000005,-0.03,0.02,-0.017,-0.025,-1.564,-0.019,0.141,90.0,89.4,normal,D1
111,119.82,91.2,40.531254,-3.426534,-0.02,-0.023,-0.008,-0.008,-1.554,-0.018,0.159,90.0,89.4,normal,D1
112,120.82,90.1,40.531425,-3.426725,-0.027,-0.0,0.001,-0.006,-1.56,0.005,0.187,90.0,89.4,normal,D1
113,121.8,90.6,40.531593,-3.426936,-0.0289999999999999,0.012,-0.033,-0.0289999999999999,-1.5530000000000002,0.0,0.21,90.0,90.6,normal,D1
114,122.81,90.0,40.53175,-3.427156,0.002,0.017,-0.004,-0.0069999999999999,-1.547,0.0,0.2269999999999999,90.0,90.6,normal,D1
115,123.85,89.0,40.531902,-3.427368,-0.033,0.068,0.006,0.006,-1.555,0.005,0.242,90.0,90.6,normal,D1
116,124.81,87.8,40.532051,-3.427585,-0.031,-0.027,-0.037,-0.031,-1.5530000000000002,-0.003,0.255,90.0,87.8,normal,D1
117,125.81,87.2,40.532188,-3.427804,-0.0289999999999999,0.019,-0.011,-0.0069999999999999,-1.546,-0.023,0.271,90.0,87.8,normal,D1
118,126.85,85.8,40.532314,-3.428022,0.004,0.002,0.011,0.023,-1.56,-0.006,0.292,90.0,87.2,normal,D1
119,127.81,83.2,40.532433000000005,-3.4282480000000004,-0.022,0.025,0.01,0.0139999999999999,-1.574,-0.0139999999999999,0.306,90.0,83.2,normal,D1
120,128.86,83.4,40.532539,-3.428477,-0.0279999999999999,0.002,0.034,0.027,-1.595,-0.0289999999999999,0.315,90.0,83.4,normal,D1
121,129.91,84.3,40.532749,-3.428954,0.018,0.011,0.035,0.027,-1.607,-0.03,0.32,90.0,83.4,normal,D1
122,130.87,84.3,40.532749,-3.428954,-0.006,-0.015,0.009,0.03,-1.612,-0.025,0.3289999999999999,90.0,84.3,normal,D1
123,131.82,84.9,40.532879,-3.429204,-0.019,0.022,0.02,0.017,-1.609,-0.024,0.34,90.0,84.3,normal,D1
124,132.8,86.4,40.532986,-3.429445,-0.022,0.025,0.0069999999999999,0.006,-1.618,-0.023,0.346,90.0,86.4,normal,D1
125,133.82,87.0,40.533085,-3.429693,-0.023,-0.006,-0.001,0.0069999999999999,-1.609,-0.017,0.352,90.0,86.4,normal,D1
126,134.82,87.6,40.53318,-3.429959,0.0069999999999999,0.032,-0.001,0.006,-1.604,-0.011,0.363,90.0,88.7,normal,D1
127,135.82,88.7,40.533264,-3.4302010000000003,-0.015,0.019,-0.013,-0.005,-1.605,-0.0139999999999999,0.372,90.0,88.7,normal,D1
128,136.82,89.1,40.533344,-3.43048,-0.0,0.004,0.026,0.008,-1.602,-0.036,0.377,90.0,88.7,normal,D1
129,137.81,88.5,40.533413,-3.430742,0.008,-0.004,0.004,0.005,-1.607,-0.011,0.385,90.0,88.5,normal,D1
130,138.82,88.5,40.533478,-3.431021,-0.0559999999999999,0.022,0.01,0.004,-1.606,-0.006,0.3929999999999999,90.0,88.5,normal,D1
131,139.9,89.7,40.533607,-3.431592,0.006,-0.022,-0.01,-0.0139999999999999,-1.597,-0.006,0.396,90.0,89.7,normal,D1
132,140.8,89.7,40.533607,-3.431592,-0.0069999999999999,-0.005,-0.0559999999999999,-0.059,-1.585,-0.01,0.402,90.0,89.7,normal,D1
133,141.82,88.8,40.533657,-3.431882,0.019,0.012,0.003,0.013,-1.57,-0.013,0.4029999999999999,90.0,88.8,normal,D1
134,142.84,87.0,40.53371,-3.432174,-0.062,0.003,-0.022,-0.006,-1.581,0.006,0.407,90.0,88.8,normal,D1
135,143.83,86.0,40.533749,-3.43246,-0.032,0.011,0.0409999999999999,0.018,-1.579,-0.001,0.416,90.0,87.0,normal,D1
136,144.81,86.2,40.533779,-3.432745,0.001,0.021,0.01,0.017,-1.588,-0.023,0.419,90.0,86.0,normal,D1
137,145.82,85.3,40.533802,-3.4330230000000004,-0.057,-0.032,-0.012,-0.005,-1.598,-0.033,0.413,90.0,86.0,normal,D1
138,146.82,86.6,40.533817,-3.433311,-0.011,-0.002,0.001,0.001,-1.5930000000000002,-0.0279999999999999,0.411,90.0,86.0,normal,D1
139,147.81,85.9,40.533829,-3.4336,-0.008,-0.012,0.025,0.027,-1.596,-0.005,0.407,90.0,86.0,normal,D1
140,148.82,86.0,40.533855,-3.433863,-0.023,0.035,0.0,0.002,-1.601,-0.009,0.401,90.0,87.4,normal,D1
141,149.82,86.7,40.533871000000005,-3.434131,0.008,0.039,-0.019,0.0069999999999999,-1.616,0.01,0.39,90.0,87.4,normal,D1
142,150.85,87.3,40.533882,-3.434413,0.026,0.063,0.0139999999999999,0.01,-1.594,0.005,0.373,90.0,87.4,normal,D1
143,151.8,87.4,40.533886,-3.434711,0.0139999999999999,-0.017,0.01,0.0069999999999999,-1.5930000000000002,0.002,0.366,90.0,87.4,normal,D1
144,152.9,86.7,40.533882,-3.4352949999999995,-0.048,-0.071,0.019,0.017,-1.5930000000000002,-0.016,0.351,90.0,87.4,normal,D1
145,153.8,86.7,40.533882,-3.4352949999999995,-0.022,-0.006,0.008,0.011,-1.599,-0.008,0.342,90.0,86.7,normal,D1
146,154.81,87.7,40.533882,-3.435577,-0.021,0.006,0.01,0.009,-1.6130000000000002,-0.032,0.303,90.0,86.7,normal,D1
147,155.84,87.3,40.533882,-3.4358660000000003,-0.0279999999999999,-0.035,-0.017,-0.024,-1.612,-0.011,0.2789999999999999,90.0,87.3,normal,D1
148,156.81,88.0,40.533882,-3.436156,-0.02,0.023,-0.011,-0.009,-1.594,0.001,0.265,90.0,87.3,normal,D1
149,157.8,88.0,40.533882,-3.4364510000000004,0.012,-0.004,0.005,0.006,-1.614,0.003,0.25,90.0,88.0,normal,D1
150,158.86,87.9,40.533875,-3.436746,0.035,0.003,0.015,0.0139999999999999,-1.619,0.019,0.243,90.0,88.0,normal,D1
151,159.83,88.7,40.533878,-3.437028,-0.036,-0.013,-0.0139999999999999,-0.005,-1.622,0.017,0.235,90.0,88.7,normal,D1
152,160.84,90.1,40.533882,-3.437326,-0.033,-0.002,-0.004,-0.002,-1.617,0.02,0.228,90.0,88.7,normal,D1
153,161.8,90.3,40.533878,-3.437619,0.0139999999999999,0.0069999999999999,-0.047,-0.04,-1.609,0.002,0.217,90.0,88.7,normal,D1
154,162.8,90.3,40.533878,-3.437925,0.003,-0.015,-0.003,-0.003,-1.594,-0.002,0.207,90.0,88.7,normal,D1
155,163.8,89.2,40.533875,-3.4382230000000003,0.002,0.005,-0.02,-0.013,-1.598,0.0,0.198,90.0,88.7,normal,D1
156,164.83,89.7,40.533878,-3.4385260000000004,0.008,-0.015,-0.021,-0.01,-1.579,0.001,0.195,90.0,88.7,normal,D1
157,165.8,88.9,40.533882,-3.438824,-0.013,0.006,0.003,0.001,-1.579,0.0069999999999999,0.1939999999999999,90.0,88.7,normal,D1
158,166.81,88.8,40.533878,-3.439102,0.003,0.015,0.009,0.0,-1.584,-0.003,0.187,90.0,88.7,normal,D1
159,167.83,88.7,40.533875,-3.439385,0.036,0.009,-0.0139999999999999,-0.022,-1.5730000000000002,-0.021,0.177,90.0,88.7,normal,D1
160,168.8,87.1,40.533878,-3.43967,0.006,-0.021,0.008,0.006,-1.58,-0.011,0.174,90.0,88.7,normal,D1
161,169.83,87.6,40.533875,-3.4399610000000003,-0.0139999999999999,-0.046,-0.002,0.006,-1.5830000000000002,-0.023,0.173,90.0,88.7,normal,D1
162,170.8,88.5,40.533875,-3.440253,0.011,-0.016,-0.03,-0.016,-1.586,-0.005,0.175,90.0,88.7,normal,D1
163,171.81,88.4,40.533875,-3.4405360000000003,0.0069999999999999,0.0289999999999999,-0.017,-0.015,-1.5730000000000002,0.003,0.177,90.0,88.7,normal,D1
164,172.8,89.7,40.533867,-3.4408220000000003,-0.01,0.0139999999999999,-0.021,-0.023,-1.567,-0.011,0.166,90.0,88.7,normal,D1
165,173.8,89.7,40.533855,-3.4411080000000003,-0.012,-0.05,-0.026,-0.035,-1.5590000000000002,-0.001,0.162,90.0,88.7,normal,D1
166,174.81,88.5,40.533848,-3.4413940000000003,-0.01,-0.003,0.017,0.013,-1.55,0.02,0.17,90.0,88.7,normal,D1
167,175.81,88.5,40.533840000000005,-3.441677,-0.0139999999999999,0.042,0.011,0.004,-1.557,0.005,0.159,90.0,88.7,normal,D1
168,176.9,89.9,40.533836,-3.442246,-0.011,-0.0069999999999999,-0.017,-0.008,-1.569,-0.009,0.149,90.0,88.7,normal,D1
169,177.81,89.9,40.533836,-3.442246,0.0409999999999999,-0.038,-0.023,-0.03,-1.548,0.001,0.147,90.0,88.7,normal,D1
170,178.88,89.8,40.533836,-3.4425410000000003,-0.02,-0.005,-0.008,-0.005,-1.538,0.006,0.151,90.0,88.7,normal,D1
171,179.81,89.0,40.533844,-3.442821,-0.009,-0.04,-0.001,0.015,-1.5519999999999998,0.01,0.149,90.0,88.7,normal,D1
172,180.81,90.4,40.533852,-3.4431199999999995,-0.006,0.037,-0.031,-0.03,-1.539,-0.016,0.154,90.0,88.7,normal,D1
173,181.82,90.0,40.533852,-3.443424,0.003,0.015,-0.03,-0.022,-1.528,-0.021,0.151,90.0,99.1,normal,D1
174,182.81,88.9,40.533852,-3.443718,-0.024,0.005,0.005,0.0069999999999999,-1.529,0.031,0.1689999999999999,90.0,99.1,normal,D1
175,183.86,88.2,40.533848,-3.4440120000000003,0.013,0.037,0.005,0.003,-1.534,-0.0069999999999999,0.156,90.0,99.1,normal,D1
176,184.81,88.5,40.533848,-3.4443040000000003,-0.038,-0.02,-0.03,-0.018,-1.533,-0.009,0.149,90.0,99.1,normal,D1
177,185.82,88.6,40.533848,-3.444599,-0.057,-0.001,-0.02,-0.024,-1.526,-0.005,0.148,90.0,99.1,normal,D1
178,186.84,87.8,40.533848,-3.44489,-0.017,-0.036,0.001,0.001,-1.525,-0.006,0.151,90.0,99.1,normal,D1
179,187.82,87.4,40.533848,-3.44518,0.0139999999999999,0.0279999999999999,-0.022,-0.016,-1.521,-0.002,0.156,90.0,99.1,normal,D1
180,188.81,87.3,40.533852,-3.4454580000000004,-0.031,0.0069999999999999,0.009,0.015,-1.525,-0.0069999999999999,0.151,90.0,99.1,normal,D1
181,189.8,86.5,40.533848,-3.445729,-0.054,0.001,0.019,0.011,-1.536,-0.001,0.154,90.0,99.1,normal,D1
182,190.84,87.4,40.533848,-3.446019,0.004,0.003,0.017,0.012,-1.544,0.012,0.157,90.0,99.1,normal,D1
183,191.83,87.7,40.533848,-3.446305,-0.025,-0.025,-0.018,-0.015,-1.53,0.008,0.161,90.0,99.1,normal,D1
184,192.81,88.3,40.533848,-3.446597,-0.037,0.025,-0.003,-0.0069999999999999,-1.531,0.015,0.163,90.0,99.1,normal,D1
185,193.88,87.5,40.533844,-3.447188,-0.009,0.004,0.001,-0.004,-1.518,0.0069999999999999,0.161,90.0,99.1,normal,D1
186,194.84,87.5,40.533844,-3.447188,-0.03,-0.044,0.022,0.0139999999999999,-1.528,0.004,0.162,90.0,99.1,normal,D1
187,195.91,87.6,40.533836,-3.447768,-0.0579999999999999,-0.053,0.0069999999999999,0.004,-1.526,0.006,0.168,90.0,99.1,normal,D1
188,196.83,87.6,40.533836,-3.447768,-0.0139999999999999,0.06,0.039,0.013,-1.545,0.008,0.174,90.0,99.1,normal,D1
189,197.83,88.3,40.533833,-3.448059,-0.005,-0.016,0.04,0.044,-1.546,0.008,0.179,90.0,99.1,normal,D1
190,198.8,89.8,40.533829,-3.4483550000000003,-0.022,-0.025,0.027,0.0279999999999999,-1.561,-0.026,0.171,90.0,99.1,normal,D1
191,199.82,91.4,40.533825,-3.4486510000000004,-0.006,-0.054,0.077,0.078,-1.587,-0.012,0.1689999999999999,90.0,99.1,normal,D1
192,200.89,94.7,40.533825,-3.448958,-0.019,-0.008,0.062,0.049,-1.628,0.008,0.177,90.0,99.1,normal,D1
193,201.83,99.1,40.533817,-3.449281,-0.024,0.078,-0.006,0.003,-1.654,0.035,0.1889999999999999,90.0,99.1,normal,D1
194,202.92,108.8,40.533806,-3.449979,0.021,0.0559999999999999,0.0279999999999999,0.018,-1.652,0.019,0.177,90.0,99.1,normal,D1
195,203.91,112.3,40.533787,-3.450346,0.008,-0.008,-0.0279999999999999,-0.023,-1.649,-0.01,0.162,90.0,112.3,normal,D1
196,204.85,112.3,40.533787,-3.450346,-0.02,0.0069999999999999,-0.0559999999999999,-0.059,-1.622,-0.023,0.153,90.0,112.3,normal,D1
197,205.83,115.7,40.533779,-3.45072,-0.0289999999999999,0.075,-0.07,-0.04,-1.602,0.003,0.15,90.0,112.3,normal,D1
198,206.8,116.8,40.533783,-3.451114,0.008,0.133,-0.065,-0.0819999999999999,-1.5930000000000002,-0.01,0.132,90.0,116.8,normal,D1
199,207.82,116.8,40.533791,-3.451486,-0.001,-0.044,-0.106,-0.092,-1.595,-0.002,0.11,90.0,116.8,normal,D1
200,208.82,116.3,40.533802,-3.451859,-0.0139999999999999,0.012,-0.027,-0.037,-1.543,0.033,0.123,90.0,116.8,normal,D1
201,209.82,116.1,40.533813,-3.4522440000000003,-0.063,-0.039,-0.0139999999999999,-0.025,-1.523,0.039,0.136,90.0,116.8,normal,D1
202,210.9,114.4,40.533817,-3.453002,-0.038,0.018,-0.03,-0.026,-1.513,0.017,0.143,90.0,116.8,normal,D1
203,211.82,114.4,40.533817,-3.453002,-0.0,0.006,-0.026,-0.025,-1.503,0.017,0.146,90.0,116.8,normal,D1
204,212.83,113.0,40.533821,-3.4533730000000005,0.004,-0.027,-0.01,-0.006,-1.494,0.018,0.153,90.0,116.8,normal,D1
205,213.9,111.0,40.533821,-3.453746,-0.0409999999999999,0.037,0.001,0.009,-1.5,0.006,0.153,90.0,116.8,normal,D1
206,214.93,109.9,40.53381,-3.4541120000000003,0.021,0.013,0.03,0.022,-1.504,-0.009,0.153,90.0,116.8,normal,D1
207,215.87,109.2,40.533821,-3.454461,-0.072,0.011,-0.0069999999999999,-0.01,-1.503,-0.009,0.151,90.0,116.8,normal,D1
208,216.8,108.4,40.533817,-3.454823,0.038,-0.0139999999999999,0.0,-0.015,-1.495,-0.004,0.15,90.0,116.8,normal,D1
209,217.8,107.3,40.533817,-3.455178,-0.026,0.019,-0.025,-0.015,-1.496,-0.012,0.151,-1.0,99.1,normal,D1
210,218.8,106.0,40.533821,-3.455528,-0.0559999999999999,-0.032,-0.013,-0.011,-1.495,-0.011,0.15,-1.0,99.1,normal,D1
211,219.8,104.7,40.533821,-3.4558760000000004,-0.064,-0.003,-0.005,-0.0069999999999999,-1.49,-0.015,0.15,-1.0,99.1,normal,D1
212,220.84,102.7,40.533821,-3.45622,-0.039,-0.017,0.008,0.004,-1.497,-0.009,0.149,-1.0,99.1,normal,D1
213,221.81,101.3,40.533817,-3.456557,-0.0069999999999999,0.008,0.006,0.016,-1.505,-0.0069999999999999,0.151,-1.0,99.1,normal,D1
214,222.81,100.7,40.533817,-3.456887,-0.016,0.015,0.001,-0.002,-1.516,-0.01,0.15,-1.0,99.1,normal,D1
215,223.83,99.8,40.533817,-3.457209,0.02,-0.032,-0.002,0.002,-1.526,-0.0,0.149,-1.0,99.1,normal,D1
216,224.8,99.5,40.533817,-3.457529,-0.022,-0.02,0.004,-0.0,-1.527,0.003,0.154,-1.0,99.1,normal,D1
217,225.8,99.1,40.533813,-3.45785,0.0069999999999999,0.024,0.008,0.0139999999999999,-1.544,0.002,0.155,-1.0,99.1,normal,D1
218,226.8,99.5,40.533802,-3.458168,-0.01,0.07,0.008,0.012,-1.5530000000000002,0.004,0.153,-1.0,99.1,normal,D1
219,227.83,99.6,40.533794,-3.4584870000000003,-0.063,-0.017,-0.018,-0.005,-1.556,-0.011,0.15,90.0,99.6,normal,D1
220,228.81,99.9,40.533791,-3.458806,0.067,0.004,0.003,-0.006,-1.539,-0.013,0.144,90.0,99.6,normal,D1
221,229.84,99.0,40.533783,-3.459124,-0.03,-0.047,0.004,-0.006,-1.533,0.017,0.149,90.0,99.6,normal,D1
222,230.8,97.8,40.533779,-3.459438,0.016,0.04,0.002,0.004,-1.529,0.011,0.146,90.0,99.6,normal,D1
223,231.81,97.2,40.533772,-3.459756,-0.035,-0.017,0.022,0.022,-1.529,0.006,0.147,90.0,99.6,normal,D1
224,232.89,96.5,40.533772,-3.460393,-0.0279999999999999,-0.021,-0.008,-0.011,-1.533,-0.001,0.163,90.0,95.5,normal,D1
225,233.89,95.5,40.533772,-3.460711,-0.039,-0.009,0.039,0.033,-1.5319999999999998,-0.005,0.163,90.0,95.5,normal,D1
226,234.82,95.5,40.533772,-3.460711,-0.002,-0.03,0.024,0.017,-1.569,-0.023,0.156,90.0,95.5,normal,D1
227,235.81,95.5,40.533772,-3.461028,0.019,-0.004,0.035,0.032,-1.578,-0.018,0.153,90.0,95.5,normal,D1
228,236.81,96.3,40.533775,-3.461352,-0.019,0.039,-0.0289999999999999,-0.021,-1.564,-0.017,0.153,90.0,95.5,normal,D1
229,237.81,96.6,40.533772,-3.461668,0.016,0.034,-0.0279999999999999,-0.02,-1.564,-0.018,0.15,90.0,95.5,normal,D1
230,238.88,95.5,40.533768,-3.461982,-0.004,0.072,-0.0,-0.005,-1.561,-0.023,0.149,90.0,95.5,normal,D1
231,239.81,94.8,40.53376,-3.4622910000000005,-0.022,-0.094,0.0289999999999999,0.021,-1.574,-0.006,0.15,90.0,95.5,normal,D1
232,240.85,95.0,40.533756,-3.462618,0.001,-0.0139999999999999,0.004,0.01,-1.578,0.012,0.159,90.0,95.5,normal,D1
233,241.83,95.5,40.533749,-3.462933,-0.01,0.065,-0.021,-0.016,-1.5719999999999998,0.006,0.157,90.0,94.7,normal,D1
234,242.81,95.4,40.533741,-3.463253,-0.0289999999999999,0.02,-0.01,-0.004,-1.588,-0.02,0.142,90.0,94.7,normal,D1
235,243.85,95.4,40.533745,-3.4635769999999995,-0.036,0.009,-0.0069999999999999,-0.0069999999999999,-1.5659999999999998,-0.009,0.141,90.0,94.7,normal,D1
236,244.88,95.5,40.533737,-3.463892,-0.002,-0.0279999999999999,-0.005,0.0,-1.557,0.025,0.152,90.0,94.7,normal,D1
237,245.82,94.7,40.533749,-3.464174,-0.011,0.053,0.013,0.016,-1.561,0.0139999999999999,0.148,90.0,94.7,normal,D1
238,246.97,94.7,40.533745,-3.4647870000000003,-0.0279999999999999,0.034,0.021,0.0139999999999999,-1.5719999999999998,0.015,0.136,90.0,94.7,normal,D1
239,247.84,94.7,40.533745,-3.4647870000000003,-0.0,0.034,-0.006,0.0,-1.579,-0.019,0.109,90.0,94.7,normal,D1
240,248.82,95.8,40.533752,-3.465104,-0.09,0.07,-0.042,-0.044,-1.567,-0.035,0.073,90.0,94.7,normal,D1
241,249.97,94.1,40.533787,-3.465728,-0.037,0.023,0.005,0.0,-1.5659999999999998,-0.043,0.02,90.0,95.8,normal,D1
242,250.82,94.1,40.533787,-3.465728,-0.054,0.026,-0.015,-0.022,-1.5759999999999998,-0.051,-0.013,90.0,94.1,normal,D1
243,251.88,94.1,40.533825,-3.466041,-0.061,0.002,0.008,0.008,-1.58,-0.061,-0.068,90.0,94.1,normal,D1
244,252.9,93.7,40.533875,-3.466353,0.002,-0.027,0.008,0.003,-1.589,-0.075,-0.113,90.0,94.1,normal,D1
245,253.83,95.1,40.533939,-3.46666,-0.055,0.034,-0.027,-0.024,-1.588,-0.073,-0.158,90.0,94.1,normal,D1
246,254.91,94.6,40.534012,-3.466962,-0.008,0.027,-0.016,-0.027,-1.589,-0.08,-0.209,90.0,94.1,normal,D1
247,255.8,93.7,40.534107,-3.467268,-0.005,0.005,-0.035,-0.032,-1.565,-0.084,-0.249,90.0,94.1,normal,D1
248,256.96,92.4,40.534298,-3.467796,0.023,0.0289999999999999,-0.011,-0.001,-1.5630000000000002,-0.09,-0.296,90.0,94.1,normal,D1
249,257.82,92.4,40.534298,-3.467796,0.004,-0.0409999999999999,-0.0139999999999999,-0.0279999999999999,-1.551,-0.087,-0.3339999999999999,90.0,94.1,normal,D1
250,258.83,91.4,40.534405,-3.4680470000000003,-0.021,-0.0069999999999999,-0.022,-0.017,-1.545,-0.089,-0.3779999999999999,90.0,82.5,normal,D1
251,259.89,90.2,40.534531,-3.468303,-0.001,-0.019,-0.015,-0.022,-1.538,-0.084,-0.417,90.0,82.5,normal,D1
252,260.98,85.7,40.534798,-3.468771,0.037,0.039,0.001,-0.005,-1.531,-0.072,-0.4579999999999999,90.0,82.5,normal,D1
253,261.81,85.7,40.534798,-3.468771,-0.051,-0.021,-0.013,-0.013,-1.537,-0.077,-0.485,90.0,82.5,normal,D1
254,262.82,84.5,40.534927,-3.468986,0.0289999999999999,-0.025,0.018,0.013,-1.54,-0.092,-0.522,90.0,82.5,normal,D1
255,263.86,82.5,40.535076,-3.469195,-0.033,-0.0289999999999999,0.01,0.017,-1.558,-0.067,-0.555,90.0,82.5,normal,D1
256,264.86,81.8,40.535233000000005,-3.469376,-0.016,-0.012,0.0139999999999999,0.016,-1.58,-0.0579999999999999,-0.589,90.0,82.5,normal,D1
257,265.86,82.5,40.535397,-3.469542,0.032,-0.0069999999999999,0.019,0.016,-1.605,-0.05,-0.628,100.0,83.5,normal,D1
258,266.94,83.5,40.535553,-3.469711,-0.047,-0.001,-0.013,-0.012,-1.616,-0.0279999999999999,-0.648,100.0,83.5,normal,D1
259,267.85,85.0,40.535732,-3.469856,-0.064,0.004,-0.036,-0.019,-1.622,-0.037,-0.669,100.0,83.5,normal,D1
260,268.8,85.7,40.535908,-3.470012,0.002,0.008,-0.023,-0.03,-1.621,-0.051,-0.7020000000000001,100.0,83.5,normal,D1
261,269.9,88.0,40.536297,-3.470277,-0.013,-0.015,0.011,0.001,-1.602,-0.048,-0.733,100.0,83.5,normal,D1
262,270.83,88.0,40.536297,-3.470277,-0.0139999999999999,0.0559999999999999,-0.002,-0.001,-1.6030000000000002,-0.06,-0.769,100.0,83.5,normal,D1
263,271.81,88.7,40.536503,-3.470391,0.001,0.023,0.027,0.01,-1.606,-0.074,-0.8029999999999999,100.0,83.5,normal,D1
264,272.82,90.0,40.53672,-3.470501,-0.016,-0.045,0.0069999999999999,-0.004,-1.6130000000000002,-0.078,-0.8270000000000001,100.0,83.5,normal,D1
265,273.82,91.2,40.536942,-3.470586,-0.03,-0.0559999999999999,0.008,-0.001,-1.618,-0.061,-0.8370000000000001,100.0,97.7,normal,D1
266,274.82,92.8,40.537163,-3.470686,-0.022,-0.0559999999999999,-0.0139999999999999,-0.01,-1.621,-0.067,-0.8290000000000001,100.0,97.7,normal,D1
267,275.83,94.1,40.537392,-3.470763,0.009,-0.069,-0.022,-0.017,-1.622,-0.081,-0.815,100.0,97.7,normal,D1
268,276.84,95.5,40.537617,-3.4708410000000005,0.017,-0.018,-0.024,-0.025,-1.611,-0.025,-0.792,100.0,97.7,normal,D1
269,277.83,96.1,40.537846,-3.470914,-0.025,-0.03,-0.009,0.0,-1.595,-0.0139999999999999,-0.769,100.0,97.7,normal,D1
270,278.83,97.7,40.538074,-3.470999,0.002,0.013,0.001,-0.011,-1.589,-0.013,-0.7509999999999999,100.0,97.7,normal,D1
271,279.83,97.6,40.538303000000006,-3.471071,-0.002,-0.02,0.0069999999999999,-0.004,-1.561,-0.013,-0.736,100.0,97.7,normal,D1
272,280.81,97.1,40.538536,-3.4711480000000003,-0.031,-0.009,0.036,0.032,-1.567,-0.001,-0.7190000000000001,90.0,97.1,normal,D1
273,281.8,97.2,40.538769,-3.471225,-0.026,-0.001,0.023,0.018,-1.57,-0.002,-0.701,90.0,97.1,normal,D1
274,282.86,97.8,40.539009,-3.4712980000000004,0.009,0.025,-0.015,-0.016,-1.568,0.003,-0.6859999999999999,90.0,97.1,normal,D1
275,283.81,98.5,40.539246,-3.4713769999999995,-0.047,0.009,-0.046,-0.036,-1.5590000000000002,0.0139999999999999,-0.6709999999999999,90.0,97.1,normal,D1
276,284.81,99.6,40.539482,-3.471456,-0.053,0.031,0.013,0.019,-1.561,0.0069999999999999,-0.657,90.0,97.1,normal,D1
277,285.8,96.6,40.539719,-3.471522,-0.043,-0.001,0.037,0.026,-1.58,0.005,-0.642,90.0,97.2,normal,D1
278,286.8,97.5,40.539948,-3.471581,0.022,0.0069999999999999,-0.022,-0.006,-1.579,0.0069999999999999,-0.63,90.0,97.2,normal,D1
279,287.86,98.0,40.540169,-3.471651,0.013,0.001,-0.011,-0.005,-1.568,0.02,-0.618,90.0,97.2,normal,D1
280,288.82,97.2,40.540401,-3.471732,-0.006,0.027,0.01,0.012,-1.569,0.003,-0.611,90.0,97.2,normal,D1
281,289.83,96.6,40.540638,-3.471795,-0.03,-0.003,-0.003,0.005,-1.5830000000000002,0.001,-0.605,90.0,97.2,normal,D1
282,290.83,97.6,40.540874,-3.471875,-0.015,-0.035,0.01,0.009,-1.587,0.002,-0.598,90.0,97.2,normal,D1
283,291.8,98.1,40.541111,-3.471956,0.019,-0.0069999999999999,0.021,0.0139999999999999,-1.586,-0.011,-0.596,90.0,97.2,normal,D1
284,292.8,98.4,40.541359,-3.472035,-0.027,0.0139999999999999,-0.015,-0.013,-1.58,0.005,-0.589,30.0,98.4,normal,D1
285,293.87,98.4,40.541595,-3.472117,-0.035,0.021,-0.025,-0.018,-1.564,-0.001,-0.5870000000000001,30.0,98.4,normal,D1
286,294.81,98.3,40.54184,-3.472199,0.054,0.045,-0.023,-0.0139999999999999,-1.547,-0.01,-0.586,30.0,98.4,normal,D1
287,295.81,97.3,40.542076,-3.4722800000000005,0.002,0.002,0.023,0.0289999999999999,-1.5659999999999998,-0.0069999999999999,-0.58,30.0,97.3,normal,D1
288,296.85,95.9,40.542309,-3.4723550000000003,0.09,0.046,-0.0,0.002,-1.569,0.002,-0.575,30.0,95.9,normal,D1
289,297.81,95.4,40.542549,-3.472439,0.107,0.022,0.009,0.018,-1.569,0.009,-0.5720000000000001,30.0,95.9,normal,D1
290,298.81,95.9,40.542786,-3.472511,-0.03,-0.001,0.031,0.027,-1.599,0.009,-0.5720000000000001,30.0,95.9,normal,D1
291,299.81,96.4,40.543015,-3.4725900000000003,-0.0,0.048,-0.01,0.003,-1.605,0.011,-0.569,30.0,95.9,normal,D1
292,300.85,97.0,40.543243,-3.472661,-0.032,0.005,-0.011,-0.01,-1.6,-0.0069999999999999,-0.5710000000000001,30.0,95.9,normal,D1
293,301.81,97.5,40.543476,-3.4727360000000003,0.03,-0.008,-0.061,-0.065,-1.579,-0.002,-0.5710000000000001,30.0,95.9,normal,D1
294,302.81,97.8,40.543716,-3.47282,-0.043,0.008,-0.016,-0.013,-1.5630000000000002,0.017,-0.569,30.0,95.9,normal,D1
295,303.81,95.7,40.543938,-3.472894,0.006,0.003,0.002,0.009,-1.5619999999999998,0.005,-0.5660000000000001,30.0,89.7,normal,D1
296,304.82,94.5,40.544178,-3.472975,0.006,0.043,0.0,0.006,-1.57,0.0069999999999999,-0.565,30.0,89.7,normal,D1
297,305.81,93.9,40.544403,-3.473057,0.002,-0.04,-0.01,-0.008,-1.5630000000000002,-0.013,-0.568,30.0,89.7,normal,D1
298,306.82,94.1,40.544628,-3.473127,0.02,-0.001,0.001,-0.009,-1.5530000000000002,-0.027,-0.569,30.0,89.7,normal,D1
299,307.93,89.7,40.545074,-3.4732730000000003,-0.013,-0.03,-0.003,-0.002,-1.545,-0.022,-0.562,30.0,89.7,normal,D1
300,308.81,89.7,40.545074,-3.4732730000000003,-0.031,0.0139999999999999,-0.001,0.003,-1.545,-0.032,-0.562,30.0,89.7,normal,D1
301,309.82,88.7,40.545292,-3.4733440000000004,-0.017,-0.01,0.0069999999999999,0.0069999999999999,-1.5490000000000002,-0.05,-0.563,30.0,89.7,normal,D1
302,310.82,88.0,40.545506,-3.4734199999999995,0.0409999999999999,-0.026,0.001,-0.002,-1.5590000000000002,-0.045,-0.5670000000000001,90.0,88.0,normal,D1
303,311.82,86.0,40.545715,-3.47349,-0.067,-0.033,0.026,0.02,-1.565,-0.042,-0.564,90.0,86.0,normal,D1
304,312.85,85.8,40.545925,-3.473557,0.0,-0.025,0.045,0.0279999999999999,-1.571,-0.024,-0.556,90.0,86.0,normal,D1
305,313.82,85.0,40.546135,-3.473622,-0.004,-0.003,0.035,0.035,-1.584,-0.019,-0.544,90.0,86.0,normal,D1
306,314.83,85.7,40.546337,-3.4737,-0.051,0.006,0.016,0.021,-1.606,-0.021,-0.5329999999999999,90.0,86.0,normal,D1
307,315.82,86.8,40.546535,-3.47378,0.005,0.021,0.025,0.025,-1.608,-0.039,-0.534,90.0,87.7,normal,D1
308,316.85,87.7,40.546757,-3.473872,0.023,-0.005,0.021,0.022,-1.621,-0.027,-0.523,90.0,87.7,normal,D1
309,317.82,88.6,40.546982,-3.473963,-0.022,-0.005,0.018,0.017,-1.631,-0.015,-0.503,90.0,87.7,normal,D1
310,318.87,89.7,40.547195,-3.474059,-0.003,0.023,-0.013,-0.011,-1.6369999999999998,-0.03,-0.492,90.0,89.7,normal,D1
311,319.8,91.8,40.547409,-3.474161,-0.053,-0.004,0.019,0.011,-1.635,-0.032,-0.487,90.0,89.7,normal,D1
312,320.82,94.0,40.547626,-3.4742660000000005,-0.024,-0.0139999999999999,-0.006,-0.002,-1.629,-0.018,-0.476,90.0,94.0,normal,D1
313,321.82,95.2,40.547844,-3.474375,-0.011,-0.035,-0.017,-0.02,-1.626,-0.015,-0.461,90.0,94.0,normal,D1
314,322.8,95.8,40.548073,-3.47448,-0.026,0.036,0.001,-0.0069999999999999,-1.626,-0.0069999999999999,-0.4539999999999999,90.0,94.0,normal,D1
315,323.91,97.0,40.548523,-3.474736,-0.061,0.009,-0.006,-0.002,-1.617,-0.0069999999999999,-0.442,90.0,94.0,normal,D1
316,324.8,97.0,40.548523,-3.474736,0.033,-0.0,-0.0139999999999999,0.002,-1.62,0.011,-0.43,90.0,94.0,normal,D1
317,325.84,99.1,40.548763,-3.4748660000000005,-0.006,0.023,-0.017,-0.0289999999999999,-1.571,0.0069999999999999,-0.415,90.0,94.0,normal,D1
318,326.82,97.3,40.549,-3.475007,0.0409999999999999,0.024,0.022,0.015,-1.578,0.001,-0.411,90.0,94.0,normal,D1
319,327.86,97.2,40.549213,-3.47515,-0.042,0.011,0.02,0.011,-1.586,-0.002,-0.408,90.0,94.0,normal,D1
320,328.82,96.8,40.549438,-3.4752910000000004,-0.045,0.048,-0.008,-0.008,-1.584,0.005,-0.406,90.0,94.2,normal,D1
321,329.82,97.1,40.549656,-3.475438,-0.039,-0.023,-0.006,-0.002,-1.5830000000000002,-0.005,-0.4029999999999999,90.0,94.2,normal,D1
322,330.86,96.8,40.549858,-3.475599,-0.0819999999999999,0.032,-0.0069999999999999,-0.0069999999999999,-1.592,-0.01,-0.3939999999999999,90.0,94.2,normal,D1
323,331.84,97.1,40.55006,-3.475767,0.0069999999999999,0.002,-0.017,-0.02,-1.5730000000000002,-0.016,-0.392,90.0,94.2,normal,D1
324,332.84,96.2,40.550262,-3.475941,-0.051,-0.062,-0.0,-0.013,-1.574,-0.0139999999999999,-0.384,90.0,94.2,normal,D1
325,333.91,94.2,40.550632,-3.476297,0.01,0.023,-0.018,-0.0069999999999999,-1.575,-0.0139999999999999,-0.3829999999999999,90.0,94.2,normal,D1
326,334.83,94.2,40.550632,-3.476297,-0.036,0.03,0.018,0.02,-1.584,-0.021,-0.3829999999999999,90.0,94.2,normal,D1
327,335.83,93.8,40.550823,-3.476493,-0.012,0.017,0.008,0.0,-1.589,-0.0069999999999999,-0.384,90.0,94.2,normal,D1
328,336.84,93.9,40.550999,-3.476665,0.0139999999999999,0.011,0.025,0.017,-1.5930000000000002,-0.027,-0.385,90.0,93.9,normal,D1
329,337.82,94.0,40.55117,-3.476849,-0.024,0.02,0.016,0.013,-1.597,-0.022,-0.385,90.0,93.9,normal,D1
330,338.83,94.7,40.551361,-3.477037,0.038,-0.055,-0.012,0.004,-1.594,-0.02,-0.379,90.0,94.0,normal,D1
331,339.8,95.6,40.551544,-3.477241,-0.053,0.004,-0.017,-0.019,-1.584,-0.015,-0.376,90.0,94.7,normal,D1
332,340.82,95.2,40.551731,-3.477449,-0.034,0.003,0.017,0.01,-1.59,-0.031,-0.3779999999999999,90.0,94.7,normal,D1
333,341.8,96.0,40.55191,-3.477669,-0.006,0.006,-0.018,-0.016,-1.588,-0.038,-0.38,90.0,94.7,normal,D1
334,342.81,94.9,40.552078,-3.477895,-0.019,-0.032,0.003,-0.003,-1.586,-0.034,-0.376,90.0,94.7,normal,D1
335,343.8,93.8,40.55225,-3.4781120000000003,-0.0139999999999999,0.005,-0.001,0.005,-1.58,-0.0279999999999999,-0.374,90.0,94.7,normal,D1
336,344.81,94.3,40.552418,-3.478338,0.025,0.0139999999999999,0.009,0.012,-1.586,-0.031,-0.373,90.0,94.7,normal,D1
337,345.8,94.9,40.552578,-3.478569,0.013,0.0279999999999999,0.024,0.017,-1.595,-0.032,-0.377,90.0,94.7,normal,D1
338,346.8,94.9,40.552742,-3.478795,0.021,-0.022,0.024,0.012,-1.6,-0.037,-0.38,90.0,94.7,normal,D1
339,347.83,95.7,40.552906,-3.479025,0.025,-0.003,-0.0139999999999999,-0.021,-1.597,-0.036,-0.38,90.0,94.7,normal,D1
340,348.8,94.6,40.553066,-3.479253,0.006,0.027,-0.004,-0.003,-1.598,-0.033,-0.3779999999999999,90.0,94.7,normal,D1
341,349.81,95.1,40.553223,-3.479499,0.008,-0.013,-0.001,0.006,-1.611,-0.0289999999999999,-0.379,90.0,94.7,normal,D1
342,350.81,96.5,40.553371000000006,-3.47975,-0.017,-0.005,0.006,0.006,-1.6130000000000002,-0.006,-0.376,90.0,94.7,normal,D1
343,351.81,97.3,40.553513,-3.480008,0.0,0.003,-0.013,-0.006,-1.615,-0.005,-0.372,90.0,94.7,normal,D1
344,352.8,98.6,40.553661,-3.480267,-0.0069999999999999,-0.0279999999999999,-0.0,0.0069999999999999,-1.618,-0.0139999999999999,-0.37,90.0,94.7,normal,D1
345,353.8,100.2,40.553791,-3.480536,0.009,-0.005,0.01,0.002,-1.617,-0.017,-0.368,90.0,94.7,normal,D1
346,354.81,101.5,40.553925,-3.480817,-0.036,-0.011,-0.003,-0.005,-1.62,-0.003,-0.363,90.0,94.7,normal,D1
347,355.81,103.6,40.554066,-3.481099,0.036,0.024,0.017,-0.001,-1.622,-0.02,-0.367,90.0,94.7,normal,D1
348,356.83,104.7,40.554211,-3.481387,-0.0279999999999999,-0.0139999999999999,-0.039,-0.025,-1.599,-0.0139999999999999,-0.366,90.0,94.7,normal,D1
349,357.81,108.3,40.554348,-3.4816870000000004,-0.019,-0.004,0.024,0.0069999999999999,-1.57,-0.003,-0.364,90.0,94.7,normal,D1
350,358.81,104.1,40.554478,-3.481985,0.095,-0.038,0.002,0.012,-1.577,-0.004,-0.363,90.0,94.7,normal,D1
351,359.85,104.9,40.554592,-3.4822910000000005,0.001,0.0069999999999999,-0.023,-0.03,-1.554,-0.001,-0.357,90.0,94.7,normal,D1
352,360.81,104.5,40.554718,-3.482609,-0.0289999999999999,0.016,0.021,0.022,-1.565,-0.004,-0.357,90.0,94.7,normal,D1
353,361.8,104.1,40.554825,-3.482918,-0.018,-0.018,-0.002,0.0139999999999999,-1.584,-0.002,-0.355,90.0,94.7,normal,D1
354,362.81,104.7,40.554932,-3.4832339999999995,-0.035,-0.001,-0.027,-0.0139999999999999,-1.584,-0.001,-0.352,90.0,94.7,normal,D1
355,363.81,105.5,40.555031,-3.483553,-0.006,0.039,-0.006,-0.001,-1.574,0.001,-0.351,90.0,97.7,normal,D1
356,364.81,106.1,40.555126,-3.483884,-0.0139999999999999,0.0279999999999999,-0.01,-0.009,-1.57,-0.008,-0.354,90.0,97.7,normal,D1
357,365.87,105.7,40.555218,-3.4842150000000003,-0.04,-0.002,-0.0139999999999999,-0.006,-1.567,-0.005,-0.357,90.0,97.7,normal,D1
358,366.9,105.4,40.555378000000005,-3.48487,-0.027,0.021,-0.013,-0.004,-1.561,0.006,-0.352,90.0,97.7,normal,D1
359,367.9,105.3,40.555454,-3.485201,-0.011,0.021,-0.002,0.003,-1.5630000000000002,-0.002,-0.347,90.0,97.7,normal,D1
360,368.83,105.3,40.555454,-3.485201,0.0139999999999999,0.017,0.019,0.008,-1.5659999999999998,-0.005,-0.351,90.0,97.7,normal,D1
361,369.81,105.6,40.555527000000005,-3.485531,-0.047,-0.005,0.017,0.02,-1.586,-0.002,-0.349,90.0,97.7,normal,D1
362,370.91,107.4,40.555664,-3.486194,0.036,-0.012,-0.003,-0.005,-1.586,-0.004,-0.347,90.0,97.7,normal,D1
363,371.82,107.4,40.555664,-3.486194,-0.016,0.017,-0.012,0.006,-1.588,-0.001,-0.347,90.0,97.7,normal,D1
364,372.84,108.4,40.555721000000005,-3.486527,0.046,0.008,-0.038,-0.042,-1.585,-0.008,-0.348,90.0,97.7,normal,D1
365,373.86,109.0,40.555767,-3.486875,-0.034,0.016,-0.018,-0.023,-1.5719999999999998,0.002,-0.349,90.0,97.7,normal,D1
366,374.81,108.6,40.555817,-3.4872160000000005,0.043,0.009,-0.0139999999999999,0.003,-1.569,-0.005,-0.35,90.0,97.7,normal,D1
367,375.81,107.8,40.555855,-3.487568,0.128,0.016,-0.025,-0.004,-1.567,-0.006,-0.345,90.0,97.7,normal,D1
368,376.8,108.8,40.555897,-3.487921,-0.008,-0.0069999999999999,-0.043,-0.0409999999999999,-1.547,0.003,-0.3329999999999999,90.0,97.7,normal,D1
369,377.8,107.6,40.555931,-3.488265,0.038,0.006,-0.005,-0.006,-1.529,-0.01,-0.327,90.0,97.7,normal,D1
370,378.98,103.6,40.555958,-3.48897,-0.01,-0.01,-0.003,-0.006,-1.516,-0.008,-0.308,90.0,97.7,normal,D1
371,379.83,103.6,40.555958,-3.48897,0.011,0.011,0.006,-0.006,-1.5119999999999998,-0.006,-0.298,90.0,97.7,normal,D1
372,380.82,101.3,40.555954,-3.4893019999999995,-0.013,0.01,0.0279999999999999,0.034,-1.528,0.006,-0.28,90.0,97.7,normal,D1
373,381.87,98.9,40.55592,-3.489945,0.038,0.009,0.0069999999999999,0.006,-1.5419999999999998,0.005,-0.264,90.0,97.7,normal,D1
374,382.81,98.9,40.55592,-3.489945,-0.024,0.0289999999999999,0.018,0.016,-1.556,0.005,-0.252,90.0,97.7,normal,D1
375,383.81,99.7,40.555882,-3.490256,-0.034,0.012,-0.0559999999999999,-0.052,-1.54,0.005,-0.231,90.0,97.7,normal,D1
376,384.93,97.7,40.55579,-3.490896,-0.02,0.021,0.016,0.01,-1.554,0.013,-0.215,90.0,97.7,normal,D1
377,385.8,97.7,40.55579,-3.490896,-0.021,-0.008,0.005,0.003,-1.5590000000000002,-0.004,-0.204,90.0,97.7,normal,D1
378,386.82,97.6,40.555729,-3.491207,0.043,-0.012,0.017,0.018,-1.57,-0.008,-0.193,90.0,97.7,normal,D1
379,387.9,97.8,40.555668,-3.4915160000000003,0.0139999999999999,0.011,-0.022,-0.02,-1.5619999999999998,0.002,-0.182,90.0,97.8,normal,D1
380,388.8,98.1,40.555584,-3.491817,0.008,0.052,-0.04,-0.027,-1.564,0.016,-0.173,90.0,98.1,normal,D1
381,389.83,97.7,40.555496000000005,-3.4921230000000003,-0.051,-0.045,-0.005,-0.009,-1.55,0.006,-0.163,90.0,98.1,normal,D1
382,390.83,97.7,40.555401,-3.492424,-0.019,-0.057,-0.0279999999999999,-0.0289999999999999,-1.546,0.026,-0.151,90.0,97.7,normal,D1
383,391.82,96.7,40.555302000000005,-3.492718,-0.019,0.011,0.016,0.025,-1.5630000000000002,0.02,-0.156,90.0,97.7,normal,D1
384,392.88,97.7,40.55508,-3.493293,-0.044,0.0289999999999999,0.034,0.031,-1.564,0.032,-0.172,90.0,97.7,normal,D1
385,393.84,97.7,40.55508,-3.493293,-0.071,0.011,0.0,0.003,-1.565,0.017,-0.193,90.0,97.7,normal,D1
386,394.81,98.6,40.554962,-3.49358,-0.04,0.073,0.003,0.0,-1.561,0.01,-0.23,90.0,98.3,normal,D1
387,395.84,98.3,40.554844,-3.493866,-0.012,0.02,-0.019,-0.018,-1.551,-0.023,-0.292,90.0,98.3,normal,D1
388,396.81,104.6,40.554722,-3.494165,-0.072,0.063,0.018,0.013,-1.558,-0.009,-0.354,90.0,98.3,normal,D1
389,397.8,98.6,40.554619,-3.494469,0.132,0.0289999999999999,0.009,0.002,-1.578,-0.043,-0.427,90.0,104.6,normal,D1
390,398.8,98.6,40.554527,-3.4947730000000004,0.067,0.03,-0.061,-0.048,-1.581,-0.077,-0.491,90.0,98.6,normal,D1
391,399.8,98.7,40.554455,-3.4950900000000003,0.017,-0.012,-0.004,-0.012,-1.564,-0.084,-0.557,100.0,98.6,normal,D1
392,400.85,97.6,40.554390000000005,-3.4954080000000003,-0.0409999999999999,-0.013,-0.008,-0.005,-1.5719999999999998,-0.088,-0.633,100.0,97.6,normal,D1
393,401.83,97.5,40.554337,-3.495724,0.05,-0.003,-0.013,-0.047,-1.571,-0.073,-0.6990000000000001,100.0,97.6,normal,D1
394,402.82,97.1,40.554291,-3.4960480000000005,-0.054,-0.035,-0.026,-0.031,-1.5490000000000002,-0.0579999999999999,-0.753,100.0,97.1,normal,D1
395,403.81,94.8,40.554256,-3.496363,0.0069999999999999,-0.039,-0.0279999999999999,-0.039,-1.55,-0.064,-0.802,100.0,97.1,normal,D1
396,404.84,95.3,40.554226,-3.496679,-0.011,0.027,0.011,0.006,-1.55,-0.0559999999999999,-0.861,90.0,95.3,normal,D1
397,405.81,93.3,40.554211,-3.4969940000000004,-0.071,-0.0279999999999999,0.02,0.01,-1.555,-0.071,-0.909,90.0,95.3,normal,D1
398,406.8,93.1,40.554207,-3.497284,0.011,-0.015,-0.0069999999999999,-0.01,-1.5619999999999998,-0.09,-0.959,90.0,93.1,normal,D1
399,407.88,95.5,40.55423,-3.497587,-0.017,-0.015,-0.013,-0.027,-1.539,-0.076,-1.013,90.0,93.1,normal,D1
400,408.8,92.7,40.554256,-3.497895,0.015,-0.001,0.004,-0.009,-1.521,-0.1009999999999999,-1.061,90.0,92.7,normal,D1
401,409.83,91.3,40.554279,-3.4982,0.01,-0.032,0.015,0.012,-1.525,-0.086,-1.105,90.0,92.7,normal,D1
402,410.84,89.2,40.554317,-3.4984940000000004,-0.036,-0.02,0.012,0.023,-1.5490000000000002,-0.076,-1.145,90.0,91.3,normal,D1
403,411.81,90.0,40.554363,-3.498784,-0.002,-0.024,0.034,0.034,-1.555,-0.094,-1.185,90.0,91.3,normal,D1
404,412.81,89.9,40.554417,-3.499078,0.0409999999999999,-0.048,0.0139999999999999,0.0289999999999999,-1.569,-0.091,-1.205,90.0,89.9,normal,D1
405,413.81,91.2,40.554478,-3.499367,-0.023,-0.047,0.042,0.037,-1.5419999999999998,-0.046,-1.209,90.0,89.9,normal,D1
406,414.81,91.7,40.554543,-3.499657,0.0,-0.066,0.012,0.002,-1.536,0.03,-1.192,90.0,91.7,normal,D1
407,415.81,93.4,40.5546,-3.49995,-0.075,0.088,0.011,0.0069999999999999,-1.518,0.001,-1.21,90.0,93.4,normal,D1
408,416.82,92.5,40.554668,-3.500234,-0.02,0.118,0.0139999999999999,0.021,-1.5419999999999998,-0.1,-1.278,90.0,93.4,normal,D1
409,417.85,92.8,40.554741,-3.500525,-0.011,0.109,-0.03,-0.022,-1.5619999999999998,-0.163,-1.365,90.0,92.8,normal,D1
410,418.81,93.6,40.554836,-3.500803,-0.046,-0.003,-0.031,-0.034,-1.5619999999999998,-0.187,-1.4409999999999998,90.0,92.8,normal,D1
411,419.81,93.7,40.554955,-3.501069,-0.067,-0.124,-0.047,-0.052,-1.556,-0.184,-1.464,90.0,92.8,normal,D1
412,420.92,95.3,40.555073,-3.501336,-0.019,-0.161,-0.044,-0.045,-1.557,-0.1989999999999999,-1.475,90.0,92.8,normal,D1
413,421.8,94.7,40.55521,-3.501592,-0.068,-0.2,-0.064,-0.051,-1.556,-0.207,-1.475,90.0,92.8,normal,D1
414,422.81,95.0,40.555355,-3.50184,-0.02,-0.2,-0.053,-0.053,-1.529,-0.1889999999999999,-1.4469999999999998,90.0,94.9,normal,D1
415,423.81,94.9,40.555489,-3.502081,0.02,-0.106,-0.025,-0.017,-1.516,-0.12,-1.408,90.0,94.9,normal,D1
416,424.85,94.9,40.555618,-3.50234,0.025,-0.109,0.004,-0.001,-1.509,-0.0559999999999999,-1.36,90.0,94.9,normal,D1
417,425.81,94.6,40.555752000000005,-3.502583,-0.022,-0.032,0.01,-0.002,-1.51,0.031,-1.311,90.0,94.9,normal,D1
418,426.81,94.1,40.555874,-3.502858,-0.043,-0.017,-0.032,-0.016,-1.5119999999999998,0.039,-1.271,90.0,94.1,normal,D1
419,427.83,95.1,40.555981,-3.5031230000000004,-0.026,0.012,-0.025,-0.04,-1.471,0.026,-1.231,90.0,94.1,normal,D1
420,428.81,93.7,40.556091,-3.5034019999999995,0.027,-0.003,0.027,0.009,-1.463,0.024,-1.195,90.0,92.4,normal,D1
421,429.83,92.4,40.556202,-3.503676,0.018,0.044,0.012,0.008,-1.472,0.026,-1.163,90.0,92.4,normal,D1
422,430.81,90.7,40.556297,-3.503959,-0.003,-0.005,0.018,0.024,-1.487,0.037,-1.136,90.0,92.4,normal,D1
423,431.81,90.8,40.556374,-3.504234,-0.025,-0.0139999999999999,0.006,0.0,-1.4980000000000002,0.048,-1.102,90.0,90.8,normal,D1
424,432.81,90.8,40.55645,-3.504524,-0.063,-0.015,0.026,0.008,-1.506,0.072,-1.069,90.0,90.8,normal,D1
425,433.81,91.0,40.556522,-3.50481,0.016,0.0289999999999999,0.002,0.004,-1.508,0.059,-1.048,90.0,90.8,normal,D1
426,434.81,91.3,40.556587,-3.505092,-0.033,0.035,-0.021,-0.012,-1.511,0.053,-1.025,90.0,91.3,normal,D1
427,435.82,92.2,40.556644,-3.5053870000000003,-0.009,0.002,0.03,0.005,-1.509,0.047,-1.009,90.0,92.2,normal,D1
428,436.83,91.6,40.55669,-3.505681,-0.003,-0.005,0.004,0.005,-1.509,0.0409999999999999,-0.995,90.0,92.2,normal,D1
429,437.83,92.0,40.556728,-3.505992,0.004,-0.023,-0.035,-0.02,-1.497,0.033,-0.978,90.0,92.0,normal,D1
430,438.82,92.3,40.556763,-3.506289,-0.065,-0.077,0.005,0.003,-1.496,0.034,-0.956,90.0,92.0,normal,D1
431,439.88,91.4,40.556801,-3.506899,0.0289999999999999,-0.009,-0.003,0.001,-1.499,0.032,-0.935,90.0,91.4,normal,D1
432,440.89,90.8,40.556805,-3.507206,0.011,0.011,0.0,-0.011,-1.4980000000000002,0.047,-0.922,90.0,91.4,normal,D1
433,441.82,90.8,40.556805,-3.507206,-0.036,0.008,0.02,0.011,-1.501,0.037,-0.913,90.0,90.8,normal,D1
434,442.82,91.2,40.556801,-3.5075010000000004,-0.026,0.006,-0.01,0.001,-1.5019999999999998,0.012,-0.923,90.0,90.8,normal,D1
435,443.82,91.2,40.556793,-3.507793,0.004,0.023,-0.002,0.009,-1.505,0.011,-0.939,90.0,91.8,normal,D1
436,444.8,91.8,40.556789,-3.508082,0.004,0.036,0.0069999999999999,0.008,-1.507,0.0139999999999999,-0.957,90.0,91.8,normal,D1
437,445.82,91.5,40.556774,-3.50837,-0.005,0.034,-0.004,0.005,-1.508,-0.004,-0.995,90.0,91.8,normal,D1
438,446.86,92.3,40.55677,-3.508672,0.009,0.047,0.018,0.008,-1.508,-0.026,-1.038,90.0,91.5,normal,D1
439,447.91,91.8,40.556767,-3.509271,0.0139999999999999,0.068,-0.012,-0.024,-1.5119999999999998,-0.02,-1.1,90.0,91.8,normal,D1
440,448.81,91.8,40.556767,-3.509271,-0.0279999999999999,0.011,-0.002,-0.002,-1.5119999999999998,-0.064,-1.154,90.0,91.8,normal,D1
441,449.83,91.9,40.556774,-3.509575,0.027,0.039,-0.005,0.005,-1.523,-0.068,-1.202,90.0,91.8,normal,D1
442,450.82,92.2,40.556793,-3.5098870000000004,-0.042,-0.015,0.012,0.01,-1.53,-0.079,-1.26,90.0,92.2,normal,D1
443,451.87,93.2,40.556866,-3.510495,-0.011,-0.023,-0.013,-0.0069999999999999,-1.535,-0.078,-1.306,90.0,92.2,normal,D1
444,452.84,93.2,40.556866,-3.510495,-0.001,-0.022,0.026,0.005,-1.536,-0.083,-1.3630000000000002,90.0,92.2,normal,D1
445,453.92,94.7,40.556984,-3.511093,-0.0289999999999999,0.015,-0.017,-0.022,-1.5319999999999998,-0.074,-1.411,90.0,92.2,normal,D1
446,454.83,94.7,40.556984,-3.511093,-0.076,0.001,-0.033,-0.025,-1.52,-0.062,-1.445,90.0,92.2,normal,D1
447,455.8,94.5,40.557049,-3.511397,-0.039,-0.006,-0.01,-0.016,-1.523,-0.065,-1.48,90.0,92.2,normal,D1
448,456.8,94.0,40.557133,-3.5116650000000003,-0.043,-0.011,0.004,-0.004,-1.521,-0.068,-1.513,90.0,92.2,normal,D1
449,457.83,94.4,40.557209,-3.511954,0.012,0.042,-0.009,-0.004,-1.519,-0.092,-1.551,90.0,92.2,normal,D1
450,458.83,94.5,40.557301,-3.512252,-0.0289999999999999,-0.07,0.023,0.003,-1.515,-0.098,-1.58,90.0,92.2,normal,D1
451,459.8,94.8,40.557392,-3.512532,0.023,-0.03,0.004,0.006,-1.518,-0.105,-1.611,90.0,92.2,normal,D1
452,460.81,94.6,40.557514000000005,-3.51281,-0.018,-0.0139999999999999,-0.033,-0.038,-1.489,-0.095,-1.633,90.0,92.2,normal,D1
453,461.8,93.8,40.557636,-3.513089,-0.0279999999999999,0.0069999999999999,0.015,0.003,-1.484,-0.09,-1.6569999999999998,90.0,92.2,normal,D1
454,462.83,92.5,40.557751,-3.513345,-0.013,-0.036,-0.05,-0.052,-1.485,-0.092,-1.681,90.0,92.2,normal,D1
455,463.8,91.8,40.55788,-3.513588,0.008,-0.0139999999999999,-0.003,-0.001,-1.491,-0.102,-1.706,90.0,92.2,normal,D1
456,464.87,90.1,40.55817,-3.514046,-0.024,-0.015,-0.003,0.008,-1.501,-0.0819999999999999,-1.725,90.0,92.2,normal,D1
457,465.8,90.1,40.55817,-3.514046,-0.02,0.008,0.001,0.006,-1.513,-0.07,-1.735,90.0,92.2,normal,D1
458,466.8,90.5,40.558319,-3.514267,0.001,0.021,-0.001,-0.008,-1.5219999999999998,-0.075,-1.7480000000000002,90.0,92.2,normal,D1
459,467.9,90.4,40.558472,-3.514475,-0.022,0.0279999999999999,0.0069999999999999,0.006,-1.524,-0.087,-1.76,90.0,92.2,normal,D1
460,468.8,91.0,40.55862,-3.5146900000000003,-0.011,0.036,0.009,0.006,-1.536,-0.0819999999999999,-1.77,90.0,92.2,normal,D1
461,469.83,91.3,40.558788,-3.51488,-0.04,0.013,0.003,0.004,-1.545,-0.085,-1.786,90.0,92.2,normal,D1
462,470.81,92.0,40.558964,-3.515079,-0.01,-0.016,0.046,0.02,-1.5490000000000002,-0.083,-1.785,90.0,92.2,normal,D1
463,471.8,92.6,40.559139,-3.515267,0.017,0.0559999999999999,-0.02,-0.004,-1.5530000000000002,-0.085,-1.7919999999999998,90.0,92.2,normal,D1
464,472.82,94.5,40.55933,-3.515451,-0.047,0.005,-0.018,-0.016,-1.529,-0.089,-1.802,90.0,92.2,normal,D1
465,473.83,96.0,40.559528,-3.515625,-0.045,-0.001,-0.004,-0.01,-1.527,-0.1169999999999999,-1.823,90.0,92.2,normal,D1
466,474.8,93.6,40.559731,-3.515763,-0.073,-0.0069999999999999,-0.039,-0.047,-1.513,-0.098,-1.83,90.0,92.2,normal,D1
467,475.81,93.2,40.559937,-3.515918,0.024,-0.018,-0.032,-0.0279999999999999,-1.496,-0.092,-1.839,90.0,92.2,normal,D1
468,476.81,91.2,40.560143,-3.51605,-0.004,-0.003,-0.015,-0.005,-1.497,-0.071,-1.839,90.0,92.2,normal,D1
469,477.81,89.6,40.560341,-3.516171,0.005,0.051,0.009,0.008,-1.509,-0.064,-1.849,90.0,92.2,normal,D1
470,478.81,89.4,40.560543,-3.516267,0.027,-0.0,0.022,0.023,-1.518,-0.081,-1.86,90.0,92.2,normal,D1
471,479.81,89.4,40.560738,-3.516379,-0.006,0.01,0.004,0.0139999999999999,-1.5319999999999998,-0.069,-1.862,90.0,92.2,normal,D1
472,480.82,90.3,40.560955,-3.516468,0.04,0.0279999999999999,0.002,0.0069999999999999,-1.538,-0.076,-1.872,90.0,109.9,normal,D1
473,481.82,90.6,40.561165,-3.516548,0.001,0.045,-0.017,-0.005,-1.537,-0.087,-1.887,90.0,109.9,normal,D1
474,482.81,90.6,40.56139,-3.5166190000000004,0.004,-0.023,-0.002,-0.003,-1.529,-0.091,-1.896,90.0,109.9,normal,D1
475,483.86,92.1,40.56184,-3.516725,-0.017,-0.034,0.02,0.006,-1.5219999999999998,-0.1,-1.892,90.0,109.9,normal,D1
476,484.83,92.1,40.56184,-3.516725,-0.008,-0.135,-0.02,-0.0289999999999999,-1.516,-0.109,-1.888,90.0,109.9,normal,D1
477,485.87,90.3,40.562309,-3.5167910000000004,-0.057,-0.1009999999999999,0.01,0.009,-1.515,-0.124,-1.873,90.0,109.9,normal,D1
478,486.81,90.3,40.562309,-3.5167910000000004,-0.003,-0.055,0.005,0.004,-1.525,-0.081,-1.853,90.0,109.9,normal,D1
479,487.81,91.3,40.562553,-3.516821,0.003,-0.021,-0.0,-0.008,-1.517,-0.061,-1.824,90.0,109.9,normal,D1
480,488.81,91.6,40.562782,-3.516845,-0.0559999999999999,-0.039,-0.0069999999999999,-0.01,-1.513,-0.023,-1.784,90.0,109.9,normal,D1
481,489.83,90.9,40.563011,-3.516875,-0.011,-0.0559999999999999,0.068,0.06,-1.515,0.005,-1.731,90.0,109.9,normal,D1
482,490.81,90.9,40.56324,-3.516907,-0.01,-0.043,0.087,0.074,-1.544,0.0069999999999999,-1.694,90.0,109.9,normal,D1
483,491.82,92.9,40.563469,-3.5169589999999995,0.006,0.01,0.053,0.067,-1.554,-0.001,-1.668,90.0,109.9,normal,D1
484,492.86,96.6,40.563709,-3.517009,0.0069999999999999,0.009,0.0069999999999999,0.0139999999999999,-1.589,0.021,-1.628,90.0,109.9,normal,D1
485,493.86,98.6,40.563957,-3.517057,0.001,-0.02,0.008,0.005,-1.591,0.025,-1.594,90.0,109.9,normal,D1
486,494.85,103.1,40.564213,-3.517113,0.005,0.019,-0.038,-0.017,-1.59,0.044,-1.556,90.0,109.9,normal,D1
487,495.81,105.2,40.564472,-3.517181,0.0069999999999999,-0.023,-0.008,-0.008,-1.584,0.0289999999999999,-1.533,90.0,109.9,normal,D1
488,496.88,106.7,40.564739,-3.517246,-0.096,-0.02,-0.022,-0.02,-1.58,0.0409999999999999,-1.5019999999999998,90.0,109.9,normal,D1
489,497.82,108.0,40.564983000000005,-3.517339,-0.102,-0.004,-0.021,-0.027,-1.577,0.048,-1.4780000000000002,90.0,109.9,normal,D1
490,498.9,110.6,40.565495,-3.517552,-0.113,0.02,-0.024,-0.025,-1.574,0.0579999999999999,-1.452,90.0,109.9,normal,D1
491,499.9,110.7,40.565754,-3.517676,0.037,0.008,-0.019,-0.027,-1.5490000000000002,0.05,-1.436,90.0,109.9,normal,D1
492,500.82,110.7,40.565754,-3.517676,-0.063,-0.001,0.003,0.0,-1.539,0.04,-1.4240000000000002,90.0,109.9,normal,D1
493,501.84,110.1,40.56601,-3.517809,-0.022,0.02,0.017,0.001,-1.5530000000000002,0.039,-1.411,90.0,109.9,normal,D1
494,502.82,110.7,40.566269,-3.517949,-0.054,0.013,-0.002,0.006,-1.551,0.033,-1.399,90.0,109.9,normal,D1
495,503.8,110.8,40.566525,-3.518089,0.019,0.031,-0.011,-0.011,-1.5490000000000002,0.047,-1.3869999999999998,90.0,109.9,normal,D1
496,504.8,110.7,40.56678,-3.518243,0.005,-0.0289999999999999,-0.005,-0.0,-1.548,0.0289999999999999,-1.382,90.0,109.9,normal,D1
497,505.83,110.4,40.567028,-3.518394,0.0289999999999999,0.009,-0.0,0.003,-1.555,0.044,-1.3730000000000002,90.0,109.9,normal,D1
498,506.82,110.3,40.567276,-3.518559,0.001,0.009,-0.009,0.006,-1.556,0.049,-1.3630000000000002,90.0,109.9,normal,D1
499,507.83,109.6,40.567524,-3.5187129999999995,0.01,0.044,-0.032,-0.01,-1.56,0.044,-1.359,90.0,109.9,normal,D1
500,508.82,110.8,40.567768,-3.5188910000000004,0.024,0.004,-0.005,-0.002,-1.555,0.036,-1.355,90.0,109.9,normal,D1
501,509.84,109.9,40.568001,-3.519086,-0.032,0.016,-0.018,-0.017,-1.554,0.042,-1.347,90.0,109.9,normal,D1
502,510.8,109.5,40.56823,-3.519272,-0.003,0.033,-0.019,-0.002,-1.55,0.031,-1.3430000000000002,90.0,109.9,normal,D1
503,511.83,108.6,40.568451,-3.5194660000000004,-0.035,0.01,0.005,0.006,-1.546,0.036,-1.3430000000000002,90.0,109.5,normal,D1
504,512.81,108.4,40.568665,-3.5196660000000004,0.027,0.002,0.003,0.003,-1.5530000000000002,0.042,-1.34,90.0,108.4,normal,D1
505,513.83,107.9,40.568871,-3.519874,0.005,-0.002,0.017,0.0139999999999999,-1.5490000000000002,0.05,-1.331,90.0,108.4,normal,D1
506,514.83,107.6,40.569084,-3.520086,-0.0579999999999999,0.027,0.005,0.008,-1.555,0.046,-1.324,90.0,107.6,normal,D1
507,515.83,107.1,40.569283,-3.520309,-0.0289999999999999,-0.006,0.026,0.009,-1.5590000000000002,0.034,-1.3230000000000002,90.0,107.6,normal,D1
508,516.83,107.1,40.569469,-3.52054,0.011,0.002,0.001,0.0139999999999999,-1.5630000000000002,0.025,-1.3259999999999998,90.0,107.1,normal,D1
509,517.9,107.1,40.569839,-3.521024,-0.032,-0.006,-0.005,-0.002,-1.5630000000000002,0.018,-1.3259999999999998,90.0,107.1,normal,D1
510,518.8,107.1,40.569839,-3.521024,-0.006,-0.035,-0.038,-0.011,-1.5659999999999998,0.046,-1.324,90.0,107.1,normal,D1
511,519.9,107.0,40.570225,-3.521523,0.036,-0.009,-0.008,-0.003,-1.561,0.036,-1.321,90.0,107.0,normal,D1
512,520.8,107.0,40.570225,-3.521523,-0.031,0.0069999999999999,-0.0069999999999999,-0.009,-1.5530000000000002,0.05,-1.3159999999999998,90.0,107.0,normal,D1
513,521.8,106.5,40.5704,-3.5217910000000003,0.04,0.042,-0.0289999999999999,-0.019,-1.5519999999999998,0.0559999999999999,-1.314,90.0,107.0,normal,D1
514,522.83,106.0,40.570564000000005,-3.522059,-0.003,0.027,-0.011,-0.0,-1.547,0.038,-1.319,90.0,107.0,normal,D1
515,523.8,105.8,40.570721,-3.522334,-0.032,0.038,0.044,0.0279999999999999,-1.5490000000000002,0.018,-1.32,90.0,107.0,normal,D1
516,524.81,105.5,40.570885,-3.522611,0.012,0.004,0.012,-0.0,-1.556,0.039,-1.321,90.0,107.0,normal,D1
517,525.84,105.8,40.571053000000006,-3.522893,0.062,-0.08,-0.012,-0.008,-1.554,0.036,-1.318,90.0,107.0,normal,D1
