,Timestamp (seconds),Speed (km/h),Latitude coordinate (degrees),Longitude coordinate (degrees),Acceleration in X (Gs),Acceleration in Y (Gs),Acceleration in Z (Gs),Acceleration in Z filtered by KF (Gs),Roll (degrees),Pitch (degrees),Yaw (degrees),Maximum allowed speed of current road (km/h),GPS speed (km/h) [same as in RAW GPS]],class,Driver
0,16.75,75.8,40.518135,-3.409204,-0.009,0.023,-0.01,-0.0069999999999999,-1.585,0.021,-0.068,100.0,78.9,normal,D2
1,17.75,77.5,40.518303,-3.409357,0.012,0.032,0.005,0.001,-1.5830000000000002,0.012,-0.078,100.0,78.9,normal,D2
2,18.78,78.9,40.518459,-3.40952,-0.038,0.011,0.003,-0.006,-1.581,0.0,-0.095,100.0,78.9,normal,D2
3,19.73,79.3,40.518623,-3.409667,-0.036,-0.046,0.003,-0.005,-1.582,0.011,-0.1009999999999999,100.0,78.9,normal,D2
4,20.76,80.2,40.518787,-3.40981,0.017,0.0,0.016,0.009,-1.585,0.019,-0.095,100.0,80.2,normal,D2
5,21.74,80.8,40.518951,-3.409955,0.023,0.0139999999999999,-0.038,-0.017,-1.582,0.025,-0.09,100.0,80.2,normal,D2
6,22.79,81.6,40.519115,-3.410109,0.002,0.03,-0.0139999999999999,-0.008,-1.5659999999999998,0.019,-0.092,100.0,81.6,normal,D2
7,23.79,81.5,40.519283,-3.410268,0.005,-0.009,-0.006,-0.006,-1.5619999999999998,0.005,-0.1,100.0,81.6,normal,D2
8,24.74,82.5,40.519451,-3.410447,0.026,0.003,-0.017,-0.009,-1.551,0.013,-0.1009999999999999,100.0,80.9,normal,D2
9,25.76,80.9,40.519627,-3.410588,-0.0069999999999999,-0.024,-0.008,0.0069999999999999,-1.555,0.021,-0.1,100.0,80.9,normal,D2
10,26.73,81.8,40.519787,-3.410732,-0.026,-0.006,-0.0139999999999999,-0.005,-1.558,0.0289999999999999,-0.091,100.0,80.2,normal,D2
11,27.75,80.2,40.519947,-3.410879,-0.048,0.0289999999999999,-0.004,0.0069999999999999,-1.578,0.004,-0.098,100.0,80.2,normal,D2
12,28.73,81.4,40.520103000000006,-3.411028,-0.004,-0.012,0.0279999999999999,0.018,-1.5930000000000002,-0.004,-0.102,100.0,81.4,normal,D2
13,29.74,85.1,40.520279,-3.411188,0.026,0.016,0.061,0.027,-1.61,0.004,-0.098,100.0,85.0,normal,D2
14,30.74,85.0,40.520443,-3.411345,-0.037,0.004,-0.009,-0.009,-1.607,0.0139999999999999,-0.1,100.0,85.0,normal,D2
15,31.73,87.1,40.520611,-3.41151,0.021,-0.027,-0.031,-0.027,-1.601,0.024,-0.098,100.0,85.0,normal,D2
16,32.75,86.9,40.520786,-3.4116730000000004,-0.027,0.0069999999999999,-0.012,-0.022,-1.581,0.017,-0.099,100.0,88.6,normal,D2
17,33.73,86.9,40.520966,-3.41184,0.008,-0.026,-0.006,0.002,-1.585,0.015,-0.099,100.0,88.6,normal,D2
18,34.74,88.6,40.521141,-3.412009,-0.078,0.013,-0.022,-0.033,-1.591,0.0279999999999999,-0.092,100.0,88.6,normal,D2
19,35.74,88.1,40.521317,-3.41217,0.063,0.027,-0.0139999999999999,-0.0069999999999999,-1.57,0.02,-0.093,100.0,88.0,normal,D2
20,36.73,88.0,40.521496,-3.412338,-0.01,0.031,-0.002,-0.0,-1.567,0.027,-0.087,100.0,88.0,normal,D2
21,37.73,87.6,40.521671000000005,-3.4125120000000004,-0.032,0.012,0.031,0.018,-1.588,0.01,-0.095,100.0,89.1,normal,D2
22,38.75,89.1,40.521858,-3.412675,0.002,-0.012,0.024,0.008,-1.594,0.0139999999999999,-0.0969999999999999,100.0,89.1,normal,D2
23,39.75,88.0,40.522034000000005,-3.412841,-0.015,0.003,-0.01,-0.008,-1.592,0.022,-0.093,100.0,89.7,normal,D2
24,40.75,89.7,40.522213,-3.413014,-0.036,-0.004,-0.016,0.0069999999999999,-1.6030000000000002,0.0289999999999999,-0.0819999999999999,100.0,89.7,normal,D2
25,41.74,91.7,40.522408,-3.413188,0.002,-0.054,0.027,0.018,-1.611,0.0289999999999999,-0.063,100.0,91.7,normal,D2
26,42.73,91.4,40.522591,-3.413359,0.0069999999999999,-0.03,-0.0139999999999999,-0.004,-1.614,0.04,-0.03,100.0,93.2,normal,D2
27,43.77,93.2,40.522747,-3.413555,-0.048,0.012,-0.002,-0.003,-1.612,0.006,-0.015,100.0,93.2,normal,D2
28,44.74,93.4,40.522934,-3.413749,-0.0289999999999999,-0.027,0.006,-0.002,-1.612,0.011,0.016,100.0,93.2,normal,D2
29,45.74,94.0,40.523109000000005,-3.413952,0.045,0.026,-0.001,-0.006,-1.6,0.006,0.051,100.0,94.0,normal,D2
30,46.75,95.2,40.523281,-3.414165,-0.114,0.01,-0.002,-0.017,-1.598,0.024,0.092,100.0,95.2,normal,D2
31,47.74,96.7,40.523464,-3.414392,0.042,-0.016,-0.027,-0.034,-1.581,0.042,0.14,100.0,96.7,normal,D2
32,48.8,94.0,40.523621,-3.414627,-0.008,0.027,0.008,-0.017,-1.551,0.017,0.176,100.0,96.7,normal,D2
33,49.74,92.5,40.523766,-3.414858,0.046,0.004,-0.0,-0.017,-1.528,0.01,0.201,90.0,92.5,normal,D2
34,50.75,89.1,40.523907,-3.4150940000000003,-0.03,-0.017,-0.012,-0.0139999999999999,-1.515,0.005,0.231,90.0,89.1,normal,D2
35,51.75,87.2,40.524036,-3.4153290000000003,-0.002,0.009,-0.033,-0.0139999999999999,-1.505,0.004,0.262,90.0,87.2,normal,D2
36,52.74,86.1,40.524155,-3.4155620000000004,0.017,0.008,-0.016,-0.005,-1.503,0.005,0.286,90.0,86.1,normal,D2
37,53.74,84.1,40.524269,-3.41581,-0.021,0.025,0.013,0.001,-1.497,-0.002,0.31,90.0,84.1,normal,D2
38,54.79,82.6,40.524376,-3.41605,0.0139999999999999,0.0,0.045,0.04,-1.516,-0.017,0.32,90.0,82.1,normal,D2
39,55.77,82.1,40.524475,-3.416282,0.015,-0.024,0.035,0.0409999999999999,-1.548,-0.026,0.3279999999999999,90.0,82.1,normal,D2
40,56.73,81.6,40.524574,-3.416522,0.002,-0.001,-0.018,-0.003,-1.5590000000000002,-0.006,0.353,100.0,83.6,normal,D2
41,57.76,83.6,40.524654,-3.416768,0.04,-0.045,-0.026,-0.009,-1.546,0.023,0.387,100.0,83.6,normal,D2
42,58.74,83.3,40.524731,-3.4170260000000003,-0.0139999999999999,0.0289999999999999,0.03,0.02,-1.5519999999999998,0.0139999999999999,0.412,100.0,84.5,normal,D2
43,59.75,84.5,40.524796,-3.417296,0.005,0.05,0.017,0.017,-1.5619999999999998,-0.006,0.4039999999999999,100.0,84.5,normal,D2
44,60.75,86.9,40.524853,-3.417555,-0.0139999999999999,-0.024,0.042,0.036,-1.584,-0.012,0.4029999999999999,100.0,89.6,normal,D2
45,61.74,89.6,40.524925,-3.417831,-0.001,0.008,-0.018,-0.001,-1.594,0.006,0.405,100.0,89.6,normal,D2
46,62.75,92.5,40.524979,-3.418113,-0.017,0.026,-0.013,-0.025,-1.585,0.006,0.396,100.0,89.6,normal,D2
47,63.75,93.2,40.525047,-3.418401,-0.0069999999999999,0.008,-0.032,-0.0279999999999999,-1.556,0.01,0.376,80.0,94.6,normal,D2
48,64.73,94.6,40.525116,-3.418695,-0.011,-0.018,-0.015,-0.0139999999999999,-1.544,0.006,0.363,80.0,94.6,normal,D2
49,65.75,95.8,40.525181,-3.418991000000001,-0.037,0.025,-0.001,-0.013,-1.527,0.011,0.335,80.0,93.5,normal,D2
50,66.75,93.5,40.525249,-3.419288,-0.016,0.027,0.017,0.017,-1.521,0.001,0.299,80.0,93.5,normal,D2
51,67.76,93.3,40.525322,-3.4195800000000003,-0.091,0.036,0.052,0.019,-1.544,-0.006,0.254,80.0,93.3,normal,D2
52,68.74,94.1,40.525391,-3.41986,-0.071,0.009,0.006,-0.005,-1.5419999999999998,-0.005,0.212,80.0,94.1,normal,D2
53,69.81,93.8,40.525471,-3.420149,-0.065,0.002,-0.004,-0.026,-1.5219999999999998,-0.02,0.154,80.0,94.1,normal,D2
54,70.73,93.5,40.525555,-3.420452,0.023,-0.023,-0.004,-0.013,-1.509,-0.0139999999999999,0.115,80.0,92.0,normal,D2
55,71.74,92.0,40.525654,-3.420718,-0.033,-0.025,-0.001,-0.024,-1.5119999999999998,-0.022,0.077,80.0,92.0,normal,D2
56,72.74,91.3,40.525757,-3.4209940000000003,0.034,0.043,0.013,0.022,-1.519,-0.04,0.027,80.0,92.0,normal,D2
57,73.75,91.8,40.52586,-3.4212519999999995,-0.016,0.048,0.022,0.023,-1.55,-0.059,-0.03,100.0,91.8,normal,D2
58,74.76,92.9,40.525982,-3.421513,-0.004,0.01,0.033,0.018,-1.5730000000000002,-0.072,-0.093,100.0,94.1,normal,D2
59,75.76,94.1,40.526108,-3.4217480000000005,-0.021,-0.01,-0.024,-0.0289999999999999,-1.571,-0.074,-0.149,100.0,94.1,normal,D2
60,76.74,93.4,40.526249,-3.421986,-0.017,-0.0139999999999999,-0.002,-0.02,-1.561,-0.062,-0.195,90.0,94.6,normal,D2
61,77.76,94.6,40.526398,-3.422222,-0.009,-0.038,-0.022,-0.022,-1.5490000000000002,-0.0559999999999999,-0.237,90.0,94.6,normal,D2
62,78.79,96.0,40.526573,-3.42245,-0.008,-0.002,-0.037,-0.031,-1.528,-0.061,-0.286,90.0,94.6,normal,D2
63,79.79,95.8,40.526741,-3.422674,-0.004,-0.017,-0.02,-0.01,-1.514,-0.062,-0.3279999999999999,90.0,94.5,normal,D2
64,80.78,94.5,40.526917,-3.422881,-0.019,-0.0289999999999999,0.004,0.005,-1.518,-0.05,-0.362,90.0,94.5,normal,D2
65,81.74,93.3,40.527096,-3.423076,0.0289999999999999,0.002,0.012,0.0139999999999999,-1.538,-0.054,-0.4029999999999999,90.0,93.7,normal,D2
66,82.73,93.7,40.52729,-3.423254,-0.039,-0.027,-0.018,0.0,-1.547,-0.066,-0.451,90.0,93.7,normal,D2
67,83.76,95.3,40.527489,-3.423434,-0.0139999999999999,0.006,0.006,0.006,-1.568,-0.057,-0.485,90.0,93.7,normal,D2
68,84.77,96.9,40.527702000000005,-3.4236,0.025,-0.069,0.006,0.0069999999999999,-1.565,-0.065,-0.519,90.0,93.7,normal,D2
69,85.73,98.3,40.52792,-3.4237580000000003,-0.016,-0.077,-0.036,-0.032,-1.56,-0.039,-0.525,90.0,93.7,normal,D2
70,86.76,98.8,40.528141,-3.423922,-0.018,-0.031,-0.003,-0.0139999999999999,-1.551,-0.035,-0.525,90.0,93.7,normal,D2
71,87.75,98.9,40.528366,-3.424085,0.025,-0.018,-0.008,0.002,-1.551,-0.049,-0.532,90.0,95.7,normal,D2
72,88.76,99.5,40.528591,-3.42423,0.027,-0.023,-0.037,-0.033,-1.526,-0.042,-0.53,90.0,95.7,normal,D2
73,89.74,98.4,40.52882,-3.4243650000000003,0.004,-0.088,-0.004,-0.01,-1.507,0.009,-0.496,90.0,95.7,normal,D2
74,90.77,96.9,40.529037,-3.4245050000000004,-0.019,0.019,0.004,0.008,-1.496,0.006,-0.466,90.0,95.7,normal,D2
75,91.73,95.5,40.529251,-3.424652,-0.012,-0.024,0.047,0.042,-1.504,-0.015,-0.446,90.0,95.7,normal,D2
76,92.73,95.7,40.529465,-3.424799,0.1939999999999999,-0.015,0.047,0.084,-1.519,0.001,-0.413,90.0,95.7,normal,D2
77,93.78,96.0,40.529675,-3.42495,-0.049,0.009,-0.0069999999999999,0.013,-1.5530000000000002,0.001,-0.3829999999999999,90.0,97.5,normal,D2
78,94.73,97.5,40.529884,-3.4251120000000004,-0.002,-0.019,0.018,0.005,-1.555,0.01,-0.353,90.0,97.5,normal,D2
79,95.74,98.6,40.530083000000005,-3.425273,0.0579999999999999,-0.034,-0.013,0.002,-1.551,0.008,-0.309,90.0,100.3,normal,D2
80,96.73,100.3,40.530285,-3.425451,0.091,-0.044,-0.0559999999999999,-0.037,-1.534,0.015,-0.273,90.0,100.3,normal,D2
81,97.75,101.3,40.530502,-3.425645,-0.026,-0.02,-0.051,-0.034,-1.508,0.019,-0.2269999999999999,90.0,101.3,normal,D2
82,98.73,97.2,40.530693,-3.4258330000000004,-0.102,0.005,0.003,-0.021,-1.51,0.0279999999999999,-0.191,90.0,101.3,normal,D2
83,99.73,95.5,40.530884,-3.4260300000000004,0.001,0.05,0.025,0.005,-1.5119999999999998,0.01,-0.161,90.0,101.3,normal,D2
84,100.74,94.7,40.531055,-3.426232,-0.026,0.004,0.042,0.039,-1.546,0.006,-0.13,90.0,101.3,normal,D2
85,101.77,92.6,40.531231,-3.426431,-0.035,-0.021,-0.004,0.008,-1.571,0.015,-0.095,90.0,100.7,normal,D2
86,102.73,97.5,40.531406,-3.426656,0.11,-0.037,-0.0559999999999999,-0.008,-1.587,0.016,-0.067,90.0,100.7,normal,D2
87,103.74,98.0,40.531567,-3.426887,-0.045,-0.002,0.02,0.006,-1.5930000000000002,0.018,-0.037,90.0,100.7,normal,D2
88,104.78,99.2,40.531742,-3.4271260000000003,-0.039,-0.003,0.0,-0.015,-1.597,0.012,-0.009,90.0,100.7,normal,D2
89,105.77,100.7,40.53191,-3.427379,-0.035,0.008,-0.001,-0.006,-1.588,0.019,0.023,90.0,100.7,normal,D2
90,106.74,99.6,40.532047,-3.427625,-0.037,0.005,-0.03,-0.021,-1.592,0.023,0.047,90.0,100.7,normal,D2
91,107.74,99.6,40.5322,-3.427883,-0.02,0.045,-0.011,-0.006,-1.596,-0.003,0.063,90.0,100.7,normal,D2
92,108.75,100.1,40.532349,-3.428152,-0.027,0.0,-0.001,0.001,-1.6030000000000002,0.006,0.079,90.0,100.3,normal,D2
93,109.74,99.3,40.532497,-3.428417,-0.009,-0.0139999999999999,0.02,0.006,-1.61,0.0279999999999999,0.111,90.0,100.3,normal,D2
94,110.77,101.8,40.532639,-3.428717,-0.0069999999999999,0.023,-0.022,-0.021,-1.607,0.032,0.142,90.0,100.3,normal,D2
95,111.74,100.3,40.532772,-3.428985,0.026,0.013,-0.02,-0.0,-1.599,0.021,0.165,90.0,100.3,normal,D2
96,112.73,100.2,40.53289,-3.4292769999999995,-0.001,0.024,-0.024,-0.0139999999999999,-1.599,0.02,0.19,90.0,100.3,normal,D2
97,113.77,100.1,40.532997,-3.4295660000000003,-0.0069999999999999,0.017,-0.024,-0.02,-1.596,0.011,0.207,90.0,100.1,normal,D2
98,114.75,100.1,40.533104,-3.4298610000000003,0.011,0.001,-0.0579999999999999,-0.048,-1.5659999999999998,0.013,0.2269999999999999,90.0,100.1,normal,D2
99,115.75,97.3,40.533199,-3.430159,0.009,0.0,-0.032,-0.032,-1.527,0.006,0.242,90.0,93.6,normal,D2
100,116.79,93.6,40.533287,-3.430444,0.013,0.001,0.0279999999999999,0.023,-1.526,0.01,0.261,90.0,93.6,normal,D2
101,117.74,90.4,40.53336,-3.4307230000000004,-0.039,-0.008,0.052,0.045,-1.554,0.012,0.2739999999999999,90.0,93.6,normal,D2
102,118.75,91.3,40.533432,-3.4310050000000003,0.0069999999999999,0.02,0.034,0.036,-1.579,-0.002,0.285,90.0,91.4,normal,D2
103,119.78,91.4,40.533493,-3.431288,0.012,-0.015,-0.018,0.003,-1.582,-0.002,0.297,90.0,91.4,normal,D2
104,120.75,89.7,40.533562,-3.431557,-0.03,-0.005,0.0069999999999999,-0.005,-1.581,0.0069999999999999,0.31,90.0,91.4,normal,D2
105,121.79,89.8,40.533615000000005,-3.431849,-0.018,0.0139999999999999,-0.01,0.015,-1.591,0.003,0.3229999999999999,90.0,89.8,normal,D2
106,122.78,90.2,40.533669,-3.4321269999999995,-0.019,0.004,-0.0289999999999999,-0.021,-1.5830000000000002,0.003,0.3329999999999999,90.0,89.8,normal,D2
107,123.76,89.2,40.53371,-3.432421,0.033,-0.006,0.0279999999999999,0.019,-1.5830000000000002,0.008,0.341,90.0,89.2,normal,D2
108,124.78,88.0,40.533749,-3.432684,-0.01,-0.011,0.024,0.01,-1.602,0.003,0.347,90.0,88.0,normal,D2
109,125.75,89.6,40.533775,-3.432975,0.019,0.027,-0.033,-0.016,-1.601,0.002,0.355,90.0,88.0,normal,D2
110,126.75,89.4,40.533798,-3.433267,0.003,0.016,-0.005,-0.01,-1.591,0.004,0.363,90.0,88.0,normal,D2
111,127.77,89.2,40.533813,-3.433556,0.021,-0.017,-0.004,-0.002,-1.589,0.004,0.367,90.0,88.0,normal,D2
112,128.8,89.8,40.533825,-3.4338550000000003,-0.026,0.015,-0.018,-0.012,-1.58,-0.008,0.359,90.0,87.5,normal,D2
113,129.73,88.5,40.533836,-3.434132,-0.0139999999999999,0.021,0.02,0.003,-1.574,-0.009,0.346,90.0,87.5,normal,D2
114,130.75,88.1,40.533840000000005,-3.434426,0.018,-0.024,0.023,0.022,-1.584,0.003,0.341,90.0,87.5,normal,D2
115,131.75,87.4,40.533844,-3.434718,0.001,0.0289999999999999,-0.0,0.02,-1.595,0.0,0.33,90.0,87.5,normal,D2
116,132.8,87.5,40.533848,-3.4350110000000003,0.0069999999999999,0.005,-0.0069999999999999,0.003,-1.601,0.0069999999999999,0.317,90.0,87.5,normal,D2
117,133.75,88.8,40.533855,-3.435306,-0.042,0.025,-0.0069999999999999,-0.008,-1.602,0.005,0.299,90.0,88.8,normal,D2
118,134.74,88.6,40.533859,-3.435597,-0.019,-0.0069999999999999,-0.022,-0.02,-1.6,0.005,0.2789999999999999,90.0,88.8,normal,D2
119,135.77,87.3,40.533859,-3.435889,-0.038,-0.05,0.006,-0.004,-1.596,0.008,0.258,90.0,87.3,normal,D2
120,136.75,88.1,40.533863,-3.436186,-0.022,0.006,-0.004,-0.002,-1.594,0.016,0.249,90.0,87.3,normal,D2
121,137.77,88.0,40.533863,-3.436475,-0.0139999999999999,0.003,-0.004,-0.0139999999999999,-1.586,0.002,0.2269999999999999,90.0,86.8,normal,D2
122,138.75,86.8,40.533855,-3.436772,0.018,0.001,0.005,0.003,-1.587,0.003,0.213,90.0,86.8,normal,D2
123,139.76,86.8,40.533863,-3.437068,-0.02,-0.015,0.027,0.008,-1.59,0.003,0.1989999999999999,90.0,86.8,normal,D2
124,140.73,87.3,40.533863,-3.437343,-0.011,-0.0289999999999999,0.016,0.0069999999999999,-1.591,0.006,0.1889999999999999,90.0,86.8,normal,D2
125,141.74,86.9,40.533863,-3.437619,-0.023,-0.009,0.006,-0.002,-1.588,0.013,0.183,90.0,86.8,normal,D2
126,142.76,86.9,40.533867,-3.4379089999999994,-0.048,0.009,-0.011,0.004,-1.586,-0.0069999999999999,0.1689999999999999,90.0,86.8,normal,D2
127,143.77,86.4,40.533863,-3.438192,0.0139999999999999,-0.031,0.009,0.015,-1.59,0.004,0.1639999999999999,90.0,86.8,normal,D2
128,144.77,86.7,40.533863,-3.438479,0.0139999999999999,-0.006,0.011,0.027,-1.599,0.011,0.156,90.0,86.8,normal,D2
129,145.76,87.3,40.533859,-3.438761,0.022,0.01,0.042,0.027,-1.611,0.01,0.152,90.0,86.8,normal,D2
130,146.75,89.5,40.533852,-3.439054,-0.015,0.004,-0.016,-0.005,-1.61,0.005,0.144,90.0,86.8,normal,D2
131,147.78,91.0,40.533844,-3.439353,-0.033,-0.008,-0.024,-0.005,-1.604,0.009,0.138,90.0,86.8,normal,D2
132,148.75,91.5,40.533840000000005,-3.439659,-0.003,-0.016,-0.021,-0.008,-1.5930000000000002,-0.0,0.128,90.0,86.8,normal,D2
133,149.75,91.5,40.533840000000005,-3.4399589999999995,-0.003,-0.031,-0.006,0.001,-1.586,0.016,0.129,90.0,86.8,normal,D2
134,150.74,90.7,40.533825,-3.440265,-0.015,0.024,0.002,0.003,-1.589,0.0069999999999999,0.124,90.0,99.9,normal,D2
135,151.78,92.7,40.533821,-3.440577,-0.0,-0.019,0.003,-0.004,-1.588,-0.001,0.1169999999999999,90.0,99.9,normal,D2
136,152.73,94.9,40.533821,-3.440882,-0.022,0.031,0.0069999999999999,0.003,-1.5930000000000002,0.002,0.111,90.0,99.9,normal,D2
137,153.75,97.5,40.533825,-3.441204,0.031,-0.042,0.004,0.004,-1.588,0.003,0.108,90.0,99.9,normal,D2
138,154.73,98.0,40.533825,-3.441525,-0.002,-0.0139999999999999,-0.011,-0.009,-1.577,0.0069999999999999,0.106,90.0,99.9,normal,D2
139,155.73,97.5,40.533825,-3.441844,0.0279999999999999,-0.0139999999999999,-0.053,-0.036,-1.558,0.011,0.106,90.0,99.9,normal,D2
140,156.73,98.3,40.533821,-3.442174,0.032,0.0289999999999999,-0.0279999999999999,-0.019,-1.5419999999999998,0.004,0.1009999999999999,90.0,99.9,normal,D2
141,157.75,98.5,40.533817,-3.442504,-0.012,-0.003,0.012,0.003,-1.539,0.011,0.1,90.0,99.9,normal,D2
142,158.73,98.5,40.533821,-3.4428339999999995,0.021,-0.003,-0.01,0.004,-1.5519999999999998,0.019,0.1009999999999999,90.0,99.9,normal,D2
143,159.74,99.0,40.533821,-3.443165,0.0069999999999999,0.043,0.005,0.01,-1.555,0.017,0.104,90.0,99.9,normal,D2
144,160.75,99.9,40.533817,-3.443496,-0.004,-0.02,-0.002,-0.0,-1.554,0.001,0.1,90.0,99.9,normal,D2
145,161.74,99.9,40.533813,-3.443822,-0.039,-0.025,-0.01,-0.006,-1.54,0.0069999999999999,0.1009999999999999,90.0,99.9,normal,D2
146,162.74,100.0,40.53381,-3.4441550000000003,-0.021,-0.015,-0.021,-0.003,-1.538,0.009,0.102,90.0,99.9,normal,D2
147,163.74,100.6,40.53381,-3.444489,0.005,-0.009,-0.017,-0.0139999999999999,-1.5219999999999998,0.003,0.1009999999999999,90.0,100.6,normal,D2
148,164.74,100.3,40.53381,-3.444812,-0.037,0.004,-0.019,-0.016,-1.517,0.0069999999999999,0.0969999999999999,90.0,100.6,normal,D2
149,165.74,101.0,40.533802,-3.445142,0.027,-0.031,0.0409999999999999,0.022,-1.526,0.0069999999999999,0.096,90.0,99.3,normal,D2
150,166.75,99.3,40.533798,-3.445466,-0.011,-0.016,0.016,0.011,-1.54,0.005,0.098,90.0,99.3,normal,D2
151,167.74,100.0,40.533794,-3.445799,-0.065,-0.034,0.012,-0.005,-1.557,-0.002,0.098,90.0,100.0,normal,D2
152,168.78,101.5,40.533794,-3.446135,0.004,-0.022,-0.008,0.008,-1.5719999999999998,0.006,0.0969999999999999,90.0,101.5,normal,D2
153,169.75,101.8,40.533794,-3.446468,-0.001,-0.0139999999999999,-0.033,-0.026,-1.561,0.012,0.099,90.0,103.1,normal,D2
154,170.76,103.1,40.533798,-3.446814,0.035,-0.019,0.001,-0.0069999999999999,-1.551,0.019,0.102,90.0,103.1,normal,D2
155,171.73,103.4,40.533794,-3.4471510000000003,0.0069999999999999,0.017,-0.032,-0.032,-1.543,0.021,0.104,90.0,103.4,normal,D2
156,172.74,103.2,40.533794,-3.44749,-0.043,-0.002,-0.0409999999999999,-0.042,-1.517,0.015,0.102,90.0,102.8,normal,D2
157,173.77,102.8,40.533794,-3.447827,-0.016,-0.015,-0.001,-0.015,-1.503,0.015,0.1009999999999999,90.0,102.8,normal,D2
158,174.74,101.3,40.533791,-3.4481580000000003,-0.001,-0.015,0.003,-0.003,-1.5019999999999998,0.003,0.1009999999999999,90.0,101.3,normal,D2
159,175.77,100.0,40.533787,-3.4484790000000003,-0.032,-0.035,-0.024,-0.011,-1.493,0.012,0.102,90.0,100.0,normal,D2
160,176.83,98.8,40.533787,-3.448796,-0.024,-0.008,0.017,0.011,-1.501,0.017,0.102,90.0,98.8,normal,D2
161,177.74,97.7,40.533783,-3.449114,-0.005,-0.0139999999999999,0.022,0.033,-1.518,0.011,0.103,90.0,97.7,normal,D2
162,178.77,97.6,40.533779,-3.449431,-0.0289999999999999,0.038,0.023,0.023,-1.53,0.011,0.102,90.0,98.1,normal,D2
163,179.79,98.1,40.533775,-3.449755,-0.015,-0.013,-0.034,-0.013,-1.531,0.0,0.099,90.0,98.1,normal,D2
164,180.75,98.8,40.533779,-3.450078,0.025,-0.0069999999999999,-0.0279999999999999,-0.022,-1.513,0.002,0.1,90.0,98.8,normal,D2
165,181.79,98.1,40.533775,-3.4504010000000003,0.003,0.005,-0.016,-0.01,-1.506,0.004,0.1009999999999999,90.0,98.8,normal,D2
166,182.75,97.0,40.533775,-3.450714,0.012,-0.009,-0.002,0.006,-1.4980000000000002,0.006,0.102,90.0,97.0,normal,D2
167,183.75,95.8,40.533772,-3.451026,-0.008,-0.019,0.016,-0.001,-1.494,0.012,0.1009999999999999,90.0,97.0,normal,D2
168,184.75,94.8,40.533775,-3.451338,0.005,-0.008,0.009,0.019,-1.506,0.0139999999999999,0.102,90.0,94.8,normal,D2
169,185.75,93.3,40.533772,-3.451639,0.001,-0.009,0.018,0.012,-1.523,0.0139999999999999,0.104,90.0,94.8,normal,D2
170,186.77,93.5,40.533768,-3.451947,-0.013,0.015,-0.038,-0.02,-1.53,0.0069999999999999,0.1009999999999999,90.0,93.5,normal,D2
171,187.75,93.9,40.533764,-3.452257,-0.033,0.002,-0.0139999999999999,-0.0139999999999999,-1.511,0.006,0.099,90.0,93.5,normal,D2
172,188.73,93.0,40.533764,-3.452563,-0.018,0.001,0.019,0.01,-1.519,0.013,0.102,90.0,92.3,normal,D2
173,189.76,92.3,40.53376,-3.452862,-0.017,0.01,0.048,0.033,-1.534,0.013,0.1009999999999999,90.0,92.3,normal,D2
174,190.75,92.6,40.53376,-3.453161,-0.037,0.013,-0.038,-0.0409999999999999,-1.525,0.012,0.099,90.0,92.3,normal,D2
175,191.75,93.1,40.53376,-3.453468,-0.0,-0.015,-0.0069999999999999,-0.012,-1.511,0.0139999999999999,0.099,90.0,91.8,normal,D2
176,192.75,91.8,40.53376,-3.453765,-0.011,-0.005,0.018,0.01,-1.519,0.022,0.1009999999999999,90.0,91.8,normal,D2
177,193.75,91.4,40.533756,-3.4540620000000004,-0.026,-0.021,0.025,0.0289999999999999,-1.5319999999999998,0.019,0.105,90.0,91.8,normal,D2
178,194.76,91.4,40.533749,-3.454363,-0.02,-0.003,-0.022,-0.016,-1.531,0.023,0.106,90.0,91.5,normal,D2
179,195.73,91.6,40.533741,-3.454664,-0.001,0.017,-0.001,0.004,-1.528,0.02,0.104,90.0,91.5,normal,D2
180,196.76,91.5,40.533737,-3.454962,-0.023,0.016,-0.01,-0.015,-1.514,0.018,0.103,90.0,91.5,normal,D2
181,197.79,90.6,40.533737,-3.455253,-0.02,0.003,0.006,0.021,-1.521,0.006,0.103,90.0,91.5,normal,D2
182,198.76,90.0,40.533737,-3.455546,-0.005,-0.002,0.013,0.023,-1.541,-0.006,0.096,90.0,91.5,normal,D2
183,199.82,90.6,40.533737,-3.455849,-0.048,-0.052,-0.033,-0.015,-1.548,0.004,0.09,90.0,91.5,normal,D2
184,200.76,91.5,40.533737,-3.456149,0.0069999999999999,-0.023,-0.011,-0.011,-1.5319999999999998,0.013,0.094,90.0,91.5,normal,D2
185,201.77,91.2,40.533737,-3.4564470000000003,-0.021,-0.0069999999999999,-0.011,-0.003,-1.527,0.016,0.0969999999999999,90.0,91.5,normal,D2
186,202.77,90.5,40.533733000000005,-3.456744,0.004,-0.003,-0.025,-0.011,-1.521,0.018,0.099,90.0,90.7,normal,D2
187,203.73,89.8,40.533733000000005,-3.457044,-0.018,0.004,0.02,0.013,-1.521,0.017,0.099,90.0,90.7,normal,D2
188,204.79,89.0,40.53373,-3.457336,-0.038,0.009,0.02,0.024,-1.5490000000000002,0.0069999999999999,0.096,90.0,90.7,normal,D2
189,205.73,89.1,40.533726,-3.4576290000000003,-0.004,-0.011,-0.016,-0.0,-1.5619999999999998,-0.001,0.094,90.0,90.7,normal,D2
190,206.74,90.1,40.533726,-3.457925,-0.009,0.004,-0.002,-0.009,-1.5630000000000002,0.011,0.095,90.0,90.7,normal,D2
191,207.8,90.7,40.533726,-3.458218,-0.023,-0.002,-0.035,-0.031,-1.547,0.013,0.095,90.0,90.7,normal,D2
192,208.75,90.3,40.533726,-3.458514,0.018,-0.0,0.031,0.019,-1.543,0.0139999999999999,0.096,90.0,90.7,normal,D2
193,209.73,90.1,40.533722,-3.45881,-0.063,-0.031,0.011,0.008,-1.556,0.012,0.095,90.0,90.7,normal,D2
194,210.73,90.1,40.533722,-3.459105,-0.04,-0.013,-0.031,-0.023,-1.557,0.02,0.096,90.0,90.7,normal,D2
195,211.8,89.8,40.533722,-3.459397,-0.155,-0.018,0.064,-0.011,-1.547,0.02,0.0969999999999999,90.0,90.7,normal,D2
196,212.74,89.3,40.533718,-3.4596910000000003,0.03,-0.001,0.01,0.01,-1.548,0.012,0.098,90.0,89.0,normal,D2
197,213.73,88.7,40.533718,-3.459978,-0.021,0.0289999999999999,-0.037,-0.027,-1.55,0.008,0.095,90.0,89.0,normal,D2
198,214.74,87.6,40.533718,-3.460255,-0.009,0.009,0.015,0.004,-1.545,0.003,0.094,90.0,89.0,normal,D2
199,215.74,87.4,40.533718,-3.46054,-0.0069999999999999,0.002,0.046,0.031,-1.5730000000000002,0.005,0.093,90.0,89.0,normal,D2
200,216.79,89.0,40.533718,-3.460832,0.017,0.023,0.009,0.0069999999999999,-1.598,0.006,0.09,90.0,89.0,normal,D2
201,217.81,90.6,40.533718,-3.4611300000000003,0.0409999999999999,-0.022,-0.01,0.005,-1.605,0.015,0.09,90.0,91.7,normal,D2
202,218.74,91.7,40.533718,-3.461433,-0.01,0.024,-0.022,-0.011,-1.6,0.031,0.1009999999999999,90.0,91.7,normal,D2
203,219.75,93.2,40.533718,-3.461742,-0.065,-0.02,-0.024,-0.037,-1.5630000000000002,0.012,0.0969999999999999,90.0,91.7,normal,D2
204,220.73,89.5,40.533722,-3.462045,-0.023,0.0139999999999999,-0.023,-0.021,-1.534,0.008,0.0969999999999999,90.0,91.7,normal,D2
205,221.78,89.8,40.533722,-3.4623230000000005,0.0139999999999999,0.004,0.018,0.031,-1.545,0.012,0.096,90.0,91.7,normal,D2
206,222.74,89.2,40.533714,-3.462615,-0.049,0.009,0.032,0.024,-1.561,0.006,0.091,90.0,91.7,normal,D2
207,223.74,89.9,40.53371,-3.462903,0.017,0.003,0.025,0.0139999999999999,-1.581,0.011,0.09,90.0,91.7,normal,D2
208,224.79,90.3,40.53371,-3.463204,-0.0139999999999999,0.017,-0.021,-0.025,-1.574,0.016,0.091,90.0,91.7,normal,D2
209,225.74,90.3,40.533703,-3.463504,-0.013,-0.01,-0.0279999999999999,-0.022,-1.5519999999999998,0.005,0.087,90.0,91.7,normal,D2
210,226.74,89.5,40.533703,-3.463795,0.0069999999999999,-0.006,0.009,-0.003,-1.543,0.017,0.088,90.0,91.7,normal,D2
211,227.81,88.9,40.533703,-3.464092,-0.023,0.008,0.002,0.006,-1.5530000000000002,0.019,0.086,90.0,91.7,normal,D2
212,228.75,88.5,40.533699,-3.464383,-0.012,0.0139999999999999,-0.006,-0.01,-1.538,0.018,0.08,90.0,91.7,normal,D2
213,229.76,87.4,40.533699,-3.464685,0.004,0.043,0.005,0.01,-1.535,0.006,0.066,90.0,91.7,normal,D2
214,230.8,86.0,40.533703,-3.4649660000000004,-0.026,0.006,0.015,0.023,-1.5590000000000002,-0.006,0.035,90.0,91.7,normal,D2
215,231.74,86.8,40.533722,-3.465252,0.0289999999999999,0.005,-0.0069999999999999,-0.01,-1.569,-0.02,-0.003,90.0,91.7,normal,D2
216,232.75,86.9,40.533737,-3.465533,-0.021,-0.0069999999999999,0.003,0.004,-1.578,-0.033,-0.047,90.0,91.7,normal,D2
217,233.74,87.2,40.533772,-3.465817,-0.042,0.018,0.003,0.01,-1.598,-0.026,-0.083,90.0,91.7,normal,D2
218,234.74,88.7,40.53381,-3.4661,0.009,0.044,-0.032,-0.01,-1.596,-0.042,-0.128,90.0,91.7,normal,D2
219,235.75,89.9,40.533859,-3.466392,-0.017,0.025,0.01,-0.006,-1.602,-0.067,-0.184,90.0,91.7,normal,D2
220,236.74,90.4,40.53392,-3.466672,-0.032,-0.019,-0.025,-0.02,-1.599,-0.069,-0.236,90.0,91.7,normal,D2
221,237.8,91.3,40.533997,-3.4669550000000005,0.006,0.011,-0.015,-0.018,-1.587,-0.062,-0.278,90.0,91.7,normal,D2
222,238.73,91.2,40.534073,-3.467229,-0.0279999999999999,-0.0139999999999999,-0.024,-0.0279999999999999,-1.575,-0.057,-0.314,90.0,91.7,normal,D2
223,239.76,91.2,40.534164,-3.467504,0.0289999999999999,0.008,-0.032,-0.021,-1.569,-0.061,-0.36,90.0,91.7,normal,D2
224,240.75,89.1,40.534264,-3.467767,-0.039,0.015,-0.003,-0.011,-1.565,-0.083,-0.414,90.0,91.7,normal,D2
225,241.74,90.2,40.534367,-3.468025,-0.039,-0.012,-0.02,-0.026,-1.556,-0.0819999999999999,-0.456,90.0,91.7,normal,D2
226,242.75,89.9,40.534492,-3.468278,0.0139999999999999,-0.018,0.004,-0.002,-1.555,-0.072,-0.506,90.0,91.7,normal,D2
227,243.78,88.7,40.534618,-3.4684980000000003,-0.015,0.019,0.011,0.011,-1.5630000000000002,-0.062,-0.5479999999999999,90.0,91.7,normal,D2
228,244.74,88.6,40.53476,-3.468728,-0.002,0.024,0.003,0.002,-1.577,-0.059,-0.585,90.0,91.0,normal,D2
229,245.77,89.1,40.534897,-3.468953,-0.017,-0.008,0.013,0.008,-1.585,-0.067,-0.635,90.0,91.0,normal,D2
230,246.75,89.4,40.535053000000005,-3.469167,0.004,0.033,-0.013,-0.002,-1.587,-0.068,-0.672,90.0,91.0,normal,D2
231,247.75,90.8,40.535213,-3.469377,-0.024,0.009,0.0069999999999999,0.0,-1.599,-0.061,-0.72,90.0,91.0,normal,D2
232,248.75,91.5,40.535393,-3.469565,-0.009,-0.017,-0.054,-0.005,-1.594,-0.072,-0.773,90.0,91.0,normal,D2
233,249.77,92.4,40.535583,-3.4697410000000004,-0.0069999999999999,-0.0139999999999999,-0.013,-0.004,-1.601,-0.067,-0.813,90.0,91.0,normal,D2
234,250.75,94.2,40.535786,-3.4699150000000003,0.018,-0.02,-0.078,-0.065,-1.584,-0.063,-0.84,90.0,91.0,normal,D2
235,251.76,93.0,40.535984,-3.470075,-0.07,0.018,-0.032,-0.043,-1.5419999999999998,-0.068,-0.877,90.0,91.0,normal,D2
236,252.76,90.9,40.536190000000005,-3.470215,-0.0139999999999999,0.011,0.05,0.037,-1.569,-0.0819999999999999,-0.924,90.0,91.0,normal,D2
237,253.75,90.1,40.536396,-3.4703470000000003,-0.006,-0.005,0.0069999999999999,0.017,-1.591,-0.083,-0.972,90.0,91.0,normal,D2
238,254.73,92.1,40.536613,-3.470456,-0.039,-0.032,0.0,0.013,-1.597,-0.084,-1.018,90.0,91.0,normal,D2
239,255.76,90.7,40.536827,-3.470567,-0.037,-0.004,0.019,0.012,-1.598,-0.071,-1.042,90.0,91.0,normal,D2
240,256.81,95.1,40.537052,-3.47066,-0.009,-0.083,-0.003,-0.011,-1.6030000000000002,-0.055,-1.055,90.0,91.0,normal,D2
241,257.76,96.7,40.537292,-3.470746,-0.021,-0.048,-0.0,-0.017,-1.592,-0.032,-1.052,90.0,91.0,normal,D2
242,258.79,96.6,40.537525,-3.470822,-0.072,-0.046,-0.0279999999999999,-0.03,-1.5759999999999998,-0.015,-1.046,90.0,91.0,normal,D2
243,259.75,97.3,40.537769,-3.470904,-0.0139999999999999,-0.0289999999999999,-0.023,-0.036,-1.543,-0.011,-1.036,90.0,91.0,normal,D2
244,260.8,94.2,40.537991,-3.470982,-0.0139999999999999,0.006,-0.036,-0.025,-1.519,0.003,-1.024,90.0,91.0,normal,D2
245,261.77,92.9,40.538216,-3.471054,0.009,-0.008,-0.0139999999999999,0.001,-1.509,0.0,-1.015,90.0,91.0,normal,D2
246,262.77,89.2,40.538437,-3.471128,-0.025,-0.054,0.054,0.04,-1.53,0.022,-1.0,90.0,91.0,normal,D2
247,263.8,90.4,40.538654,-3.471195,-0.033,0.023,0.0279999999999999,0.019,-1.551,0.009,-0.987,90.0,91.0,normal,D2
248,264.76,90.3,40.538876,-3.471274,-0.05,0.023,0.008,-0.002,-1.5619999999999998,0.002,-0.984,90.0,91.0,normal,D2
249,265.76,90.4,40.539093,-3.471347,-0.04,-0.004,-0.006,0.0069999999999999,-1.574,-0.009,-0.979,90.0,91.0,normal,D2
250,266.76,90.6,40.539318,-3.4714160000000005,-0.002,0.018,0.034,0.031,-1.588,-0.003,-0.976,90.0,91.0,normal,D2
251,267.76,90.9,40.539555,-3.47149,0.0,-0.0279999999999999,-0.012,-0.022,-1.578,0.032,-0.959,90.0,91.0,normal,D2
252,268.73,88.6,40.539776,-3.471566,-0.03,0.001,0.027,0.005,-1.56,0.022,-0.951,90.0,91.0,normal,D2
253,269.77,91.2,40.540001,-3.471632,0.023,-0.005,-0.006,0.002,-1.564,0.011,-0.945,90.0,91.0,normal,D2
254,270.77,91.0,40.540222,-3.471703,0.001,0.0069999999999999,0.0279999999999999,0.026,-1.5730000000000002,0.004,-0.944,90.0,91.0,normal,D2
255,271.8,91.2,40.540451,-3.471781,-0.046,0.01,-0.002,0.001,-1.585,0.02,-0.931,90.0,91.0,normal,D2
256,272.75,91.9,40.540668,-3.471853,-0.034,0.012,0.005,-0.005,-1.585,0.009,-0.927,90.0,94.1,normal,D2
257,273.73,94.1,40.540897,-3.4719260000000003,-0.023,0.004,-0.027,-0.027,-1.571,-0.002,-0.926,90.0,94.1,normal,D2
258,274.76,93.0,40.54113,-3.472004,-0.013,0.004,0.003,-0.003,-1.5730000000000002,-0.004,-0.925,30.0,93.0,normal,D2
259,275.77,92.1,40.541348,-3.472081,0.005,0.022,0.015,0.005,-1.5730000000000002,0.001,-0.925,30.0,93.0,normal,D2
260,276.77,92.8,40.541569,-3.4721550000000003,-0.027,-0.0069999999999999,0.0,-0.009,-1.5659999999999998,-0.005,-0.927,30.0,92.8,normal,D2
261,277.75,91.7,40.541786,-3.47223,-0.002,-0.001,0.021,0.004,-1.565,-0.003,-0.927,30.0,90.0,normal,D2
262,278.74,90.0,40.542004,-3.4723040000000003,-0.024,-0.009,-0.025,-0.019,-1.5630000000000002,0.0139999999999999,-0.922,30.0,90.0,normal,D2
263,279.73,91.2,40.542225,-3.472379,-0.054,-0.006,-0.006,0.003,-1.5630000000000002,0.0,-0.923,30.0,91.2,normal,D2
264,280.81,90.6,40.542454,-3.472445,-0.069,-0.017,-0.039,-0.0289999999999999,-1.557,0.015,-0.917,30.0,91.2,normal,D2
265,281.74,90.1,40.542671,-3.472514,-0.053,-0.039,0.005,-0.003,-1.551,0.013,-0.914,30.0,90.1,normal,D2
266,282.74,90.1,40.542889,-3.472588,-0.001,0.024,0.025,0.023,-1.569,-0.005,-0.917,30.0,90.1,normal,D2
267,283.74,89.0,40.543118,-3.4726550000000005,0.002,0.025,0.022,0.02,-1.589,-0.004,-0.92,30.0,90.1,normal,D2
268,284.73,89.2,40.543335,-3.472729,-0.07,-0.004,0.013,0.015,-1.595,-0.001,-0.921,30.0,89.1,normal,D2
269,285.74,89.1,40.543552000000005,-3.472802,-0.012,-0.039,-0.024,-0.026,-1.5930000000000002,0.008,-0.918,30.0,89.1,normal,D2
270,286.74,90.0,40.54377,-3.4728760000000003,-0.034,0.024,0.002,-0.002,-1.587,0.024,-0.91,90.0,90.0,normal,D2
271,287.73,90.9,40.54398,-3.472954,0.016,0.023,-0.012,-0.016,-1.58,0.009,-0.914,90.0,90.5,normal,D2
272,288.74,90.5,40.544209,-3.473024,-0.016,0.018,-0.009,-0.017,-1.57,0.001,-0.918,90.0,90.5,normal,D2
273,289.73,91.2,40.544422,-3.473101,-0.012,-0.016,-0.005,0.004,-1.57,-0.002,-0.922,90.0,91.2,normal,D2
274,290.81,89.9,40.54464,-3.473174,-0.03,-0.021,0.023,0.0069999999999999,-1.577,-0.0069999999999999,-0.92,90.0,89.9,normal,D2
275,291.75,89.4,40.544857,-3.473243,-0.018,0.003,-0.006,0.001,-1.581,-0.002,-0.917,90.0,89.7,normal,D2
276,292.74,89.7,40.545071,-3.4733120000000004,-0.042,0.022,0.006,0.002,-1.585,-0.012,-0.913,90.0,89.7,normal,D2
277,293.75,89.3,40.545288,-3.473383,-0.011,-0.012,0.011,0.006,-1.586,-0.01,-0.911,90.0,89.3,normal,D2
278,294.74,89.5,40.545509,-3.473453,-0.017,0.008,0.027,0.025,-1.597,-0.011,-0.907,90.0,90.2,normal,D2
279,295.83,90.2,40.545723,-3.473527,-0.085,0.045,0.027,0.009,-1.61,-0.022,-0.907,90.0,90.2,normal,D2
280,296.76,91.3,40.545944,-3.473608,-0.038,-0.013,-0.011,-0.017,-1.612,-0.0279999999999999,-0.907,90.0,91.3,normal,D2
281,297.76,92.6,40.546181,-3.4736830000000003,-0.0,-0.035,-0.002,-0.008,-1.6030000000000002,-0.017,-0.8959999999999999,90.0,93.0,normal,D2
282,298.75,93.0,40.546425,-3.473759,0.004,-0.003,-0.019,-0.013,-1.591,-0.022,-0.885,90.0,93.0,normal,D2
283,299.83,96.0,40.54665,-3.473843,-0.043,-0.013,-0.02,-0.026,-1.5730000000000002,-0.0279999999999999,-0.877,90.0,96.0,normal,D2
284,300.79,93.3,40.546883,-3.473927,-0.004,-0.017,-0.0,0.011,-1.568,-0.017,-0.865,90.0,93.3,normal,D2
285,301.75,92.5,40.547104,-3.474017,-0.015,0.027,0.015,0.01,-1.584,-0.032,-0.855,90.0,93.3,normal,D2
286,302.79,93.0,40.547325,-3.4741120000000003,-0.02,0.012,-0.015,0.001,-1.591,-0.044,-0.851,90.0,93.0,normal,D2
287,303.75,93.3,40.547543,-3.474214,-0.035,-0.012,-0.0,-0.012,-1.599,-0.018,-0.8340000000000001,90.0,94.4,normal,D2
288,304.73,94.4,40.547768,-3.4743150000000003,-0.037,-0.004,-0.006,-0.012,-1.592,-0.01,-0.8140000000000001,90.0,94.4,normal,D2
289,305.76,94.1,40.547985,-3.4744300000000004,-0.037,-0.0,-0.026,-0.012,-1.579,-0.01,-0.797,90.0,94.1,normal,D2
290,306.77,93.9,40.548203,-3.4745470000000003,-0.012,0.006,-0.019,-0.023,-1.561,-0.003,-0.7829999999999999,90.0,94.1,normal,D2
291,307.76,92.7,40.54842,-3.474667,0.0139999999999999,-0.005,0.032,0.0279999999999999,-1.5659999999999998,-0.0139999999999999,-0.773,90.0,92.7,normal,D2
292,308.75,92.6,40.548622,-3.47479,0.013,0.002,-0.023,-0.013,-1.567,-0.008,-0.764,90.0,92.7,normal,D2
293,309.75,92.0,40.548836,-3.474921,0.006,0.003,0.0139999999999999,0.016,-1.574,-0.004,-0.7509999999999999,90.0,91.7,normal,D2
294,310.75,91.7,40.549038,-3.475068,-0.01,0.011,0.011,0.0069999999999999,-1.588,-0.009,-0.743,90.0,91.7,normal,D2
295,311.75,93.0,40.549248,-3.4752089999999995,-0.021,0.009,-0.009,-0.0069999999999999,-1.5930000000000002,-0.012,-0.737,90.0,91.7,normal,D2
296,312.73,93.0,40.54945,-3.4753550000000004,-0.024,-0.012,-0.015,-0.005,-1.588,-0.009,-0.7290000000000001,90.0,93.0,normal,D2
297,313.75,92.8,40.54966,-3.47551,-0.031,0.035,-0.032,-0.026,-1.57,-0.008,-0.726,90.0,93.0,normal,D2
298,314.76,92.1,40.549854,-3.475655,-0.019,-0.005,-0.0409999999999999,-0.024,-1.557,-0.012,-0.723,90.0,92.1,normal,D2
299,315.83,90.4,40.550045,-3.475801,0.006,0.003,0.018,0.027,-1.579,-0.0139999999999999,-0.72,90.0,92.1,normal,D2
300,316.76,91.5,40.550236,-3.475965,-0.02,-0.001,0.021,0.0069999999999999,-1.599,-0.0069999999999999,-0.716,90.0,91.5,normal,D2
301,317.75,92.0,40.550426,-3.476128,-0.038,0.002,0.006,0.0069999999999999,-1.604,-0.009,-0.711,90.0,91.5,normal,D2
302,318.75,93.2,40.550621,-3.476302,-0.033,-0.006,-0.0139999999999999,-0.008,-1.604,-0.008,-0.706,90.0,93.2,normal,D2
303,319.75,93.2,40.550819,-3.476488,0.01,0.013,-0.009,0.003,-1.608,0.0,-0.698,90.0,93.2,normal,D2
304,320.76,94.3,40.551006,-3.4766760000000003,-0.017,0.022,0.006,-0.0069999999999999,-1.6030000000000002,-0.012,-0.696,90.0,93.2,normal,D2
305,321.76,94.9,40.551193,-3.476878,-0.008,-0.0139999999999999,-0.004,-0.013,-1.598,-0.012,-0.691,90.0,94.9,normal,D2
306,322.77,94.5,40.551384000000006,-3.477075,-0.005,-0.02,0.001,0.005,-1.597,-0.005,-0.684,90.0,94.9,normal,D2
307,323.74,95.1,40.551563,-3.477272,0.05,0.009,0.01,0.004,-1.591,-0.001,-0.679,90.0,95.1,normal,D2
308,324.76,95.7,40.551754,-3.477479,-0.048,0.005,-0.004,-0.003,-1.587,-0.003,-0.6729999999999999,90.0,95.1,normal,D2
309,325.75,95.9,40.551929,-3.4776910000000005,0.001,0.005,-0.019,-0.003,-1.59,-0.006,-0.6679999999999999,90.0,97.1,normal,D2
310,326.73,97.1,40.552101,-3.477907,-0.043,0.008,-0.0069999999999999,0.006,-1.591,-0.013,-0.67,90.0,97.1,normal,D2
311,327.76,97.2,40.552273,-3.478128,-0.027,0.0,0.002,0.0,-1.5930000000000002,-0.01,-0.665,90.0,97.4,normal,D2
312,328.73,97.4,40.552444,-3.478354,-0.015,0.009,-0.01,-0.012,-1.599,-0.009,-0.662,90.0,97.4,normal,D2
313,329.8,97.6,40.552608,-3.478589,-0.019,-0.018,-0.025,-0.017,-1.58,-0.0139999999999999,-0.6609999999999999,90.0,97.4,normal,D2
314,330.77,96.4,40.552776,-3.478797,-0.005,0.011,-0.0139999999999999,-0.0069999999999999,-1.57,-0.011,-0.6559999999999999,90.0,96.4,normal,D2
315,331.79,96.7,40.552933,-3.4790370000000004,-0.034,-0.011,-0.017,-0.01,-1.5530000000000002,-0.01,-0.653,90.0,96.4,normal,D2
316,332.75,95.7,40.553074,-3.479279,0.0,0.04,-0.036,-0.005,-1.55,-0.01,-0.649,90.0,94.7,normal,D2
317,333.76,94.7,40.553215,-3.479521,-0.019,0.013,0.0289999999999999,0.025,-1.556,-0.011,-0.6459999999999999,90.0,94.7,normal,D2
318,334.75,94.7,40.553387,-3.479768,0.009,0.001,-0.01,0.005,-1.5719999999999998,-0.009,-0.644,90.0,94.7,normal,D2
319,335.74,93.7,40.553528,-3.4800120000000003,-0.001,0.005,-0.0069999999999999,-0.001,-1.565,-0.0069999999999999,-0.637,90.0,94.7,normal,D2
320,336.73,94.3,40.553673,-3.4802690000000003,-0.044,0.0139999999999999,-0.024,-0.02,-1.5619999999999998,-0.004,-0.63,90.0,94.1,normal,D2
321,337.75,94.1,40.553799,-3.480556,0.003,0.001,-0.003,-0.006,-1.55,-0.022,-0.633,90.0,94.1,normal,D2
322,338.8,93.2,40.553932,-3.480827,-0.022,-0.0289999999999999,0.018,0.015,-1.557,-0.018,-0.633,90.0,94.1,normal,D2
323,339.74,93.2,40.554039,-3.481074,-0.036,0.017,0.013,0.0139999999999999,-1.574,-0.019,-0.629,90.0,94.1,normal,D2
324,340.74,95.8,40.554153,-3.481336,-0.013,0.003,-0.001,0.004,-1.57,-0.022,-0.63,90.0,94.1,normal,D2
325,341.77,93.7,40.55426,-3.4815980000000004,0.008,-0.04,-0.002,0.003,-1.5759999999999998,-0.013,-0.627,90.0,94.1,normal,D2
326,342.74,94.0,40.554375,-3.481868,0.0069999999999999,-0.001,-0.0279999999999999,-0.015,-1.568,-0.001,-0.617,90.0,94.1,normal,D2
327,343.75,94.3,40.554482,-3.4821410000000004,0.011,0.0,-0.035,-0.0279999999999999,-1.5519999999999998,0.003,-0.612,90.0,94.1,normal,D2
328,344.74,93.6,40.554585,-3.482416,0.047,0.012,-0.003,0.009,-1.558,-0.01,-0.613,90.0,94.1,normal,D2
329,345.82,94.3,40.554684,-3.4827,-0.008,0.006,0.019,0.013,-1.567,-0.015,-0.614,90.0,94.1,normal,D2
330,346.75,93.8,40.554787,-3.482968,-0.057,0.01,-0.022,-0.017,-1.565,-0.018,-0.614,90.0,94.1,normal,D2
331,347.74,94.2,40.554882,-3.483231,0.011,-0.011,-0.002,0.002,-1.558,-0.011,-0.611,90.0,94.1,normal,D2
332,348.74,94.7,40.554974,-3.483513,-0.008,0.02,-0.02,-0.017,-1.5619999999999998,-0.01,-0.606,90.0,94.1,normal,D2
333,349.74,94.4,40.555061,-3.483808,-0.0069999999999999,0.01,-0.0289999999999999,-0.022,-1.537,-0.011,-0.601,90.0,94.1,normal,D2
334,350.74,93.8,40.555145,-3.4840980000000004,-0.001,0.015,0.015,0.013,-1.54,-0.0139999999999999,-0.599,90.0,94.1,normal,D2
335,351.75,93.1,40.555225,-3.484379,-0.03,0.015,0.017,0.022,-1.5619999999999998,-0.03,-0.608,90.0,94.1,normal,D2
336,352.77,92.0,40.555302000000005,-3.484664,0.008,-0.086,-0.003,0.013,-1.577,-0.008,-0.606,90.0,94.1,normal,D2
337,353.75,92.8,40.555374,-3.484957,-0.011,0.015,0.005,0.0,-1.584,-0.0069999999999999,-0.595,90.0,94.1,normal,D2
338,354.8,95.2,40.555447,-3.485257,-0.009,-0.004,-0.006,-0.015,-1.581,0.011,-0.583,90.0,94.1,normal,D2
339,355.77,95.6,40.555508,-3.485554,-0.0069999999999999,0.018,-0.005,-0.003,-1.5659999999999998,0.008,-0.575,90.0,94.1,normal,D2
340,356.74,95.5,40.555561,-3.485857,-0.017,0.067,-0.013,-0.0069999999999999,-1.561,-0.016,-0.578,90.0,94.1,normal,D2
341,357.75,94.7,40.555614,-3.486149,-0.034,0.009,0.012,-0.005,-1.556,-0.022,-0.584,90.0,94.1,normal,D2
342,358.77,95.0,40.555664,-3.486445,-0.01,-0.023,-0.011,-0.012,-1.555,-0.009,-0.58,90.0,94.1,normal,D2
343,359.76,94.5,40.555717,-3.486757,-0.048,-0.032,-0.0279999999999999,-0.0139999999999999,-1.5519999999999998,-0.004,-0.5710000000000001,90.0,94.1,normal,D2
344,360.82,95.3,40.555752000000005,-3.4870730000000005,-0.039,0.006,-0.02,-0.004,-1.55,-0.012,-0.5720000000000001,90.0,94.1,normal,D2
345,361.73,94.6,40.555794,-3.487385,-0.023,0.022,-0.002,-0.001,-1.558,-0.017,-0.574,90.0,94.1,normal,D2
346,362.74,95.2,40.55582,-3.4876949999999995,0.109,-0.018,-0.005,0.017,-1.56,-0.021,-0.568,90.0,94.1,normal,D2
347,363.75,95.4,40.555851,-3.488014,-0.0139999999999999,-0.012,-0.016,-0.004,-1.5630000000000002,-0.018,-0.5660000000000001,90.0,94.1,normal,D2
348,364.75,92.6,40.555874,-3.488314,0.019,-0.038,-0.0,0.0,-1.56,-0.019,-0.547,90.0,94.1,normal,D2
349,365.75,95.1,40.555893,-3.488625,-0.032,-0.01,-0.025,-0.011,-1.561,-0.0139999999999999,-0.529,90.0,90.8,normal,D2
350,366.77,94.9,40.555897,-3.4889330000000003,0.015,0.009,-0.027,-0.015,-1.565,-0.0069999999999999,-0.514,90.0,90.8,normal,D2
351,367.75,94.7,40.555893,-3.489246,0.036,-0.001,-0.001,0.001,-1.56,-0.012,-0.5,90.0,90.8,normal,D2
352,368.75,95.5,40.555889,-3.489559,-0.005,-0.02,-0.006,-0.009,-1.555,-0.003,-0.483,90.0,90.8,normal,D2
353,369.76,94.7,40.55587,-3.489878,-0.025,-0.024,0.03,0.0279999999999999,-1.5590000000000002,0.002,-0.4629999999999999,90.0,90.8,normal,D2
354,370.78,94.7,40.555847,-3.490175,0.0139999999999999,-0.0139999999999999,0.021,0.019,-1.571,0.01,-0.44,90.0,90.8,normal,D2
355,371.8,95.9,40.555817,-3.4904910000000005,-0.035,-0.013,-0.004,-0.008,-1.588,0.03,-0.408,90.0,90.8,normal,D2
356,372.75,98.7,40.555775,-3.490806,-0.022,0.003,-0.001,-0.015,-1.565,0.021,-0.386,90.0,90.8,normal,D2
357,373.77,96.7,40.555721000000005,-3.491115,-0.022,-0.008,-0.01,-0.024,-1.5530000000000002,0.018,-0.365,90.0,90.8,normal,D2
358,374.76,95.5,40.555664,-3.491419,-0.087,0.044,-0.001,-0.016,-1.547,-0.0,-0.346,90.0,90.8,normal,D2
359,375.79,94.9,40.555595,-3.491717,-0.022,0.033,0.0069999999999999,0.011,-1.556,-0.011,-0.34,90.0,90.8,normal,D2
360,376.73,95.1,40.555511,-3.4920120000000003,-0.03,0.001,-0.0139999999999999,-0.008,-1.558,-0.005,-0.3229999999999999,90.0,90.8,normal,D2
361,377.78,95.4,40.555428000000006,-3.492303,-0.0069999999999999,-0.0279999999999999,0.003,0.009,-1.557,0.016,-0.303,90.0,90.8,normal,D2
362,378.76,95.0,40.555336,-3.492596,-0.124,0.046,-0.002,-0.004,-1.5519999999999998,0.032,-0.28,90.0,90.8,normal,D2
363,379.76,94.7,40.555229,-3.492869,-0.064,0.03,0.009,-0.013,-1.551,0.026,-0.276,90.0,90.8,normal,D2
364,380.76,95.3,40.555111,-3.493142,-0.009,-0.009,-0.015,-0.018,-1.543,0.0069999999999999,-0.293,90.0,90.8,normal,D2
365,381.77,94.3,40.555,-3.493415,0.023,0.033,-0.001,0.006,-1.54,0.016,-0.311,90.0,90.8,normal,D2
366,382.74,93.7,40.55489,-3.493686,-0.006,0.047,0.036,0.025,-1.55,0.001,-0.348,90.0,90.8,normal,D2
367,383.79,94.0,40.554787,-3.4939690000000003,0.033,0.057,-0.01,0.003,-1.5590000000000002,0.004,-0.3929999999999999,90.0,90.8,normal,D2
368,384.76,94.6,40.554684,-3.494244,-0.055,0.005,0.016,-0.011,-1.5630000000000002,-0.009,-0.445,90.0,90.8,normal,D2
369,385.73,94.2,40.554596,-3.49453,0.061,0.037,0.004,-0.0,-1.578,-0.0279999999999999,-0.498,90.0,90.8,normal,D2
370,386.83,95.3,40.554504,-3.494819,0.072,0.008,-0.039,-0.023,-1.561,-0.059,-0.569,90.0,90.8,normal,D2
371,387.76,94.3,40.554428,-3.495125,-0.002,-0.03,-0.024,-0.008,-1.555,-0.065,-0.63,90.0,90.8,normal,D2
372,388.84,93.3,40.554363,-3.495418,-0.0279999999999999,-0.013,-0.033,-0.034,-1.5319999999999998,-0.068,-0.69,90.0,90.8,normal,D2
373,389.73,91.8,40.55431,-3.495715,-0.14,0.017,-0.047,-0.052,-1.528,-0.049,-0.737,90.0,90.8,normal,D2
374,390.81,90.4,40.554276,-3.4960050000000003,-0.06,0.003,0.038,0.03,-1.543,-0.05,-0.804,90.0,90.8,normal,D2
375,391.73,90.3,40.554249,-3.496289,-0.048,-0.024,0.023,0.02,-1.57,-0.036,-0.85,90.0,90.8,normal,D2
376,392.73,90.8,40.554222,-3.496593,-0.023,-0.006,0.01,0.005,-1.586,-0.018,-0.898,90.0,90.8,normal,D2
377,393.74,92.3,40.554207,-3.496889,-0.042,-0.038,0.017,0.001,-1.589,-0.0409999999999999,-0.953,90.0,92.3,normal,D2
378,394.73,93.0,40.554203,-3.497195,-0.079,-0.016,-0.05,-0.051,-1.578,-0.05,-0.995,90.0,92.3,normal,D2
379,395.81,92.9,40.554211,-3.497507,-0.054,-0.021,-0.037,-0.055,-1.5490000000000002,-0.0579999999999999,-1.047,90.0,91.2,normal,D2
380,396.73,91.2,40.554226,-3.497807,-0.046,0.086,-0.013,-0.02,-1.539,-0.096,-1.107,90.0,91.2,normal,D2
381,397.74,91.2,40.554249,-3.498104,-0.057,-0.036,0.0279999999999999,0.011,-1.565,-0.094,-1.169,90.0,91.2,normal,D2
382,398.74,91.9,40.554295,-3.498403,-0.015,-0.083,0.009,0.009,-1.568,-0.094,-1.211,90.0,91.9,normal,D2
383,399.74,94.1,40.55434,-3.498703,-0.038,-0.033,0.002,-0.011,-1.564,-0.08,-1.249,90.0,94.1,normal,D2
384,400.77,92.5,40.554390000000005,-3.498999,-0.022,-0.052,-0.01,-0.023,-1.535,-0.074,-1.269,90.0,92.5,normal,D2
385,401.76,91.1,40.554447,-3.4992910000000004,0.102,-0.0279999999999999,0.03,0.0279999999999999,-1.508,-0.0579999999999999,-1.2819999999999998,90.0,92.5,normal,D2
386,402.77,91.1,40.554501,-3.4995830000000003,-0.002,-0.067,0.046,0.0279999999999999,-1.518,0.009,-1.286,90.0,91.7,normal,D2
387,403.74,91.7,40.554562,-3.499871,-0.066,0.052,-0.004,-0.026,-1.5219999999999998,0.031,-1.29,90.0,91.7,normal,D2
388,404.74,91.2,40.55463,-3.500159,-0.049,0.059,-0.005,-0.011,-1.509,-0.043,-1.34,90.0,91.2,normal,D2
389,405.74,90.3,40.554707,-3.5004410000000004,-0.113,0.099,-0.016,-0.025,-1.503,-0.118,-1.416,90.0,91.0,normal,D2
390,406.77,91.0,40.554794,-3.500712,-0.031,0.016,-0.0139999999999999,-0.0139999999999999,-1.503,-0.1939999999999999,-1.51,90.0,91.0,normal,D2
391,407.74,90.3,40.554901,-3.500971,0.017,-0.061,-0.013,-0.005,-1.506,-0.159,-1.564,90.0,90.3,normal,D2
392,408.74,90.1,40.555019,-3.501212,-0.002,-0.069,-0.009,-0.009,-1.505,-0.12,-1.596,90.0,90.3,normal,D2
393,409.79,90.1,40.555149,-3.501453,-0.04,-0.048,0.004,-0.002,-1.5019999999999998,-0.08,-1.6030000000000002,90.0,90.1,normal,D2
394,410.77,90.1,40.555279,-3.501694,0.034,-0.027,0.01,0.009,-1.501,-0.049,-1.601,90.0,90.1,normal,D2
395,411.76,90.0,40.555408,-3.50193,-0.038,-0.045,0.005,0.005,-1.505,-0.025,-1.59,90.0,90.0,normal,D2
396,412.73,90.0,40.555542,-3.502165,-0.0409999999999999,-0.034,0.0139999999999999,-0.002,-1.511,-0.006,-1.56,90.0,90.0,normal,D2
397,413.74,90.1,40.555664,-3.502409,-0.045,0.017,-0.012,-0.011,-1.506,-0.008,-1.541,90.0,90.1,normal,D2
398,414.8,90.1,40.555786,-3.5026550000000003,0.019,-0.0289999999999999,0.035,0.026,-1.516,0.043,-1.496,90.0,90.1,normal,D2
399,415.74,90.3,40.555901,-3.502905,-0.053,-0.025,0.011,0.01,-1.535,0.053,-1.456,90.0,90.3,normal,D2
400,416.79,91.5,40.556007,-3.503167,-0.032,-0.0279999999999999,-0.012,-0.01,-1.527,0.066,-1.414,90.0,92.4,normal,D2
401,417.81,92.4,40.556114,-3.503436,-0.008,0.015,0.0,-0.009,-1.529,0.047,-1.382,90.0,92.4,normal,D2
402,418.78,93.4,40.556206,-3.503717,0.013,0.047,-0.003,-0.004,-1.525,0.031,-1.36,90.0,94.5,normal,D2
403,419.74,94.5,40.556297,-3.504006,-0.012,-0.023,-0.036,-0.023,-1.5219999999999998,0.047,-1.33,90.0,94.5,normal,D2
404,420.74,94.9,40.556385,-3.504299,0.0139999999999999,-0.004,-0.005,-0.002,-1.517,0.062,-1.294,90.0,96.6,normal,D2
405,421.74,96.6,40.556461,-3.504597,-0.033,0.021,-0.018,-0.019,-1.518,0.0559999999999999,-1.261,90.0,96.6,normal,D2
406,422.74,95.8,40.556522,-3.5049,-0.037,0.0279999999999999,-0.019,-0.013,-1.516,0.062,-1.235,90.0,96.2,normal,D2
407,423.76,96.2,40.55658,-3.505212,0.005,-0.009,0.016,-0.004,-1.507,0.043,-1.219,90.0,96.2,normal,D2
408,424.75,95.8,40.556637,-3.505517,0.009,0.02,-0.037,-0.015,-1.506,0.036,-1.202,90.0,95.8,normal,D2
409,425.75,95.3,40.556679,-3.505821,-0.019,-0.0069999999999999,-0.011,-0.011,-1.503,0.06,-1.177,90.0,95.8,normal,D2
410,426.82,95.8,40.556721,-3.506131,-0.006,-0.024,-0.0,0.005,-1.507,0.068,-1.147,90.0,95.8,normal,D2
411,427.73,96.2,40.556744,-3.506442,-0.037,0.017,-0.023,-0.013,-1.504,0.065,-1.122,90.0,96.2,normal,D2
412,428.75,95.6,40.556759,-3.506758,-0.045,0.018,-0.0139999999999999,-0.022,-1.495,0.061,-1.102,90.0,96.2,normal,D2
413,429.73,95.5,40.556767,-3.507074,0.0289999999999999,0.031,-0.0069999999999999,-0.022,-1.4980000000000002,0.0579999999999999,-1.087,90.0,95.5,normal,D2
414,430.75,95.5,40.556767,-3.507389,0.0139999999999999,0.022,0.013,0.008,-1.4980000000000002,0.045,-1.084,90.0,95.5,normal,D2
415,431.73,95.8,40.556763,-3.507707,-0.025,0.037,0.001,0.002,-1.495,0.033,-1.088,90.0,95.5,normal,D2
416,432.75,95.4,40.556755,-3.5080150000000003,-0.011,0.052,-0.009,-0.003,-1.494,0.021,-1.102,90.0,95.5,normal,D2
417,433.75,95.3,40.556747,-3.5083269999999995,-0.012,0.044,-0.006,0.006,-1.494,0.008,-1.126,90.0,95.3,normal,D2
418,434.78,95.4,40.556736,-3.508645,-0.044,0.06,-0.009,-0.0069999999999999,-1.494,-0.017,-1.168,90.0,95.3,normal,D2
419,435.76,95.3,40.556732,-3.508958,-0.0279999999999999,0.048,0.006,-0.001,-1.495,-0.04,-1.218,90.0,95.3,normal,D2
420,436.79,95.2,40.556736,-3.509271,-0.06,0.03,0.008,-0.0069999999999999,-1.499,-0.064,-1.284,90.0,95.4,normal,D2
421,437.75,95.4,40.556740000000005,-3.509584,0.038,-0.0069999999999999,-0.01,-0.011,-1.504,-0.0819999999999999,-1.336,90.0,95.4,normal,D2
422,438.75,94.9,40.556759,-3.509882,-0.026,-0.019,-0.002,-0.019,-1.5,-0.08,-1.39,90.0,95.4,normal,D2
423,439.75,94.6,40.556789,-3.510181,-0.015,0.006,-0.0069999999999999,-0.002,-1.503,-0.067,-1.4369999999999998,90.0,95.9,normal,D2
424,440.76,95.9,40.556831,-3.510489,0.006,-0.039,-0.008,-0.012,-1.509,-0.089,-1.501,90.0,95.9,normal,D2
425,441.77,94.8,40.556889,-3.51079,0.011,0.003,0.0,-0.006,-1.507,-0.078,-1.548,90.0,95.9,normal,D2
426,442.73,94.2,40.556953,-3.511092,-0.071,0.016,-0.009,-0.012,-1.499,-0.07,-1.592,90.0,95.9,normal,D2
427,443.74,94.6,40.557022,-3.511394,-0.043,0.023,-0.012,-0.013,-1.503,-0.073,-1.6369999999999998,90.0,97.6,normal,D2
428,444.76,97.6,40.557095,-3.511695,-0.0279999999999999,0.0139999999999999,0.011,-0.002,-1.504,-0.087,-1.685,90.0,97.6,normal,D2
429,445.76,94.1,40.557182,-3.511984,0.002,-0.0069999999999999,0.006,0.003,-1.506,-0.0969999999999999,-1.733,90.0,97.6,normal,D2
430,446.74,94.3,40.55727,-3.512267,-0.034,-0.015,-0.018,-0.019,-1.504,-0.089,-1.777,90.0,94.3,normal,D2
431,447.76,94.3,40.557377,-3.512539,-0.0279999999999999,-0.001,-0.01,-0.006,-1.503,-0.081,-1.811,90.0,94.3,normal,D2
432,448.76,95.9,40.557487,-3.5128160000000004,-0.02,-0.009,0.01,-0.002,-1.503,-0.0819999999999999,-1.848,90.0,95.9,normal,D2
433,449.77,94.5,40.55761,-3.513075,-0.01,0.033,0.01,0.0,-1.5019999999999998,-0.1,-1.89,90.0,95.9,normal,D2
434,450.76,96.0,40.557739,-3.513335,-0.018,-0.036,0.0,-0.004,-1.503,-0.089,-1.928,90.0,96.0,normal,D2
435,451.73,97.7,40.557869,-3.513605,-0.024,-0.005,0.009,-0.002,-1.5019999999999998,-0.075,-1.953,90.0,96.0,normal,D2
436,452.73,94.1,40.55801,-3.513828,-0.035,0.015,-0.025,-0.013,-1.5019999999999998,-0.078,-1.984,90.0,95.1,normal,D2
437,453.73,95.1,40.558151,-3.514067,-0.036,0.006,-0.011,-0.01,-1.506,-0.077,-2.012,90.0,95.1,normal,D2
438,454.73,93.4,40.558308,-3.5142839999999995,-0.015,0.011,-0.008,-0.0139999999999999,-1.504,-0.072,-2.032,90.0,95.1,normal,D2
439,455.73,93.5,40.558468,-3.5145089999999994,-0.022,0.015,-0.012,-0.0139999999999999,-1.503,-0.081,-2.0580000000000003,90.0,91.3,normal,D2
440,456.78,93.2,40.558628000000006,-3.514727,-0.0289999999999999,-0.0,-0.006,-0.017,-1.5019999999999998,-0.083,-2.084,90.0,91.3,normal,D2
441,457.74,91.3,40.558796,-3.5149470000000003,-0.02,0.001,0.005,-0.005,-1.507,-0.087,-2.111,90.0,91.3,normal,D2
442,458.76,92.0,40.558987,-3.515142,-0.0579999999999999,-0.0409999999999999,-0.011,-0.01,-1.5,-0.088,-2.133,90.0,92.0,normal,D2
443,459.74,91.2,40.559174,-3.515306,0.022,-0.003,0.013,-0.0,-1.501,-0.074,-2.151,100.0,91.2,normal,D2
444,460.74,90.4,40.559345,-3.515476,-0.033,0.018,0.013,0.005,-1.503,-0.073,-2.167,100.0,90.4,normal,D2
445,461.73,90.5,40.559540000000005,-3.515625,0.0069999999999999,-0.012,0.0069999999999999,-0.001,-1.499,-0.078,-2.1830000000000003,100.0,90.4,normal,D2
446,462.73,90.0,40.559738,-3.515784,-0.065,0.033,-0.001,0.002,-1.499,-0.091,-2.206,100.0,90.0,normal,D2
447,463.73,89.8,40.559944,-3.515928,0.009,-0.005,0.01,0.008,-1.51,-0.085,-2.23,100.0,90.0,normal,D2
448,464.73,90.6,40.560146,-3.51606,0.023,-0.008,-0.013,0.006,-1.521,-0.072,-2.247,90.0,90.4,normal,D2
449,465.74,90.4,40.560352,-3.516174,-0.003,-0.001,0.005,0.005,-1.527,-0.063,-2.261,90.0,90.4,normal,D2
450,466.75,90.6,40.560566,-3.516277,0.033,-0.018,0.004,0.0139999999999999,-1.533,-0.064,-2.273,90.0,91.8,normal,D2
451,467.74,91.8,40.560787,-3.5163800000000003,-0.0279999999999999,0.0139999999999999,-0.009,-0.003,-1.544,-0.072,-2.291,90.0,91.8,normal,D2
452,468.73,92.4,40.561008,-3.516464,-0.0279999999999999,0.009,-0.037,-0.017,-1.5419999999999998,-0.085,-2.309,90.0,91.8,normal,D2
453,469.81,93.9,40.561245,-3.516542,-0.018,0.01,-0.016,-0.027,-1.521,-0.096,-2.329,100.0,94.0,normal,D2
454,470.74,94.0,40.561485,-3.5166120000000003,0.01,-0.016,-0.0289999999999999,-0.015,-1.507,-0.104,-2.345,100.0,94.0,normal,D2
455,471.74,92.2,40.561714,-3.516661,0.035,-0.08,0.037,0.0279999999999999,-1.519,-0.073,-2.347,100.0,92.2,normal,D2
456,472.74,93.0,40.561947,-3.516707,-0.016,-0.013,-0.001,0.005,-1.523,-0.062,-2.338,100.0,92.2,normal,D2
457,473.74,93.4,40.56218,-3.516739,-0.003,-0.011,-0.003,-0.002,-1.524,-0.07,-2.332,100.0,93.4,normal,D2
458,474.81,94.2,40.562408000000005,-3.516774,-0.012,-0.049,0.013,0.0139999999999999,-1.527,-0.062,-2.309,100.0,93.4,normal,D2
459,475.77,94.5,40.562645,-3.516804,-0.016,-0.0279999999999999,0.003,0.011,-1.53,-0.033,-2.286,100.0,93.4,normal,D2
460,476.73,95.6,40.562881,-3.51683,-0.036,-0.003,-0.011,-0.0139999999999999,-1.526,-0.009,-2.253,100.0,93.4,normal,D2
461,477.8,96.1,40.563118,-3.516865,-0.03,-0.006,-0.016,-0.015,-1.5119999999999998,0.015,-2.208,100.0,93.4,normal,D2
462,478.81,96.6,40.563362,-3.516907,-0.004,-0.005,-0.008,-0.01,-1.509,0.011,-2.17,100.0,93.4,normal,D2
463,479.78,96.7,40.56361,-3.516948,-0.03,-0.0139999999999999,-0.023,-0.016,-1.511,0.019,-2.139,100.0,93.4,normal,D2
464,480.74,93.5,40.563839,-3.517003,-0.019,-0.023,-0.047,-0.027,-1.501,0.027,-2.103,100.0,93.4,normal,D2
465,481.74,94.1,40.564072,-3.517061,-0.022,0.001,-0.015,-0.004,-1.503,0.021,-2.068,100.0,93.4,normal,D2
466,482.75,94.1,40.564308,-3.517126,-0.0579999999999999,-0.038,0.035,0.0069999999999999,-1.508,0.027,-2.037,100.0,93.4,normal,D2
467,483.75,94.5,40.564537,-3.517185,0.008,0.011,0.009,0.023,-1.529,0.037,-2.003,100.0,93.4,normal,D2
468,484.75,94.1,40.564762,-3.517271,-0.048,0.011,0.005,-0.001,-1.544,0.038,-1.971,100.0,93.4,normal,D2
469,485.75,95.1,40.564991,-3.517355,-0.069,0.0579999999999999,-0.024,-0.0139999999999999,-1.5530000000000002,0.02,-1.949,100.0,93.4,normal,D2
470,486.75,93.5,40.565208,-3.517442,0.02,-0.031,-0.011,-0.004,-1.555,0.012,-1.936,100.0,93.4,normal,D2
471,487.75,95.8,40.565434,-3.51755,-0.008,-0.002,-0.039,-0.03,-1.5490000000000002,0.026,-1.915,100.0,94.2,normal,D2
472,488.75,96.4,40.56567,-3.517663,0.001,0.003,-0.027,-0.027,-1.533,0.0289999999999999,-1.899,100.0,94.2,normal,D2
473,489.81,95.5,40.565891,-3.517768,0.019,-0.012,-0.055,-0.031,-1.516,0.03,-1.881,100.0,94.2,normal,D2
474,490.73,94.4,40.566113,-3.5178800000000003,0.048,-0.013,0.015,0.023,-1.528,0.04,-1.864,100.0,94.2,normal,D2
475,491.76,94.0,40.56633,-3.517996,0.016,0.005,0.04,0.04,-1.538,0.034,-1.852,100.0,94.2,normal,D2
476,492.74,95.7,40.566547,-3.5181150000000003,0.0069999999999999,0.009,0.009,0.023,-1.558,0.0289999999999999,-1.843,100.0,94.2,normal,D2
477,493.75,96.2,40.566776,-3.518238,-0.036,-0.01,-0.003,-0.004,-1.5659999999999998,0.036,-1.83,100.0,94.2,normal,D2
478,494.76,97.3,40.56699,-3.5183760000000004,-0.057,0.015,-0.051,-0.0289999999999999,-1.564,0.036,-1.818,100.0,94.2,normal,D2
479,495.78,96.8,40.567207,-3.5185190000000004,0.0069999999999999,-0.012,-0.027,-0.02,-1.53,0.016,-1.815,100.0,94.2,normal,D2
480,496.74,94.0,40.567413,-3.518668,-0.046,0.023,0.027,0.017,-1.534,0.025,-1.803,100.0,94.2,normal,D2
481,497.73,95.7,40.567616,-3.518826,-0.087,-0.006,0.017,0.025,-1.56,0.034,-1.797,100.0,94.2,normal,D2
482,498.75,95.0,40.567818,-3.518984,-0.001,-0.019,-0.009,-0.013,-1.557,0.037,-1.788,100.0,94.2,normal,D2
483,499.73,94.6,40.568016,-3.519143,0.0279999999999999,-0.0139999999999999,-0.036,-0.024,-1.555,0.044,-1.777,100.0,94.2,normal,D2
484,500.74,94.2,40.568218,-3.5193190000000003,0.052,0.026,0.003,0.0069999999999999,-1.546,0.042,-1.764,100.0,94.2,normal,D2
485,501.75,93.2,40.568413,-3.5195,-0.025,0.031,0.027,0.019,-1.5519999999999998,0.034,-1.76,90.0,93.2,normal,D2
486,502.76,93.3,40.568604,-3.51968,-0.023,0.011,0.006,0.006,-1.5659999999999998,0.023,-1.757,90.0,93.4,normal,D2
487,503.76,93.4,40.56879,-3.5198660000000004,-0.016,0.024,-0.001,0.012,-1.569,0.022,-1.755,90.0,93.4,normal,D2
488,504.77,93.8,40.56897,-3.520058,-0.016,-0.002,0.001,0.003,-1.565,0.03,-1.753,90.0,93.8,normal,D2
489,505.74,93.7,40.569149,-3.520253,0.0,-0.011,0.008,-0.002,-1.561,0.018,-1.751,90.0,93.5,normal,D2
490,506.73,93.5,40.569324,-3.5204470000000003,-0.035,0.008,0.006,-0.013,-1.56,0.022,-1.75,90.0,93.5,normal,D2
491,507.73,93.1,40.5695,-3.520659,-0.024,0.011,-0.009,-0.02,-1.5519999999999998,0.016,-1.7480000000000002,90.0,92.7,normal,D2
492,508.77,92.7,40.569672,-3.5208730000000004,-0.032,-0.0139999999999999,0.013,0.002,-1.55,0.018,-1.753,90.0,92.7,normal,D2
493,509.77,91.9,40.569832,-3.5210800000000004,-0.093,-0.064,0.009,-0.002,-1.546,0.039,-1.742,90.0,91.9,normal,D2
494,510.73,91.7,40.569992,-3.521294,-0.023,0.012,0.05,0.032,-1.56,0.033,-1.736,90.0,91.9,normal,D2
495,511.74,91.5,40.570148,-3.521506,-0.017,-0.008,-0.005,-0.009,-1.568,0.033,-1.73,90.0,91.5,normal,D2
496,512.73,92.3,40.570293,-3.521726,-0.021,0.0139999999999999,-0.0069999999999999,-0.015,-1.5530000000000002,0.033,-1.726,90.0,91.5,normal,D2
497,513.73,92.2,40.570431,-3.521952,-0.1119999999999999,-0.0,0.015,-0.004,-1.541,0.031,-1.725,90.0,90.9,normal,D2
498,514.73,92.2,40.570583,-3.522182,-0.003,0.001,0.051,0.043,-1.548,0.019,-1.724,90.0,90.9,normal,D2
499,515.73,90.9,40.570736,-3.5223910000000003,0.023,0.006,-0.0279999999999999,0.003,-1.5490000000000002,0.008,-1.727,90.0,90.9,normal,D2
500,516.73,90.4,40.570889,-3.522615,-0.05,0.025,-0.0139999999999999,-0.008,-1.568,0.026,-1.723,90.0,91.6,normal,D2
501,517.77,91.6,40.571022,-3.522871,-0.013,-0.0289999999999999,0.033,0.026,-1.5719999999999998,0.035,-1.717,90.0,91.6,normal,D2
502,518.73,91.1,40.571148,-3.523114,-0.011,-0.005,-0.026,-0.019,-1.567,0.026,-1.712,90.0,93.3,normal,D2
503,519.74,93.3,40.571262,-3.523364,0.008,0.0139999999999999,-0.005,0.012,-1.561,0.03,-1.715,90.0,93.3,normal,D2
504,520.74,94.3,40.571392,-3.5236370000000004,-0.04,0.022,-0.004,-0.009,-1.555,0.01,-1.72,90.0,94.3,normal,D2
505,521.74,94.5,40.571499,-3.523892,-0.002,-0.031,0.002,-0.001,-1.554,0.015,-1.714,90.0,94.3,normal,D2
506,522.74,95.2,40.571629,-3.524163,-0.038,-0.02,0.003,-0.006,-1.544,0.034,-1.706,90.0,95.2,normal,D2
507,523.8,95.5,40.571735,-3.52443,-0.031,0.0139999999999999,-0.01,-0.005,-1.5319999999999998,0.026,-1.705,90.0,95.2,normal,D2
508,524.73,95.9,40.57185,-3.524702,0.01,0.033,-0.018,0.0,-1.528,0.026,-1.709,90.0,95.2,normal,D2
509,525.74,95.9,40.571968,-3.524978,0.01,-0.035,0.001,0.003,-1.523,0.021,-1.709,90.0,95.2,normal,D2
510,526.73,95.4,40.572075,-3.525258,-0.003,0.002,0.003,0.004,-1.521,0.025,-1.706,90.0,95.2,normal,D2
511,527.74,94.6,40.572186,-3.5255339999999995,0.001,-0.004,0.005,0.005,-1.52,0.031,-1.706,90.0,95.2,normal,D2
512,528.74,95.2,40.572281,-3.525822,-0.02,0.018,-0.018,-0.0139999999999999,-1.521,0.0289999999999999,-1.707,90.0,95.2,normal,D2
513,529.78,94.9,40.572361,-3.526111,-0.026,0.047,-0.015,-0.004,-1.521,0.011,-1.716,90.0,95.2,normal,D2
514,530.76,93.9,40.572449,-3.5264,-0.015,-0.0289999999999999,-0.0069999999999999,-0.002,-1.519,0.011,-1.731,90.0,95.2,normal,D2
515,531.75,94.3,40.57254,-3.526689,-0.013,0.0,0.011,-0.002,-1.521,0.019,-1.739,90.0,95.2,normal,D2
516,532.73,93.9,40.572639,-3.526988,-0.026,0.008,-0.005,-0.006,-1.514,0.009,-1.754,90.0,95.2,normal,D2
517,533.79,93.9,40.572723,-3.52727,-0.016,0.0289999999999999,-0.0069999999999999,-0.0139999999999999,-1.5119999999999998,-0.011,-1.776,90.0,95.2,normal,D2
518,534.74,93.3,40.572807,-3.5275540000000003,-0.03,0.0139999999999999,-0.011,-0.013,-1.511,-0.016,-1.797,90.0,95.2,normal,D2
