,Timestamp (seconds),Speed (km/h),Latitude coordinate (degrees),Longitude coordinate (degrees),Acceleration in X (Gs),Acceleration in Y (Gs),Acceleration in Z (Gs),Acceleration in Z filtered by KF (Gs),Roll (degrees),Pitch (degrees),Yaw (degrees),Maximum allowed speed of current road (km/h),GPS speed (km/h) [same as in RAW GPS]],class,Driver
0,22.94,0.0,40.519276,-3.4130550000000004,-0.036,-0.015,0.008,0.002,-1.591,0.025,0.069,100.0,92.2,normal,D3
1,23.92,87.7,40.518543,-3.4095760000000004,-0.027,-0.009,0.0279999999999999,0.03,-1.594,0.031,0.076,100.0,92.2,normal,D3
2,24.95,90.6,40.51873,-3.409775,-0.0409999999999999,-0.031,-0.0069999999999999,0.001,-1.6130000000000002,0.044,0.093,100.0,92.2,normal,D3
3,25.93,92.2,40.518936,-3.409934,-0.038,-0.023,-0.003,0.001,-1.618,0.034,0.104,100.0,92.2,normal,D3
4,26.93,93.3,40.519135,-3.410124,0.044,0.027,0.005,0.002,-1.62,0.013,0.099,100.0,93.3,normal,D3
5,27.94,94.7,40.519291,-3.410303,-0.015,-0.027,-0.035,-0.025,-1.614,0.005,0.087,100.0,94.7,normal,D3
6,28.96,96.0,40.519482,-3.4104870000000003,0.04,-0.013,-0.006,-0.023,-1.604,0.008,0.085,100.0,96.0,normal,D3
7,29.96,91.4,40.519669,-3.410653,-0.005,-0.02,0.015,-0.009,-1.589,0.008,0.084,100.0,91.4,normal,D3
8,31.0,97.1,40.519848,-3.4108440000000004,-0.023,0.016,-0.017,-0.004,-1.584,0.016,0.087,100.0,96.7,normal,D3
9,31.92,96.7,40.520039,-3.411056,0.0069999999999999,0.008,0.009,0.003,-1.5830000000000002,0.008,0.086,100.0,96.7,normal,D3
10,32.94,96.8,40.520241,-3.411239,-0.039,-0.005,0.011,0.002,-1.589,0.001,0.081,100.0,96.8,normal,D3
11,33.93,96.9,40.520435,-3.41142,0.064,-0.003,-0.009,0.001,-1.579,0.004,0.079,100.0,96.9,normal,D3
12,34.92,97.1,40.520664,-3.411603,-0.142,0.016,-0.03,-0.022,-1.577,0.012,0.076,100.0,97.1,normal,D3
13,35.97,96.9,40.520874,-3.41181,-0.0579999999999999,-0.015,-0.003,-0.03,-1.5719999999999998,0.009,0.074,100.0,96.9,normal,D3
14,36.92,96.8,40.521034,-3.411976,-0.009,-0.002,-0.045,-0.044,-1.567,0.025,0.077,100.0,96.8,normal,D3
15,37.92,95.0,40.521191,-3.412152,0.0139999999999999,-0.013,0.002,0.003,-1.5590000000000002,0.022,0.076,100.0,95.0,normal,D3
16,38.95,93.6,40.521442,-3.412376,0.005,-0.01,-0.012,-0.005,-1.564,0.018,0.075,100.0,94.5,normal,D3
17,39.91,92.8,40.521629,-3.412551,-0.039,0.027,-0.001,-0.008,-1.567,-0.001,0.065,100.0,93.6,normal,D3
18,40.94,92.0,40.521839,-3.412715,0.015,-0.025,-0.026,-0.02,-1.571,-0.002,0.055,100.0,92.0,normal,D3
19,41.94,91.0,40.522038,-3.412878,0.009,-0.036,-0.003,-0.008,-1.564,0.018,0.0579999999999999,100.0,92.0,normal,D3
20,42.93,90.4,40.522228000000005,-3.413044,-0.004,-0.019,0.022,0.008,-1.569,0.042,0.078,100.0,90.4,normal,D3
21,43.91,91.1,40.52243,-3.413203,-0.031,-0.019,0.021,0.001,-1.58,0.034,0.1009999999999999,100.0,91.1,normal,D3
22,44.93,89.7,40.522602,-3.413379,-0.021,-0.04,0.01,0.01,-1.581,0.047,0.133,100.0,89.7,normal,D3
23,45.92,86.5,40.52277,-3.413551,0.005,-0.0289999999999999,-0.019,0.0,-1.59,0.054,0.173,100.0,86.5,normal,D3
24,46.91,86.1,40.52293,-3.413735,-0.051,0.012,0.005,-0.008,-1.6,0.036,0.209,100.0,86.5,normal,D3
25,47.97,85.7,40.52309,-3.413924,0.03,0.0139999999999999,0.017,0.015,-1.594,0.015,0.242,100.0,85.7,normal,D3
26,48.94,85.5,40.523243,-3.414117,-0.119,0.012,0.013,0.006,-1.596,0.01,0.2769999999999999,100.0,85.7,normal,D3
27,49.91,85.4,40.523396000000005,-3.414317,-0.005,0.018,0.025,-0.004,-1.6,0.003,0.299,100.0,85.5,normal,D3
28,50.95,85.2,40.52354,-3.4145230000000004,-0.033,0.033,0.01,0.017,-1.591,0.002,0.32,90.0,85.4,normal,D3
29,51.94,85.3,40.523682,-3.4147300000000005,0.012,-0.025,0.0069999999999999,0.008,-1.608,-0.0139999999999999,0.34,90.0,85.3,normal,D3
30,52.91,85.7,40.523819,-3.414949,0.027,-0.031,0.02,0.008,-1.609,-0.002,0.371,90.0,85.7,normal,D3
31,53.98,86.3,40.523949,-3.415178,0.021,0.006,0.023,0.008,-1.617,-0.006,0.3929999999999999,90.0,87.2,normal,D3
32,54.92,87.2,40.524075,-3.415417,-0.01,0.001,-0.004,0.003,-1.616,-0.0139999999999999,0.41,90.0,87.2,normal,D3
33,55.98,88.2,40.524193,-3.415658,0.031,-0.035,0.0,-0.01,-1.614,0.006,0.428,90.0,88.2,normal,D3
34,56.92,89.1,40.524307,-3.4159040000000003,0.0139999999999999,-0.0,-0.015,-0.009,-1.607,0.024,0.452,90.0,88.2,normal,D3
35,57.91,89.9,40.524418,-3.416164,-0.0,0.04,-0.006,-0.001,-1.601,0.013,0.4629999999999999,90.0,89.1,normal,D3
36,58.91,90.6,40.524521,-3.416429,0.004,-0.011,-0.027,-0.0289999999999999,-1.585,0.006,0.472,100.0,90.6,normal,D3
37,59.92,90.7,40.524624,-3.416697,0.0069999999999999,-0.027,-0.016,-0.02,-1.557,0.027,0.491,100.0,90.7,normal,D3
38,60.92,90.6,40.524715,-3.41697,-0.06,0.026,-0.0279999999999999,-0.017,-1.556,0.031,0.51,100.0,90.6,normal,D3
39,61.92,90.6,40.524799,-3.417249,-0.091,0.09,-0.015,-0.021,-1.55,0.026,0.512,100.0,90.6,normal,D3
40,62.92,90.4,40.524872,-3.417533,0.032,0.013,0.013,-0.009,-1.539,0.025,0.507,100.0,90.6,normal,D3
41,63.92,89.9,40.52494,-3.417811,-0.004,0.026,-0.0289999999999999,-0.009,-1.531,0.016,0.501,100.0,89.9,normal,D3
42,64.92,89.2,40.525005,-3.418089,-0.076,0.019,-0.019,-0.005,-1.513,0.026,0.49,100.0,89.9,normal,D3
43,65.93,88.4,40.525066,-3.418365,-0.069,0.05,-0.025,0.004,-1.52,0.027,0.4679999999999999,80.0,88.4,normal,D3
44,66.92,87.8,40.525124,-3.4186400000000003,0.015,0.033,0.005,-0.023,-1.51,0.036,0.437,80.0,88.4,normal,D3
45,67.96,86.0,40.525177,-3.418905,0.0289999999999999,0.027,-0.001,-0.002,-1.511,0.012,0.3979999999999999,80.0,85.1,normal,D3
46,68.91,85.1,40.52523,-3.419171,0.003,0.0289999999999999,0.004,0.003,-1.515,0.012,0.361,80.0,85.1,normal,D3
47,69.94,84.1,40.525295,-3.4194410000000004,0.003,0.043,0.0069999999999999,0.005,-1.513,0.01,0.318,80.0,85.1,normal,D3
48,70.92,83.3,40.52536,-3.4197,-0.031,0.017,0.032,0.002,-1.5119999999999998,0.011,0.272,80.0,82.5,normal,D3
49,71.95,82.5,40.525429,-3.41996,-0.031,-0.01,0.0139999999999999,-0.001,-1.51,0.0139999999999999,0.2239999999999999,80.0,82.5,normal,D3
50,72.91,81.3,40.525501,-3.420217,-0.033,0.006,0.002,-0.002,-1.513,0.0279999999999999,0.1889999999999999,80.0,81.3,normal,D3
51,73.93,80.4,40.525589,-3.420452,-0.006,0.001,0.006,-0.006,-1.521,0.0279999999999999,0.156,80.0,81.3,normal,D3
52,74.92,79.1,40.525673,-3.420694,-0.025,0.038,-0.0289999999999999,-0.017,-1.525,0.012,0.1159999999999999,80.0,79.1,normal,D3
53,75.93,78.2,40.525764,-3.42092,0.008,-0.031,-0.012,-0.009,-1.534,-0.004,0.078,80.0,79.1,normal,D3
54,76.91,78.1,40.525856,-3.421143,-0.039,0.013,0.012,-0.004,-1.548,-0.009,0.049,100.0,78.1,normal,D3
55,77.92,78.5,40.525963,-3.421357,-0.068,0.038,-0.011,-0.011,-1.558,-0.023,0.009,100.0,78.1,normal,D3
56,78.91,79.0,40.526066,-3.421577,-0.016,0.009,0.03,0.023,-1.577,-0.033,-0.039,100.0,79.0,normal,D3
57,79.93,81.0,40.526192,-3.421792,0.045,-0.036,0.018,0.013,-1.596,-0.038,-0.081,100.0,79.0,normal,D3
58,80.95,82.7,40.526314,-3.422007,-0.018,-0.038,-0.003,-0.021,-1.599,-0.031,-0.118,90.0,82.7,normal,D3
59,81.91,83.6,40.526447,-3.422211,0.003,-0.016,-0.032,-0.025,-1.585,-0.033,-0.152,90.0,82.7,normal,D3
60,82.93,84.3,40.526588,-3.422411,-0.008,-0.033,-0.0139999999999999,-0.017,-1.568,-0.024,-0.177,90.0,82.7,normal,D3
61,83.91,84.8,40.526733,-3.4226050000000003,-0.006,-0.009,-0.009,-0.01,-1.556,-0.021,-0.198,90.0,82.7,normal,D3
62,84.93,85.0,40.526894,-3.422786,0.0069999999999999,-0.004,-0.022,-0.023,-1.555,-0.027,-0.222,90.0,82.7,normal,D3
63,85.92,84.5,40.527046,-3.422978,0.025,-0.004,0.036,0.02,-1.5530000000000002,-0.02,-0.251,90.0,86.7,normal,D3
64,86.91,84.5,40.52721,-3.42315,-0.006,-0.018,-0.001,0.0069999999999999,-1.564,-0.0279999999999999,-0.278,90.0,86.7,normal,D3
65,87.93,85.8,40.527386,-3.423313,0.019,-0.005,0.024,0.023,-1.577,-0.023,-0.295,90.0,86.7,normal,D3
66,88.97,86.7,40.527565,-3.4234730000000004,-0.01,-0.011,-0.01,-0.01,-1.5759999999999998,-0.027,-0.314,90.0,86.7,normal,D3
67,89.92,87.6,40.527744,-3.423625,-0.01,-0.025,-0.015,-0.017,-1.577,-0.042,-0.3289999999999999,90.0,86.7,normal,D3
68,90.93,88.1,40.527935,-3.42376,-0.02,-0.019,-0.024,-0.026,-1.578,-0.0409999999999999,-0.3329999999999999,90.0,88.3,normal,D3
69,91.94,88.3,40.52813,-3.423892,0.001,-0.048,-0.031,-0.022,-1.5759999999999998,-0.0289999999999999,-0.326,90.0,88.3,normal,D3
70,92.94,88.4,40.528313,-3.424028,-0.012,-0.035,-0.001,-0.026,-1.574,-0.025,-0.309,90.0,88.3,normal,D3
71,93.93,88.5,40.528519,-3.42415,-0.017,-0.012,-0.005,-0.01,-1.5630000000000002,-0.018,-0.286,90.0,88.3,normal,D3
72,94.91,88.6,40.528717,-3.424284,0.01,-0.026,-0.002,-0.005,-1.556,-0.003,-0.26,90.0,88.3,normal,D3
73,96.0,88.3,40.528915000000005,-3.424413,0.055,-0.003,-0.0069999999999999,0.002,-1.544,0.002,-0.2239999999999999,90.0,88.3,normal,D3
74,96.97,88.3,40.529106,-3.424542,-0.042,0.009,-0.0139999999999999,-0.008,-1.5490000000000002,-0.009,-0.192,90.0,86.7,normal,D3
75,98.01,87.9,40.529312,-3.424672,-0.077,0.0069999999999999,0.0,-0.0069999999999999,-1.543,-0.0139999999999999,-0.156,90.0,86.7,normal,D3
76,98.94,87.3,40.529507,-3.424811,-0.051,-0.064,0.043,0.0069999999999999,-1.544,-0.017,-0.1169999999999999,90.0,86.7,normal,D3
77,99.91,86.7,40.52969,-3.424949,0.018,-0.01,0.036,0.025,-1.536,-0.01,-0.081,90.0,86.7,normal,D3
78,100.91,87.2,40.529881,-3.425097,0.026,0.019,0.047,0.0409999999999999,-1.535,0.009,-0.043,90.0,86.7,normal,D3
79,101.91,87.8,40.530067,-3.4252519999999995,-0.128,0.0139999999999999,0.103,0.021,-1.558,0.018,-0.002,90.0,87.2,normal,D3
80,102.97,87.8,40.530247,-3.425406,-0.006,-0.01,0.001,0.017,-1.5530000000000002,0.021,0.05,90.0,87.8,normal,D3
81,103.91,88.5,40.530426,-3.425574,-0.0279999999999999,-0.002,-0.0279999999999999,-0.021,-1.544,0.02,0.092,90.0,88.5,normal,D3
82,104.91,87.2,40.530594,-3.425742,-0.051,0.017,-0.004,-0.0069999999999999,-1.54,0.022,0.136,90.0,88.5,normal,D3
83,105.91,87.9,40.530766,-3.425926,0.006,0.013,0.012,0.008,-1.531,0.011,0.1689999999999999,90.0,87.9,normal,D3
84,106.91,88.9,40.530933000000005,-3.426117,0.008,0.022,-0.011,-0.008,-1.54,0.013,0.203,90.0,87.9,normal,D3
85,107.95,87.5,40.53109,-3.426318,-0.043,0.006,-0.043,-0.017,-1.571,-0.006,0.2289999999999999,90.0,88.9,normal,D3
86,108.92,87.6,40.531258,-3.426514,-0.07,0.026,-0.002,-0.011,-1.5619999999999998,0.009,0.25,90.0,87.5,normal,D3
87,109.92,88.5,40.531418,-3.426709,-0.059,0.025,0.04,-0.005,-1.575,0.017,0.273,90.0,87.6,normal,D3
88,110.91,87.9,40.531574,-3.4269190000000003,-0.0139999999999999,0.047,0.01,0.005,-1.564,0.002,0.29,90.0,88.5,normal,D3
89,111.94,87.2,40.531723,-3.4271260000000003,-0.04,0.009,0.001,-0.008,-1.565,-0.006,0.299,90.0,87.9,normal,D3
90,112.96,86.7,40.531876,-3.427341,-0.054,0.01,-0.0069999999999999,-0.002,-1.5719999999999998,-0.001,0.314,90.0,87.2,normal,D3
91,113.92,85.7,40.532009,-3.4275550000000004,-0.07,0.0069999999999999,-0.008,-0.0,-1.589,0.0,0.3339999999999999,90.0,85.7,normal,D3
92,114.98,86.7,40.532146,-3.427781,-0.001,0.016,0.016,0.008,-1.596,0.006,0.352,90.0,86.7,normal,D3
93,115.96,83.0,40.532276,-3.427996,-0.003,0.004,0.001,0.005,-1.594,0.006,0.362,90.0,86.7,normal,D3
94,116.96,85.8,40.532387,-3.428235,-0.031,0.024,0.009,-0.002,-1.599,0.016,0.379,90.0,85.8,normal,D3
95,117.92,85.5,40.532516,-3.428466,-0.04,0.026,-0.008,-0.008,-1.615,-0.002,0.392,90.0,85.5,normal,D3
96,118.92,85.1,40.532627000000005,-3.428699,-0.003,-0.008,-0.0289999999999999,-0.01,-1.597,0.005,0.405,90.0,85.5,normal,D3
97,119.92,84.5,40.532734000000005,-3.428945,-0.037,-0.017,-0.003,0.006,-1.606,-0.0069999999999999,0.42,90.0,85.1,normal,D3
98,120.94,84.3,40.532845,-3.429179,-0.049,-0.001,0.0,-0.008,-1.611,-0.015,0.433,90.0,84.5,normal,D3
99,121.92,83.8,40.532951,-3.42942,-0.031,-0.015,-0.004,-0.009,-1.619,-0.009,0.4429999999999999,90.0,84.3,normal,D3
100,122.92,84.1,40.533043,-3.429668,-0.03,0.026,0.016,0.013,-1.618,-0.003,0.4479999999999999,90.0,84.1,normal,D3
101,123.92,84.5,40.533127,-3.429922,-0.015,0.039,0.022,-0.006,-1.626,-0.026,0.449,90.0,84.1,normal,D3
102,124.92,85.0,40.533211,-3.4301760000000003,-0.076,-0.033,-0.016,-0.013,-1.6230000000000002,-0.03,0.449,90.0,84.5,normal,D3
103,125.92,84.3,40.533291,-3.430431,-0.018,-0.002,-0.109,-0.0819999999999999,-1.622,-0.018,0.457,90.0,85.0,normal,D3
104,126.93,81.9,40.533367,-3.430686,-0.011,0.005,0.048,0.033,-1.599,-0.021,0.46,90.0,81.9,normal,D3
105,127.92,82.2,40.533432,-3.430933,0.063,-0.031,0.009,0.015,-1.619,-0.0069999999999999,0.466,90.0,81.9,normal,D3
106,128.92,83.3,40.533497,-3.431192,-0.013,0.016,0.0139999999999999,0.021,-1.633,-0.005,0.477,90.0,82.2,normal,D3
107,129.93,84.6,40.533554,-3.431463,-0.034,-0.032,0.01,0.009,-1.64,-0.008,0.478,90.0,83.3,normal,D3
108,130.93,85.9,40.533607,-3.431734,-0.001,-0.032,0.003,-0.004,-1.649,0.01,0.492,90.0,84.6,normal,D3
109,131.96,86.8,40.533649,-3.432014,-0.04,0.0409999999999999,-0.009,-0.0139999999999999,-1.653,0.006,0.501,90.0,85.9,normal,D3
110,132.93,87.6,40.533703,-3.432296,-0.026,0.037,0.018,0.008,-1.641,-0.0139999999999999,0.494,90.0,86.8,normal,D3
111,133.96,88.5,40.533737,-3.432582,0.05,-0.055,0.006,-0.0,-1.628,-0.016,0.488,90.0,88.5,normal,D3
112,134.93,88.2,40.533768,-3.4328800000000004,-0.012,-0.023,-0.012,-0.017,-1.611,0.001,0.496,90.0,88.2,normal,D3
113,135.93,87.1,40.533794,-3.433161,0.018,0.016,-0.019,-0.015,-1.606,0.011,0.507,90.0,88.2,normal,D3
114,136.91,85.4,40.533813,-3.433443,0.023,0.026,-0.038,-0.035,-1.5719999999999998,0.012,0.512,90.0,87.1,normal,D3
115,137.93,83.2,40.533821,-3.4337120000000003,-0.0139999999999999,0.021,0.0409999999999999,0.022,-1.571,-0.009,0.494,90.0,85.4,normal,D3
116,138.93,82.7,40.533821,-3.433995,-0.046,0.009,0.012,0.008,-1.59,-0.001,0.483,90.0,82.7,normal,D3
117,139.93,81.9,40.533821,-3.434268,0.032,0.008,0.047,0.036,-1.6130000000000002,-0.005,0.466,90.0,82.7,normal,D3
118,140.91,82.4,40.533825,-3.4345410000000003,-0.071,0.001,-0.018,0.008,-1.604,0.005,0.4579999999999999,90.0,82.4,normal,D3
119,141.93,81.5,40.533833,-3.434806,0.042,0.008,-0.057,-0.051,-1.577,-0.002,0.439,90.0,82.4,normal,D3
120,142.93,80.4,40.533833,-3.435072,-0.011,-0.006,0.022,0.035,-1.602,-0.001,0.42,90.0,80.4,normal,D3
121,143.91,81.1,40.533833,-3.435331,-0.005,0.016,0.01,0.017,-1.635,-0.006,0.397,90.0,80.4,normal,D3
122,144.95,82.9,40.533836,-3.435603,0.015,-0.008,0.02,0.019,-1.663,-0.001,0.372,90.0,81.1,normal,D3
123,145.92,84.8,40.533833,-3.4358800000000005,-0.0409999999999999,0.001,0.009,0.001,-1.673,0.013,0.355,90.0,84.8,normal,D3
124,146.98,86.8,40.533833,-3.43616,-0.036,-0.012,0.009,0.01,-1.668,0.033,0.341,90.0,86.8,normal,D3
125,147.95,88.8,40.533836,-3.436436,0.042,-0.004,0.01,0.003,-1.659,0.03,0.3329999999999999,90.0,86.8,normal,D3
126,148.99,89.4,40.533844,-3.436726,0.0289999999999999,-0.0069999999999999,-0.003,-0.0,-1.649,0.015,0.317,90.0,89.4,normal,D3
127,149.94,90.2,40.533844,-3.437018,-0.021,-0.001,-0.015,-0.012,-1.643,0.019,0.308,90.0,89.4,normal,D3
128,150.93,91.5,40.533840000000005,-3.437318,0.002,-0.025,-0.002,0.001,-1.642,0.015,0.3,90.0,91.5,normal,D3
129,151.97,91.8,40.533836,-3.437607,0.008,0.016,0.003,-0.0,-1.6369999999999998,0.0139999999999999,0.293,90.0,91.5,normal,D3
130,152.99,92.2,40.533829,-3.437914,-0.03,0.0139999999999999,-0.052,-0.043,-1.617,0.012,0.284,90.0,91.5,normal,D3
131,153.94,92.0,40.533825,-3.4382230000000003,0.002,-0.009,-0.027,-0.0139999999999999,-1.604,0.015,0.2789999999999999,90.0,91.5,normal,D3
132,154.94,89.9,40.533829,-3.438518,-0.009,0.006,-0.042,-0.039,-1.5659999999999998,0.015,0.2769999999999999,90.0,91.5,normal,D3
133,155.94,88.4,40.533825,-3.4388120000000004,0.033,-0.002,0.022,0.021,-1.57,0.017,0.272,90.0,91.5,normal,D3
134,156.94,88.2,40.533821,-3.439109,-0.0279999999999999,0.031,0.0139999999999999,0.017,-1.604,0.016,0.267,90.0,91.5,normal,D3
135,157.91,89.0,40.533833,-3.439389,0.035,-0.009,0.017,0.023,-1.608,0.018,0.261,90.0,91.5,normal,D3
136,158.91,90.1,40.533844,-3.439678,-0.033,0.016,0.009,-0.001,-1.607,0.021,0.254,90.0,88.7,normal,D3
137,159.91,91.8,40.533844,-3.439972,-0.015,-0.002,-0.001,-0.002,-1.612,0.027,0.254,90.0,88.7,normal,D3
138,160.91,91.3,40.533840000000005,-3.4402699999999995,-0.024,0.01,-0.037,-0.034,-1.59,0.03,0.252,90.0,88.7,normal,D3
139,161.93,90.5,40.533840000000005,-3.440571,0.013,0.001,-0.004,-0.025,-1.5759999999999998,0.025,0.253,90.0,88.7,normal,D3
140,162.91,89.4,40.533836,-3.44086,0.038,0.0409999999999999,0.026,0.013,-1.5659999999999998,0.033,0.254,90.0,88.7,normal,D3
141,163.91,88.9,40.533829,-3.441156,-0.001,0.002,0.009,0.006,-1.555,0.024,0.254,90.0,88.7,normal,D3
142,164.91,88.7,40.533825,-3.441437,-0.04,0.012,0.009,0.001,-1.556,0.019,0.251,90.0,88.7,normal,D3
143,165.91,87.7,40.533817,-3.441711,0.009,0.008,0.0,-0.0139999999999999,-1.551,0.017,0.249,90.0,87.7,normal,D3
144,166.93,86.9,40.533813,-3.442002,0.032,-0.013,-0.06,-0.042,-1.5619999999999998,0.01,0.251,90.0,87.7,normal,D3
145,167.91,85.8,40.533813,-3.4422870000000003,0.023,0.0,-0.0289999999999999,-0.025,-1.555,0.012,0.258,90.0,85.8,normal,D3
146,168.92,84.8,40.53381,-3.442574,0.023,-0.017,0.011,0.011,-1.546,0.024,0.2689999999999999,90.0,85.8,normal,D3
147,169.91,85.2,40.53381,-3.442844,-0.059,0.024,0.005,0.01,-1.554,0.006,0.267,90.0,84.8,normal,D3
148,170.92,85.9,40.53381,-3.4431260000000004,-0.03,-0.0289999999999999,0.004,-0.0,-1.5619999999999998,0.004,0.263,90.0,85.2,normal,D3
149,171.92,85.1,40.533806,-3.443407,-0.017,0.006,-0.003,0.001,-1.554,0.025,0.28,90.0,85.9,normal,D3
150,172.94,85.1,40.533798,-3.443692,-0.018,0.042,-0.015,-0.02,-1.5630000000000002,0.012,0.281,90.0,85.1,normal,D3
151,173.92,85.0,40.533791,-3.443976,0.016,0.01,-0.0069999999999999,-0.016,-1.556,-0.003,0.275,90.0,85.1,normal,D3
152,174.92,84.5,40.533794,-3.444249,-0.006,-0.01,0.011,-0.011,-1.556,0.0139999999999999,0.278,90.0,85.0,normal,D3
153,175.92,84.6,40.533798,-3.4445300000000003,-0.032,-0.035,-0.017,-0.011,-1.546,0.033,0.315,90.0,84.5,normal,D3
154,176.92,84.9,40.533802,-3.44481,-0.061,0.025,-0.0139999999999999,-0.01,-1.5630000000000002,0.036,0.314,90.0,84.6,normal,D3
155,177.92,85.4,40.53381,-3.4450730000000003,-0.0139999999999999,0.031,0.003,0.006,-1.578,0.025,0.316,90.0,84.9,normal,D3
156,178.91,87.0,40.53381,-3.445365,0.023,0.018,0.011,0.017,-1.58,0.0139999999999999,0.314,90.0,85.4,normal,D3
157,179.94,88.0,40.533817,-3.445646,-0.035,0.0139999999999999,0.013,-0.004,-1.5830000000000002,0.001,0.31,90.0,87.0,normal,D3
158,180.92,89.4,40.533806,-3.445938,-0.036,-0.013,-0.018,-0.016,-1.5730000000000002,0.002,0.31,90.0,88.0,normal,D3
159,181.92,89.8,40.533806,-3.446234,0.001,-0.009,-0.0289999999999999,-0.022,-1.569,0.011,0.309,90.0,89.4,normal,D3
160,182.94,90.3,40.533802,-3.44652,0.047,-0.035,0.02,0.0069999999999999,-1.546,0.021,0.307,90.0,89.8,normal,D3
161,183.92,89.9,40.533802,-3.4468120000000004,-0.0279999999999999,0.004,0.005,-0.002,-1.543,0.0279999999999999,0.31,90.0,90.3,normal,D3
162,184.95,91.8,40.533802,-3.4471190000000003,-0.019,-0.003,0.004,-0.002,-1.541,0.037,0.315,90.0,91.8,normal,D3
163,185.93,88.1,40.533798,-3.447406,0.004,0.01,0.0289999999999999,0.024,-1.533,0.033,0.316,90.0,88.1,normal,D3
164,186.94,89.3,40.533817,-3.447674,-0.024,0.016,0.032,0.016,-1.547,0.018,0.313,90.0,88.1,normal,D3
165,187.96,89.1,40.53381,-3.447983,0.025,0.003,-0.004,-0.002,-1.568,0.011,0.314,90.0,89.1,normal,D3
166,188.92,90.2,40.533817,-3.4482760000000003,0.039,0.013,0.005,-0.001,-1.556,0.016,0.313,90.0,89.1,normal,D3
167,189.95,90.5,40.533813,-3.448577,-0.0069999999999999,-0.0139999999999999,-0.025,-0.011,-1.557,0.013,0.314,90.0,90.5,normal,D3
168,190.92,90.6,40.533813,-3.448874,-0.049,-0.01,0.005,0.012,-1.564,-0.0069999999999999,0.304,90.0,90.5,normal,D3
169,191.91,91.9,40.533817,-3.449167,0.002,-0.039,-0.012,-0.001,-1.569,0.004,0.305,90.0,91.7,normal,D3
170,192.92,91.7,40.533802,-3.4494550000000004,-0.0289999999999999,0.013,-0.034,-0.018,-1.561,0.018,0.308,90.0,91.7,normal,D3
171,193.93,92.4,40.53381,-3.449751,-0.026,0.003,-0.034,-0.035,-1.554,0.016,0.313,90.0,92.4,normal,D3
172,194.93,92.1,40.533806,-3.4500610000000003,0.011,0.032,-0.0069999999999999,-0.002,-1.524,0.008,0.313,90.0,92.1,normal,D3
173,195.93,91.8,40.533806,-3.450361,0.0139999999999999,0.033,-0.015,0.003,-1.5219999999999998,0.0069999999999999,0.309,90.0,91.8,normal,D3
174,196.95,90.2,40.533802,-3.45066,0.009,-0.0279999999999999,0.0069999999999999,0.0139999999999999,-1.533,0.011,0.309,90.0,91.8,normal,D3
175,197.93,90.1,40.533802,-3.450964,-0.043,-0.018,0.002,0.011,-1.523,0.03,0.319,90.0,90.2,normal,D3
176,198.93,89.9,40.533794,-3.4512690000000004,-0.051,0.019,0.006,0.002,-1.543,0.011,0.318,90.0,90.1,normal,D3
177,200.0,90.5,40.533794,-3.451563,-0.005,0.003,0.022,0.025,-1.5630000000000002,0.024,0.3229999999999999,90.0,89.9,normal,D3
178,200.97,91.5,40.533791,-3.4518760000000004,0.008,-0.024,0.0069999999999999,0.0069999999999999,-1.5719999999999998,0.025,0.3279999999999999,90.0,90.5,normal,D3
179,201.95,92.4,40.533791,-3.452168,0.003,-0.005,-0.01,-0.003,-1.574,0.013,0.332,90.0,91.5,normal,D3
180,202.93,93.5,40.533794,-3.452462,-0.031,0.009,-0.034,-0.016,-1.568,-0.013,0.321,90.0,92.4,normal,D3
181,203.98,93.7,40.533791,-3.4527730000000005,-0.01,-0.037,0.013,0.008,-1.557,-0.005,0.307,90.0,93.5,normal,D3
182,204.93,94.2,40.533791,-3.4530830000000003,-0.001,-0.023,-0.027,-0.022,-1.555,0.018,0.318,90.0,94.2,normal,D3
183,205.93,93.6,40.533783,-3.453393,0.017,0.0069999999999999,-0.017,-0.022,-1.539,0.024,0.324,90.0,94.2,normal,D3
184,206.95,93.2,40.533775,-3.453705,-0.013,0.006,-0.0139999999999999,-0.011,-1.534,0.011,0.321,90.0,93.6,normal,D3
185,207.93,92.7,40.533775,-3.454014,-0.062,0.032,0.003,0.0139999999999999,-1.524,0.011,0.321,90.0,93.2,normal,D3
186,208.91,91.9,40.533775,-3.4543129999999995,-0.011,0.0139999999999999,0.045,0.042,-1.524,0.012,0.32,90.0,91.9,normal,D3
187,209.92,92.6,40.533768,-3.454614,-0.011,0.009,0.03,0.026,-1.531,0.02,0.321,90.0,91.9,normal,D3
188,210.94,93.4,40.53376,-3.4549260000000004,-0.103,0.03,0.009,0.0069999999999999,-1.545,0.03,0.326,90.0,92.6,normal,D3
189,211.95,92.6,40.53376,-3.455227,-0.025,0.005,0.005,0.005,-1.5530000000000002,0.004,0.321,90.0,93.4,normal,D3
190,212.96,92.7,40.53376,-3.455528,0.024,-0.02,-0.026,-0.01,-1.538,-0.001,0.312,90.0,92.6,normal,D3
191,213.91,91.1,40.533756,-3.455827,0.035,0.003,0.0139999999999999,0.002,-1.528,0.001,0.309,90.0,92.7,normal,D3
192,214.92,90.3,40.53376,-3.456136,-0.019,-0.0069999999999999,-0.0139999999999999,-0.009,-1.539,0.008,0.306,90.0,91.1,normal,D3
193,216.01,89.9,40.533764,-3.456431,-0.016,-0.021,0.037,0.011,-1.527,0.027,0.31,90.0,89.9,normal,D3
194,216.91,89.0,40.533764,-3.456731,0.02,0.0,0.03,0.031,-1.536,0.037,0.315,90.0,89.9,normal,D3
195,217.94,89.9,40.533764,-3.4570230000000004,0.032,-0.003,0.05,0.035,-1.554,0.031,0.32,90.0,89.9,normal,D3
196,218.95,90.6,40.533764,-3.457302,0.016,0.018,0.015,0.013,-1.5590000000000002,0.0289999999999999,0.322,90.0,90.1,normal,D3
197,219.91,90.1,40.533764,-3.4575949999999995,0.004,-0.001,-0.005,-0.005,-1.5590000000000002,0.026,0.3229999999999999,90.0,90.1,normal,D3
198,220.95,89.5,40.533772,-3.4578910000000005,-0.036,0.049,-0.015,-0.005,-1.5619999999999998,0.011,0.32,90.0,90.1,normal,D3
199,221.94,89.7,40.533756,-3.458174,-0.003,0.019,-0.016,-0.022,-1.546,-0.006,0.305,90.0,89.7,normal,D3
200,222.92,88.1,40.533749,-3.458477,-0.022,-0.021,-0.001,-0.011,-1.547,0.017,0.306,90.0,89.7,normal,D3
201,223.93,86.8,40.533749,-3.458767,-0.054,0.015,-0.031,-0.0279999999999999,-1.5619999999999998,0.017,0.311,90.0,87.2,normal,D3
202,225.0,87.2,40.533752,-3.459049,-0.0559999999999999,0.009,-0.023,-0.011,-1.5490000000000002,0.017,0.313,90.0,87.2,normal,D3
203,225.91,85.2,40.533752,-3.459337,-0.005,-0.057,0.0279999999999999,-0.001,-1.56,0.027,0.318,90.0,85.2,normal,D3
204,226.97,84.5,40.533749,-3.459624,0.042,0.033,-0.008,-0.006,-1.5519999999999998,0.023,0.321,90.0,84.5,normal,D3
205,227.95,83.6,40.533749,-3.4598980000000004,-0.053,-0.045,-0.011,-0.0069999999999999,-1.551,0.033,0.3289999999999999,90.0,84.5,normal,D3
206,228.96,83.4,40.533741,-3.460177,-0.033,0.011,-0.0069999999999999,-0.0139999999999999,-1.571,0.047,0.352,90.0,83.4,normal,D3
207,229.95,83.0,40.533733000000005,-3.460449,0.021,0.042,0.021,0.015,-1.584,-0.002,0.34,90.0,83.0,normal,D3
208,230.91,83.2,40.533733000000005,-3.460728,0.018,-0.021,-0.006,0.0139999999999999,-1.588,-0.017,0.324,90.0,83.2,normal,D3
209,231.92,84.3,40.53373,-3.461006,-0.001,-0.0139999999999999,-0.001,-0.009,-1.582,0.01,0.331,90.0,83.2,normal,D3
210,232.91,83.1,40.533733000000005,-3.461278,0.0139999999999999,0.004,0.021,0.008,-1.569,0.027,0.342,90.0,83.1,normal,D3
211,233.92,82.4,40.533726,-3.461551,-0.006,-0.002,0.017,0.015,-1.5659999999999998,0.049,0.36,90.0,83.1,normal,D3
212,234.94,82.0,40.533726,-3.461821,-0.013,0.002,-0.05,-0.037,-1.564,0.038,0.369,90.0,82.0,normal,D3
213,235.92,80.6,40.533722,-3.462078,-0.013,0.032,0.044,0.039,-1.561,0.019,0.37,90.0,82.0,normal,D3
214,236.92,81.4,40.533722,-3.462345,-0.005,-0.0,0.054,0.055,-1.598,0.001,0.362,90.0,81.4,normal,D3
215,237.92,82.6,40.533726,-3.462615,0.0139999999999999,-0.032,-0.013,-0.016,-1.607,0.008,0.362,90.0,82.6,normal,D3
216,239.01,82.7,40.533722,-3.462878,-0.01,-0.021,-0.012,-0.0069999999999999,-1.5930000000000002,0.034,0.3779999999999999,90.0,82.7,normal,D3
217,239.92,82.7,40.533726,-3.463144,-0.034,0.049,-0.018,-0.013,-1.586,0.016,0.38,90.0,82.7,normal,D3
218,240.98,82.9,40.533722,-3.46342,-0.006,0.005,-0.02,-0.0139999999999999,-1.59,-0.008,0.368,90.0,82.8,normal,D3
219,242.03,82.8,40.53373,-3.463686,0.013,-0.033,-0.026,-0.015,-1.5590000000000002,-0.009,0.358,90.0,82.8,normal,D3
220,242.93,81.0,40.53373,-3.463943,0.011,0.022,0.015,0.005,-1.554,0.005,0.361,90.0,82.8,normal,D3
221,243.92,80.1,40.533733000000005,-3.464206,0.052,0.016,0.009,0.004,-1.5730000000000002,0.015,0.357,90.0,80.1,normal,D3
222,244.92,79.9,40.533733000000005,-3.4644660000000003,0.026,-0.004,0.02,0.009,-1.584,0.0279999999999999,0.359,90.0,79.9,normal,D3
223,246.0,80.8,40.533733000000005,-3.4647330000000003,-0.0139999999999999,0.039,0.011,0.003,-1.582,0.025,0.352,90.0,80.8,normal,D3
224,246.92,81.2,40.533737,-3.465005,-0.002,0.016,-0.01,-0.004,-1.5719999999999998,0.011,0.3339999999999999,90.0,80.8,normal,D3
225,248.0,79.4,40.533745,-3.465266,-0.069,0.052,-0.0139999999999999,-0.018,-1.561,-0.011,0.301,90.0,81.2,normal,D3
226,248.95,79.7,40.533764,-3.465523,-0.016,0.0,0.036,0.026,-1.582,-0.015,0.262,90.0,79.4,normal,D3
227,249.93,80.3,40.533791,-3.46578,-0.048,0.019,0.0289999999999999,0.0279999999999999,-1.606,-0.011,0.2289999999999999,90.0,79.7,normal,D3
228,250.97,81.3,40.533821,-3.4660370000000005,0.005,0.011,-0.0139999999999999,-0.036,-1.612,-0.022,0.1939999999999999,90.0,80.3,normal,D3
229,251.93,81.0,40.533863,-3.466289,-0.012,-0.018,-0.025,-0.021,-1.596,-0.02,0.159,90.0,81.3,normal,D3
230,252.94,81.4,40.533909,-3.4665470000000003,-0.015,0.011,-0.0,-0.004,-1.597,-0.038,0.124,90.0,81.0,normal,D3
231,253.93,80.9,40.533974,-3.466799,-0.0559999999999999,0.015,-0.001,-0.026,-1.585,-0.052,0.079,90.0,81.4,normal,D3
232,254.93,80.6,40.534042,-3.467046,0.021,-0.009,-0.02,-0.017,-1.579,-0.0409999999999999,0.051,90.0,80.9,normal,D3
233,255.93,80.9,40.534122,-3.467286,-0.018,-0.016,-0.0139999999999999,-0.01,-1.57,-0.024,0.032,90.0,78.6,normal,D3
234,256.99,78.6,40.534199,-3.4675260000000003,-0.031,0.001,0.01,0.004,-1.567,-0.0289999999999999,0.008,90.0,78.6,normal,D3
235,257.95,77.4,40.534294,-3.467754,0.008,-0.01,0.0069999999999999,0.002,-1.5659999999999998,-0.032,-0.015,90.0,77.4,normal,D3
236,258.94,76.8,40.534393,-3.46797,-0.0279999999999999,-0.0139999999999999,-0.003,-0.011,-1.5659999999999998,-0.03,-0.0289999999999999,90.0,77.4,normal,D3
237,259.92,76.9,40.534496,-3.468182,-0.0069999999999999,0.017,0.027,0.0139999999999999,-1.569,-0.035,-0.051,90.0,76.8,normal,D3
238,260.92,76.5,40.534603,-3.468399,-0.009,-0.008,0.025,0.016,-1.571,-0.033,-0.077,90.0,76.5,normal,D3
239,261.93,75.3,40.534721000000005,-3.4686,0.015,-0.006,-0.009,0.004,-1.571,-0.027,-0.094,90.0,76.5,normal,D3
240,262.93,75.6,40.53484,-3.468789,-0.03,-0.006,-0.051,-0.01,-1.564,-0.02,-0.113,90.0,75.6,normal,D3
241,263.93,74.7,40.534962,-3.468977,-0.052,0.025,-0.018,0.0,-1.58,-0.027,-0.132,90.0,75.6,normal,D3
242,264.97,74.3,40.535091,-3.469151,0.011,-0.02,-0.005,-0.016,-1.587,-0.03,-0.153,100.0,74.3,normal,D3
243,265.95,73.6,40.535233000000005,-3.469315,-0.021,0.012,-0.07,-0.027,-1.571,-0.0279999999999999,-0.171,100.0,74.3,normal,D3
244,266.91,71.1,40.53537,-3.469468,-0.035,0.01,0.005,0.003,-1.591,-0.016,-0.196,90.0,71.1,normal,D3
245,267.94,74.7,40.535511,-3.469611,0.0139999999999999,-0.033,-0.012,-0.002,-1.6,0.008,-0.206,90.0,71.1,normal,D3
246,268.94,75.8,40.535664,-3.469751,-0.111,0.016,0.0139999999999999,0.0139999999999999,-1.601,0.0069999999999999,-0.207,90.0,75.8,normal,D3
247,269.92,76.2,40.53582,-3.469895,-0.008,0.048,-0.02,-0.015,-1.6,-0.001,-0.213,90.0,75.8,normal,D3
248,270.94,75.1,40.53598,-3.470031,-0.039,0.031,-0.04,-0.027,-1.591,-0.024,-0.237,100.0,75.1,normal,D3
249,271.97,74.8,40.536156,-3.470143,-0.01,0.002,-0.027,-0.038,-1.571,-0.024,-0.258,100.0,74.7,normal,D3
250,272.91,74.7,40.536324,-3.470247,-0.009,-0.003,0.024,0.033,-1.57,-0.018,-0.2739999999999999,100.0,74.7,normal,D3
251,273.95,74.3,40.536495,-3.470345,-0.03,0.034,0.024,0.027,-1.5830000000000002,-0.016,-0.288,100.0,74.7,normal,D3
252,274.97,73.8,40.536667,-3.470434,-0.02,-0.005,0.016,0.015,-1.606,-0.027,-0.309,100.0,73.8,normal,D3
253,275.92,75.7,40.536846,-3.470514,0.017,-0.033,-0.02,-0.011,-1.608,-0.02,-0.318,100.0,73.8,normal,D3
254,276.92,76.6,40.537014,-3.470583,0.018,-0.001,0.016,-0.002,-1.5930000000000002,-0.018,-0.325,100.0,76.6,normal,D3
255,277.93,76.7,40.537205,-3.4706589999999995,-0.004,-0.06,-0.017,-0.016,-1.58,-0.011,-0.326,100.0,76.6,normal,D3
256,278.94,76.4,40.537388,-3.4707260000000004,0.013,-0.018,-0.037,-0.033,-1.5619999999999998,0.012,-0.3,100.0,76.4,normal,D3
257,279.94,74.6,40.537575,-3.470788,0.003,-0.013,0.018,0.008,-1.521,0.018,-0.2789999999999999,100.0,76.4,normal,D3
258,280.91,71.5,40.537754,-3.470846,0.002,-0.009,0.032,0.04,-1.525,0.025,-0.256,90.0,71.5,normal,D3
259,281.91,71.8,40.537926,-3.470904,0.006,-0.004,0.037,0.038,-1.567,0.02,-0.228,90.0,71.5,normal,D3
260,282.91,72.7,40.538105,-3.470967,0.022,0.001,0.023,0.023,-1.582,0.006,-0.216,90.0,71.8,normal,D3
261,283.92,72.3,40.53828,-3.471029,-0.037,0.03,-0.04,-0.019,-1.579,0.004,-0.209,90.0,72.3,normal,D3
262,284.91,72.1,40.53846,-3.471088,-0.026,0.001,-0.0069999999999999,-0.005,-1.5730000000000002,0.004,-0.1989999999999999,90.0,72.3,normal,D3
263,285.93,72.1,40.538635,-3.471146,0.003,-0.016,0.001,0.025,-1.577,0.021,-0.182,90.0,72.1,normal,D3
264,286.91,71.8,40.538807,-3.4712080000000003,-0.008,0.0279999999999999,0.036,0.026,-1.587,0.008,-0.175,90.0,71.8,normal,D3
265,287.91,70.6,40.538979,-3.4712629999999995,0.043,-0.0289999999999999,0.022,0.013,-1.6030000000000002,0.008,-0.174,90.0,70.6,normal,D3
266,288.92,73.0,40.539146,-3.471315,0.031,0.006,0.0139999999999999,0.008,-1.598,0.005,-0.1689999999999999,90.0,70.6,normal,D3
267,289.92,73.0,40.539326,-3.4713730000000003,0.025,-0.033,-0.01,-0.016,-1.586,0.012,-0.162,90.0,73.0,normal,D3
268,290.93,71.6,40.539505,-3.4714339999999995,-0.059,0.001,-0.015,0.003,-1.5719999999999998,0.024,-0.15,90.0,71.6,normal,D3
269,291.92,72.9,40.539684,-3.4714980000000004,-0.038,-0.012,0.039,0.025,-1.581,0.026,-0.142,90.0,71.6,normal,D3
270,293.01,73.0,40.53986,-3.4715550000000004,-0.071,0.016,0.019,0.015,-1.594,0.0139999999999999,-0.136,90.0,73.0,normal,D3
271,293.92,73.8,40.540047,-3.471611,-0.02,0.009,-0.004,-0.009,-1.605,0.004,-0.1369999999999999,90.0,73.8,normal,D3
272,294.93,74.3,40.54023,-3.471671,-0.034,-0.016,-0.004,-0.011,-1.602,0.003,-0.133,90.0,73.8,normal,D3
273,295.92,75.4,40.540413,-3.471731,-0.0279999999999999,-0.004,0.002,0.0069999999999999,-1.58,0.021,-0.124,90.0,74.3,normal,D3
274,296.92,74.3,40.540592,-3.47179,-0.057,0.023,-0.0069999999999999,0.002,-1.571,0.017,-0.121,90.0,75.4,normal,D3
275,297.97,74.7,40.540775,-3.471853,-0.043,0.012,0.026,0.015,-1.569,0.009,-0.126,30.0,74.3,normal,D3
276,298.92,75.1,40.540955,-3.471908,-0.01,0.001,0.023,0.016,-1.568,0.015,-0.124,30.0,74.7,normal,D3
277,299.96,74.6,40.541134,-3.47197,-0.002,0.002,0.03,0.017,-1.571,0.009,-0.124,30.0,74.6,normal,D3
278,300.92,73.3,40.541317,-3.47203,-0.002,0.011,0.015,0.019,-1.575,0.01,-0.12,30.0,74.6,normal,D3
279,301.92,74.7,40.541496,-3.472087,-0.003,0.011,0.019,0.024,-1.591,0.0139999999999999,-0.1159999999999999,30.0,73.3,normal,D3
280,302.93,75.2,40.541679,-3.472148,-0.039,-0.006,-0.01,-0.002,-1.608,0.0069999999999999,-0.115,30.0,75.2,normal,D3
281,303.94,74.9,40.541862,-3.472214,-0.036,0.001,-0.021,-0.027,-1.611,-0.005,-0.1169999999999999,30.0,75.2,normal,D3
282,304.93,74.2,40.542038,-3.472275,0.013,-0.0069999999999999,-0.049,-0.062,-1.581,-0.0069999999999999,-0.12,30.0,74.9,normal,D3
283,305.98,72.5,40.54221,-3.4723300000000004,0.042,-0.031,0.047,0.047,-1.568,0.0069999999999999,-0.115,30.0,74.2,normal,D3
284,306.93,73.2,40.542385,-3.4723940000000004,-0.011,-0.006,0.012,0.01,-1.595,0.0139999999999999,-0.105,30.0,72.5,normal,D3
285,307.92,73.5,40.542564,-3.472456,-0.032,0.021,-0.034,-0.021,-1.594,0.013,-0.0969999999999999,30.0,73.2,normal,D3
286,308.93,73.3,40.542744,-3.472519,-0.057,0.064,-0.01,-0.018,-1.585,0.008,-0.104,30.0,73.5,normal,D3
287,309.93,73.6,40.542923,-3.472582,-0.005,-0.008,-0.0,0.006,-1.596,0.011,-0.102,30.0,73.6,normal,D3
288,310.98,72.6,40.543095,-3.472639,-0.02,-0.01,-0.015,-0.0139999999999999,-1.594,0.012,-0.0969999999999999,30.0,73.6,normal,D3
289,311.93,72.4,40.543266,-3.472692,-0.009,-0.015,-0.017,-0.0279999999999999,-1.587,0.017,-0.087,30.0,72.4,normal,D3
290,312.93,72.0,40.543434000000005,-3.472756,0.012,-0.005,0.018,0.0069999999999999,-1.591,0.015,-0.078,30.0,72.4,normal,D3
291,313.93,72.1,40.543613,-3.472815,0.015,0.021,-0.0069999999999999,0.01,-1.599,0.003,-0.072,30.0,72.6,normal,D3
292,314.93,72.6,40.543789,-3.472869,-0.038,0.0,-0.005,-0.0069999999999999,-1.608,0.008,-0.073,30.0,72.6,normal,D3
293,315.94,72.4,40.543953,-3.472924,-0.049,0.003,-0.047,-0.048,-1.592,0.019,-0.067,90.0,70.9,normal,D3
294,316.93,70.9,40.544132,-3.472977,0.016,-0.015,0.005,-0.008,-1.575,0.015,-0.062,90.0,70.9,normal,D3
295,318.02,69.6,40.5443,-3.473037,-0.023,-0.0139999999999999,0.01,0.021,-1.589,0.015,-0.0559999999999999,90.0,69.6,normal,D3
296,318.94,70.0,40.544476,-3.473092,-0.021,0.016,0.003,-0.0,-1.6,0.008,-0.0559999999999999,90.0,69.6,normal,D3
297,319.98,70.8,40.544651,-3.473146,0.004,-0.009,-0.0069999999999999,-0.009,-1.596,0.0069999999999999,-0.0559999999999999,90.0,70.8,normal,D3
298,320.93,69.3,40.544823,-3.473206,0.024,-0.03,-0.0069999999999999,-0.02,-1.579,0.006,-0.049,90.0,70.8,normal,D3
299,321.92,67.9,40.544983,-3.473261,-0.033,0.0139999999999999,-0.008,0.006,-1.584,0.002,-0.0409999999999999,90.0,68.4,normal,D3
300,322.93,68.4,40.545158,-3.4733120000000004,0.003,0.015,-0.011,0.002,-1.585,-0.005,-0.044,90.0,68.4,normal,D3
301,323.93,68.1,40.545315,-3.473364,-0.052,-0.003,0.033,0.033,-1.6,-0.008,-0.043,90.0,68.4,normal,D3
302,324.97,68.5,40.545483,-3.473409,0.022,-0.012,0.005,0.011,-1.63,0.001,-0.033,90.0,69.5,normal,D3
303,325.94,69.5,40.545647,-3.473471,0.0139999999999999,-0.067,0.027,0.013,-1.622,0.034,-0.004,90.0,69.5,normal,D3
304,326.94,72.5,40.545815000000005,-3.4735440000000004,-0.002,0.057,0.024,0.052,-1.665,0.016,0.016,90.0,69.5,normal,D3
305,327.91,75.5,40.54599,-3.473625,0.021,0.055,0.039,0.038,-1.6840000000000002,-0.036,-0.0069999999999999,90.0,75.5,normal,D3
306,328.91,79.5,40.546173,-3.4737,-0.02,-0.008,0.044,0.033,-1.6980000000000002,-0.053,-0.037,90.0,75.5,normal,D3
307,329.91,83.0,40.546371,-3.473771,-0.015,-0.057,0.006,0.002,-1.702,-0.033,-0.035,90.0,83.0,normal,D3
308,330.91,87.0,40.546577,-3.473844,-0.043,-0.043,-0.021,-0.038,-1.699,-0.012,-0.019,90.0,83.0,normal,D3
309,331.94,89.7,40.546795,-3.473925,0.021,0.045,0.033,0.026,-1.6969999999999998,-0.0289999999999999,-0.015,90.0,93.4,normal,D3
310,332.98,93.4,40.547016,-3.474011,-0.062,0.009,-0.036,-0.034,-1.6909999999999998,-0.051,-0.0289999999999999,90.0,93.4,normal,D3
311,333.92,94.8,40.547245,-3.4741,-0.031,-0.021,-0.1159999999999999,-0.111,-1.636,-0.034,-0.023,90.0,93.4,normal,D3
312,334.91,93.0,40.547466,-3.47419,0.001,-0.025,-0.063,-0.071,-1.581,-0.001,0.005,90.0,89.4,normal,D3
313,335.92,89.4,40.547684,-3.474283,-0.053,0.0069999999999999,0.02,-0.009,-1.548,0.005,0.027,90.0,89.4,normal,D3
314,336.91,88.5,40.54789,-3.474387,0.013,-0.0139999999999999,-0.009,-0.001,-1.546,0.008,0.046,90.0,89.4,normal,D3
315,337.97,86.7,40.548092,-3.474489,-0.044,0.016,0.03,0.033,-1.543,0.005,0.065,90.0,86.7,normal,D3
316,338.93,86.0,40.548294,-3.474596,-0.018,0.0289999999999999,0.027,0.023,-1.574,-0.016,0.068,90.0,86.0,normal,D3
317,339.91,84.7,40.548485,-3.474712,-0.025,-0.013,0.025,0.027,-1.591,-0.02,0.071,90.0,86.0,normal,D3
318,340.93,84.7,40.548683,-3.474826,-0.0,-0.023,-0.001,-0.006,-1.605,-0.006,0.086,90.0,84.7,normal,D3
319,341.92,85.9,40.548878,-3.474952,0.017,0.018,-0.005,-0.013,-1.621,-0.018,0.095,90.0,85.9,normal,D3
320,342.97,86.4,40.549068,-3.475083,-0.011,0.0289999999999999,-0.006,-0.01,-1.619,-0.026,0.091,90.0,85.9,normal,D3
321,343.92,86.3,40.549263,-3.475219,-0.008,-0.02,-0.037,-0.016,-1.616,-0.013,0.093,90.0,86.4,normal,D3
322,344.95,86.8,40.54945,-3.47536,0.0279999999999999,0.005,0.0069999999999999,0.001,-1.61,-0.001,0.102,90.0,86.3,normal,D3
323,345.99,87.5,40.549648,-3.475508,-0.034,0.0279999999999999,0.016,0.003,-1.601,-0.001,0.104,90.0,86.8,normal,D3
324,346.97,87.2,40.549835,-3.475651,-0.049,0.025,-0.026,-0.015,-1.594,-0.02,0.1009999999999999,90.0,87.5,normal,D3
325,347.95,86.3,40.550022,-3.475797,0.002,-0.008,-0.003,-0.009,-1.594,-0.015,0.1,90.0,86.3,normal,D3
326,348.94,86.1,40.550198,-3.475947,-0.02,0.021,0.004,-0.01,-1.587,-0.003,0.108,90.0,86.1,normal,D3
327,349.97,85.5,40.550377000000005,-3.4761010000000003,0.03,0.011,-0.005,0.003,-1.606,-0.01,0.111,90.0,86.1,normal,D3
328,350.92,85.3,40.550552,-3.476257,0.003,0.022,0.003,-0.001,-1.597,-0.01,0.106,90.0,85.5,normal,D3
329,352.01,85.8,40.550728,-3.476417,-0.03,0.001,0.032,0.016,-1.597,-0.004,0.109,90.0,85.3,normal,D3
330,352.92,86.2,40.550907,-3.476581,-0.026,0.001,0.011,0.012,-1.596,-0.011,0.1119999999999999,90.0,86.2,normal,D3
331,353.93,86.0,40.551067,-3.476752,0.031,-0.016,-0.021,0.008,-1.596,-0.005,0.115,90.0,86.2,normal,D3
332,354.92,85.7,40.551239,-3.47692,-0.002,0.0069999999999999,-0.009,-0.01,-1.609,-0.019,0.1169999999999999,90.0,86.4,normal,D3
333,355.92,86.4,40.551403,-3.477099,-0.012,-0.002,0.022,0.005,-1.609,-0.017,0.115,90.0,86.4,normal,D3
334,356.94,86.4,40.551575,-3.477275,0.003,-0.018,0.003,-0.004,-1.611,-0.009,0.12,90.0,86.4,normal,D3
335,357.91,86.3,40.551727,-3.47747,0.034,-0.004,-0.005,-0.001,-1.609,-0.024,0.118,90.0,86.4,normal,D3
336,358.93,87.7,40.551903,-3.4776580000000004,0.015,-0.006,-0.003,0.003,-1.604,-0.011,0.1159999999999999,90.0,86.3,normal,D3
337,359.94,87.6,40.552059,-3.477857,-0.018,0.017,-0.008,-0.02,-1.6030000000000002,-0.018,0.113,90.0,87.7,normal,D3
338,360.93,86.9,40.552223,-3.478067,0.045,-0.016,0.001,-0.001,-1.606,-0.002,0.1169999999999999,90.0,87.6,normal,D3
339,361.93,86.6,40.55238,-3.478267,-0.0289999999999999,0.024,-0.012,-0.006,-1.5830000000000002,-0.001,0.118,90.0,86.9,normal,D3
340,362.93,86.1,40.552528,-3.478472,0.027,-0.008,0.009,0.006,-1.586,-0.005,0.12,90.0,86.1,normal,D3
341,363.93,85.8,40.552673,-3.47868,0.019,0.01,-0.005,-0.004,-1.592,-0.021,0.114,90.0,86.1,normal,D3
342,364.91,85.8,40.552814,-3.4788900000000003,-0.004,-0.017,-0.008,-0.0069999999999999,-1.5930000000000002,-0.024,0.1119999999999999,90.0,86.1,normal,D3
343,365.92,86.4,40.552956,-3.479102,-0.023,0.016,0.025,0.012,-1.579,-0.016,0.1119999999999999,90.0,86.1,normal,D3
344,366.93,85.5,40.553089,-3.4793160000000003,-0.086,0.024,0.024,0.013,-1.592,-0.015,0.111,90.0,86.1,normal,D3
345,367.91,86.1,40.553223,-3.479536,0.004,-0.0069999999999999,-0.015,0.005,-1.597,-0.019,0.1119999999999999,90.0,86.1,normal,D3
346,368.95,86.2,40.55336,-3.479759,0.039,-0.015,-0.0139999999999999,-0.018,-1.609,-0.02,0.1119999999999999,90.0,86.1,normal,D3
347,369.94,86.5,40.553482,-3.479993,0.033,-0.0,0.005,-0.008,-1.599,-0.021,0.108,90.0,86.1,normal,D3
348,370.92,86.5,40.553608,-3.480226,-0.037,-0.0279999999999999,0.0,-0.011,-1.581,-0.016,0.106,90.0,86.1,normal,D3
349,371.93,86.3,40.55373,-3.48046,-0.033,0.01,0.0,-0.0069999999999999,-1.579,-0.013,0.11,90.0,86.1,normal,D3
350,372.99,85.8,40.553844,-3.4806980000000003,-0.0279999999999999,-0.024,-0.005,-0.002,-1.586,-0.018,0.113,90.0,86.1,normal,D3
351,373.92,86.0,40.553963,-3.480932,0.044,-0.024,0.02,0.004,-1.5930000000000002,-0.012,0.121,90.0,86.1,normal,D3
352,374.93,86.5,40.554081,-3.481172,-0.0139999999999999,-0.002,0.0139999999999999,0.01,-1.589,-0.011,0.124,90.0,88.8,normal,D3
353,375.94,87.2,40.554195,-3.481406,0.005,-0.019,0.015,0.006,-1.594,-0.017,0.125,90.0,88.8,normal,D3
354,376.94,87.2,40.554306,-3.481653,-0.012,-0.015,0.002,-0.005,-1.592,-0.015,0.129,90.0,88.8,normal,D3
355,377.93,87.8,40.554417,-3.481907,-0.033,0.044,0.001,0.013,-1.596,-0.0289999999999999,0.124,90.0,88.8,normal,D3
356,378.91,88.7,40.554523,-3.482164,0.011,-0.022,0.015,0.004,-1.6,-0.032,0.1159999999999999,90.0,88.8,normal,D3
357,379.91,89.1,40.554626,-3.4824300000000004,-0.035,-0.0,0.003,-0.008,-1.585,-0.013,0.1169999999999999,90.0,88.8,normal,D3
358,381.0,89.6,40.554718,-3.4826980000000005,0.032,0.009,0.015,0.004,-1.575,0.003,0.122,90.0,88.8,normal,D3
359,381.94,89.9,40.554813,-3.482962,-0.027,-0.003,0.002,0.009,-1.569,-0.005,0.12,90.0,88.8,normal,D3
360,382.98,90.3,40.554913,-3.483233,0.002,-0.005,-0.017,-0.012,-1.557,-0.008,0.12,90.0,88.8,normal,D3
361,383.92,89.3,40.555008,-3.483505,-0.016,-0.004,0.005,-0.004,-1.554,-0.018,0.118,90.0,88.8,normal,D3
362,384.91,88.8,40.555084,-3.483773,0.013,-0.039,0.008,0.01,-1.5590000000000002,-0.001,0.124,90.0,88.8,normal,D3
363,385.97,88.8,40.555157,-3.4840440000000004,0.009,-0.016,-0.002,0.008,-1.569,0.002,0.135,90.0,88.8,normal,D3
364,386.91,90.3,40.555229,-3.4843260000000003,0.0139999999999999,0.031,0.0069999999999999,0.009,-1.5659999999999998,-0.012,0.133,90.0,90.3,normal,D3
365,387.97,89.0,40.555298,-3.484606,0.018,0.012,-0.005,0.01,-1.564,-0.0139999999999999,0.13,90.0,90.3,normal,D3
366,388.91,88.0,40.555367,-3.484885,-0.033,-0.018,-0.02,-0.0139999999999999,-1.5659999999999998,-0.019,0.125,90.0,88.0,normal,D3
367,389.92,88.8,40.555435,-3.485148,0.0279999999999999,-0.0069999999999999,-0.0,0.006,-1.569,-0.0139999999999999,0.124,90.0,88.0,normal,D3
368,390.95,88.8,40.555489,-3.485425,-0.044,0.017,0.005,-0.003,-1.586,-0.006,0.128,90.0,88.8,normal,D3
369,391.92,88.6,40.55555,-3.485702,0.019,-0.027,-0.009,-0.015,-1.587,-0.024,0.12,90.0,88.8,normal,D3
370,392.94,89.1,40.555607,-3.485983,-0.048,0.006,0.015,-0.003,-1.5730000000000002,-0.017,0.115,90.0,89.1,normal,D3
371,393.91,89.1,40.555653,-3.486263,-0.026,-0.038,0.013,0.005,-1.578,-0.003,0.118,90.0,89.1,normal,D3
372,394.94,88.3,40.555691,-3.486553,0.026,0.018,0.004,-0.004,-1.585,-0.004,0.121,90.0,88.3,normal,D3
373,395.91,89.0,40.555729,-3.4868410000000005,-0.008,0.033,-0.017,-0.0139999999999999,-1.591,-0.009,0.111,90.0,88.3,normal,D3
374,396.92,89.5,40.555771,-3.487131,0.005,-0.011,-0.02,-0.018,-1.5930000000000002,-0.003,0.113,90.0,89.5,normal,D3
375,397.92,89.9,40.555805,-3.487414,-0.03,0.032,0.001,-0.003,-1.5759999999999998,-0.008,0.108,90.0,89.5,normal,D3
376,398.92,89.9,40.555832,-3.4877050000000005,0.02,-0.031,-0.036,-0.023,-1.5830000000000002,-0.015,0.106,90.0,89.5,normal,D3
377,399.92,89.3,40.555862,-3.487993,-0.06,-0.025,0.006,-0.004,-1.581,-0.001,0.113,90.0,90.8,normal,D3
378,400.92,89.5,40.555882,-3.488288,-0.003,0.045,-0.013,-0.0069999999999999,-1.588,-0.018,0.115,90.0,90.8,normal,D3
379,401.92,90.8,40.555897,-3.4885900000000003,-0.002,-0.021,-0.023,-0.011,-1.579,-0.027,0.121,90.0,90.8,normal,D3
380,402.93,90.1,40.555904,-3.488885,-0.023,-0.018,0.016,0.015,-1.5830000000000002,-0.019,0.132,90.0,90.8,normal,D3
381,403.92,90.7,40.555908,-3.489183,-0.01,-0.015,-0.013,-0.0069999999999999,-1.585,-0.024,0.141,90.0,90.8,normal,D3
382,404.95,89.4,40.555901,-3.489478,-0.064,-0.0279999999999999,-0.053,-0.032,-1.584,-0.013,0.152,90.0,90.8,normal,D3
383,405.92,90.1,40.555897,-3.489759,-0.012,-0.016,0.0069999999999999,0.001,-1.561,0.003,0.1639999999999999,90.0,90.8,normal,D3
384,406.91,89.5,40.555874,-3.4900519999999995,-0.0279999999999999,-0.024,-0.04,-0.023,-1.5630000000000002,0.018,0.18,90.0,90.8,normal,D3
385,407.93,88.4,40.555843,-3.4903410000000004,0.033,0.034,0.012,0.012,-1.5590000000000002,0.026,0.192,90.0,90.8,normal,D3
386,408.96,87.9,40.555809,-3.49062,0.03,-0.009,0.033,0.031,-1.551,0.024,0.207,90.0,90.8,normal,D3
387,409.93,88.2,40.555763,-3.490911,-0.006,0.008,0.032,0.022,-1.565,0.016,0.221,90.0,90.8,normal,D3
388,410.92,88.0,40.55571,-3.491192,0.031,0.024,-0.001,0.017,-1.579,-0.003,0.226,90.0,90.8,normal,D3
389,411.92,88.6,40.555653,-3.491471,0.055,0.012,0.025,0.019,-1.5759999999999998,0.002,0.233,90.0,90.8,normal,D3
390,412.94,89.0,40.555595,-3.4917480000000003,0.031,0.011,0.017,0.018,-1.584,-0.01,0.239,90.0,90.8,normal,D3
391,413.91,89.5,40.555527000000005,-3.492022,0.0579999999999999,-0.0579999999999999,0.004,-0.002,-1.586,0.003,0.248,90.0,90.8,normal,D3
392,414.94,87.0,40.555447,-3.492292,-0.018,0.02,-0.001,-0.01,-1.589,0.011,0.265,90.0,90.8,normal,D3
393,415.95,89.7,40.555355,-3.492563,0.094,0.009,0.005,0.006,-1.584,0.016,0.276,90.0,90.8,normal,D3
394,416.91,89.5,40.555256,-3.492829,0.0069999999999999,0.019,-0.0069999999999999,-0.008,-1.578,0.02,0.278,90.0,90.8,normal,D3
395,417.93,89.4,40.555157,-3.493097,0.013,0.0139999999999999,0.0139999999999999,0.0069999999999999,-1.564,0.002,0.259,90.0,90.8,normal,D3
396,418.92,90.1,40.555058,-3.493353,-0.008,0.022,-0.024,-0.016,-1.5659999999999998,-0.003,0.241,90.0,90.8,normal,D3
397,419.93,89.2,40.554962,-3.493613,-0.016,0.019,0.03,0.011,-1.5519999999999998,0.018,0.216,90.0,90.8,normal,D3
398,420.93,89.2,40.554863,-3.493877,-0.006,0.02,0.003,0.018,-1.564,0.019,0.184,90.0,90.8,normal,D3
399,421.93,89.3,40.554764,-3.4941230000000005,-0.0139999999999999,0.024,0.021,0.022,-1.5759999999999998,0.011,0.145,90.0,90.8,normal,D3
400,422.94,89.8,40.554665,-3.494396,-0.098,0.048,-0.004,-0.016,-1.594,0.002,0.092,90.0,90.8,normal,D3
401,423.93,90.3,40.554588,-3.4946660000000005,0.087,0.004,0.01,-0.008,-1.596,-0.023,0.0279999999999999,90.0,90.8,normal,D3
402,424.93,90.0,40.554523,-3.4949410000000003,0.045,0.033,-0.015,-0.013,-1.598,-0.057,-0.035,90.0,90.8,normal,D3
403,425.93,90.8,40.554459,-3.495218,0.02,-0.016,-0.013,-0.001,-1.599,-0.061,-0.099,90.0,90.8,normal,D3
404,426.92,92.0,40.554405,-3.495506,-0.038,0.016,-0.0139999999999999,-0.015,-1.604,-0.069,-0.16,90.0,90.8,normal,D3
405,427.96,92.3,40.554356,-3.495802,-0.0069999999999999,-0.054,0.001,-0.025,-1.617,-0.0559999999999999,-0.213,90.0,90.8,normal,D3
406,428.93,93.1,40.554317,-3.4961050000000005,-0.018,-0.038,-0.008,-0.024,-1.608,-0.0409999999999999,-0.253,90.0,90.8,normal,D3
407,429.99,93.3,40.554283,-3.496417,-0.033,-0.032,-0.022,-0.0139999999999999,-1.608,-0.046,-0.299,90.0,90.8,normal,D3
408,430.98,92.0,40.55426,-3.496734,-0.01,-0.01,-0.011,-0.008,-1.598,-0.052,-0.348,90.0,90.8,normal,D3
409,431.94,93.3,40.554249,-3.497047,0.001,-0.025,-0.0069999999999999,-0.019,-1.594,-0.065,-0.397,90.0,90.8,normal,D3
410,432.93,93.3,40.554245,-3.497351,0.077,-0.003,-0.004,0.001,-1.581,-0.072,-0.442,90.0,90.8,normal,D3
411,433.97,92.9,40.554253,-3.497659,-0.04,0.06,0.023,0.008,-1.577,-0.078,-0.493,90.0,90.8,normal,D3
412,434.91,92.9,40.554268,-3.497959,-0.042,-0.03,0.001,-0.004,-1.5730000000000002,-0.078,-0.5379999999999999,90.0,90.8,normal,D3
413,435.93,93.0,40.554298,-3.498267,0.0969999999999999,0.024,0.015,0.022,-1.571,-0.084,-0.583,90.0,90.8,normal,D3
414,436.92,93.6,40.55434,-3.4985690000000003,0.026,-0.034,0.009,0.011,-1.581,-0.073,-0.616,90.0,90.8,normal,D3
415,437.94,94.1,40.554386,-3.498871,0.011,0.022,-0.017,-0.021,-1.579,-0.096,-0.6629999999999999,90.0,90.8,normal,D3
416,438.91,92.7,40.55444,-3.499166,0.031,-0.078,-0.046,-0.022,-1.571,-0.1119999999999999,-0.6890000000000001,90.0,90.8,normal,D3
417,439.98,93.4,40.554512,-3.49945,-0.055,-0.107,0.005,-0.024,-1.521,-0.0409999999999999,-0.6829999999999999,90.0,90.8,normal,D3
418,440.94,92.5,40.554569,-3.4997519999999995,-0.016,-0.001,-0.024,-0.01,-1.51,0.027,-0.674,90.0,90.8,normal,D3
419,441.93,93.1,40.554634,-3.500049,0.038,0.025,-0.03,0.003,-1.523,0.019,-0.6859999999999999,90.0,90.8,normal,D3
420,442.98,92.0,40.554707,-3.500336,-0.031,0.129,-0.009,-0.004,-1.527,-0.079,-0.746,90.0,90.8,normal,D3
421,443.97,91.2,40.554794,-3.5006129999999995,0.01,0.011,-0.018,-0.021,-1.541,-0.161,-0.8340000000000001,90.0,90.8,normal,D3
422,444.91,90.5,40.554897,-3.500878,0.013,-0.018,-0.032,-0.024,-1.528,-0.181,-0.898,90.0,90.8,normal,D3
423,445.94,90.6,40.555019,-3.501127,-0.053,-0.077,-0.0279999999999999,-0.019,-1.511,-0.143,-0.935,90.0,90.8,normal,D3
424,446.96,90.8,40.555149,-3.501375,-0.046,-0.0579999999999999,-0.019,-0.026,-1.514,-0.096,-0.943,90.0,90.8,normal,D3
425,447.97,90.6,40.555283,-3.501617,0.018,-0.037,-0.031,-0.032,-1.506,-0.075,-0.948,90.0,90.8,normal,D3
426,448.91,89.7,40.555416,-3.5018580000000004,-0.027,-0.08,-0.015,-0.025,-1.506,-0.043,-0.932,90.0,89.7,normal,D3
427,449.93,89.0,40.555546,-3.502095,-0.035,-0.023,-0.009,-0.011,-1.499,-0.008,-0.904,90.0,89.7,normal,D3
428,451.04,88.7,40.555672,-3.502338,-0.085,-0.01,-0.004,-0.012,-1.517,-0.013,-0.871,90.0,88.7,normal,D3
429,451.91,88.3,40.555786,-3.502584,0.005,-0.008,0.006,0.008,-1.516,0.015,-0.835,90.0,88.3,normal,D3
430,452.96,88.6,40.555897,-3.502836,-0.044,0.002,-0.022,-0.01,-1.518,0.053,-0.794,90.0,88.3,normal,D3
431,453.97,88.8,40.556,-3.503097,0.002,-0.019,0.003,-0.005,-1.523,0.044,-0.752,90.0,88.8,normal,D3
432,454.98,89.0,40.556107,-3.5033449999999995,0.026,-0.026,-0.01,-0.0139999999999999,-1.53,0.059,-0.7070000000000001,90.0,88.8,normal,D3
433,455.94,89.1,40.556198,-3.503604,-0.0289999999999999,0.019,-0.0279999999999999,-0.038,-1.538,0.05,-0.669,90.0,89.0,normal,D3
434,456.92,90.0,40.556282,-3.5038720000000003,-0.016,0.03,-0.019,-0.022,-1.535,0.031,-0.645,90.0,90.0,normal,D3
435,457.97,89.1,40.556362,-3.504144,-0.0069999999999999,-0.009,-0.012,-0.013,-1.538,0.019,-0.624,90.0,89.1,normal,D3
436,458.94,89.1,40.556442,-3.5044190000000004,0.053,-0.042,0.004,0.0069999999999999,-1.527,0.046,-0.599,90.0,89.1,normal,D3
437,459.93,88.7,40.556511,-3.5047040000000003,-0.033,-0.004,-0.021,0.002,-1.509,0.077,-0.569,90.0,88.7,normal,D3
438,460.93,89.5,40.556576,-3.5049870000000003,-0.044,0.0279999999999999,0.018,0.02,-1.506,0.063,-0.552,90.0,88.7,normal,D3
439,461.93,89.2,40.556629,-3.505272,0.02,-0.022,-0.001,0.005,-1.518,0.044,-0.5379999999999999,90.0,89.2,normal,D3
440,462.97,88.6,40.556667,-3.505554,0.034,0.004,-0.016,-0.0279999999999999,-1.514,0.03,-0.524,90.0,89.8,normal,D3
441,463.94,89.8,40.556709000000005,-3.505846,-0.001,-0.004,0.013,0.0139999999999999,-1.5,0.052,-0.514,90.0,89.8,normal,D3
442,464.92,89.9,40.556744,-3.5061410000000004,0.0,0.0,0.0,0.011,-1.499,0.067,-0.495,90.0,89.8,normal,D3
443,465.98,89.5,40.556767,-3.506436,-0.073,-0.0069999999999999,0.012,0.009,-1.508,0.06,-0.475,90.0,89.9,normal,D3
444,466.95,89.8,40.556786,-3.506731,-0.016,0.0139999999999999,-0.0139999999999999,-0.003,-1.51,0.042,-0.467,90.0,89.8,normal,D3
445,467.92,89.9,40.556793,-3.507039,0.046,-0.0069999999999999,-0.013,-0.0279999999999999,-1.5219999999999998,0.033,-0.4639999999999999,90.0,89.9,normal,D3
446,468.94,89.8,40.556797,-3.507337,-0.046,0.009,0.023,0.009,-1.52,0.042,-0.46,90.0,89.8,normal,D3
447,469.91,90.1,40.556789,-3.507632,-0.035,0.001,-0.015,0.006,-1.521,0.034,-0.465,90.0,89.8,normal,D3
448,470.92,90.1,40.556774,-3.507931,-0.013,0.055,0.008,-0.005,-1.523,0.02,-0.479,90.0,90.1,normal,D3
449,471.96,90.2,40.556763,-3.508228,-0.009,0.047,-0.026,-0.011,-1.523,-0.002,-0.517,90.0,90.1,normal,D3
450,472.91,90.7,40.556759,-3.508509,0.021,-0.018,-0.005,0.004,-1.5219999999999998,0.001,-0.552,90.0,90.1,normal,D3
451,473.94,90.9,40.556751,-3.5087980000000005,-0.017,0.044,-0.002,0.009,-1.516,0.009,-0.5870000000000001,90.0,90.7,normal,D3
452,474.91,90.7,40.556747,-3.509096,0.022,0.065,0.012,0.001,-1.517,-0.009,-0.631,90.0,90.7,normal,D3
453,476.01,90.7,40.556747,-3.509401,-0.0409999999999999,0.05,0.005,0.009,-1.511,-0.045,-0.69,90.0,90.7,normal,D3
454,476.94,91.9,40.556767,-3.509698,0.027,-0.003,0.015,-0.002,-1.525,-0.0819999999999999,-0.753,90.0,91.9,normal,D3
455,477.93,92.2,40.556789,-3.51,-0.051,-0.0069999999999999,-0.009,-0.008,-1.525,-0.092,-0.8009999999999999,90.0,92.2,normal,D3
456,478.93,92.1,40.556816,-3.510304,0.01,-0.005,0.002,-0.02,-1.524,-0.085,-0.8490000000000001,90.0,92.2,normal,D3
457,479.93,91.5,40.556858,-3.5105980000000003,0.021,0.0,0.001,-0.013,-1.519,-0.093,-0.905,90.0,91.5,normal,D3
458,480.96,91.5,40.556908,-3.510892,-0.004,0.004,-0.005,-0.008,-1.519,-0.091,-0.953,90.0,91.5,normal,D3
459,481.95,91.5,40.556976,-3.511189,-0.066,-0.026,-0.022,-0.01,-1.515,-0.078,-0.993,90.0,91.5,normal,D3
460,482.95,91.8,40.557037,-3.5114690000000004,-0.021,0.025,0.005,-0.006,-1.511,-0.059,-1.018,90.0,91.8,normal,D3
461,483.93,91.6,40.557121,-3.511747,-0.002,-0.012,0.008,0.005,-1.509,-0.07,-1.053,90.0,90.6,normal,D3
462,484.95,90.6,40.557213,-3.512024,-0.021,-0.003,0.002,-0.009,-1.509,-0.077,-1.086,90.0,90.6,normal,D3
463,485.97,91.5,40.557304,-3.512303,0.013,0.005,0.022,-0.0,-1.503,-0.065,-1.107,90.0,91.5,normal,D3
464,486.95,91.3,40.557415,-3.512572,-0.044,0.018,0.013,0.001,-1.515,-0.075,-1.131,90.0,91.5,normal,D3
465,487.94,90.7,40.557526,-3.512833,0.001,-0.0069999999999999,0.0069999999999999,-0.012,-1.516,-0.073,-1.154,90.0,90.7,normal,D3
466,488.93,90.6,40.557644,-3.513088,-0.031,-0.017,-0.006,-0.015,-1.508,-0.066,-1.169,90.0,90.7,normal,D3
467,489.91,90.2,40.55777,-3.5133370000000004,0.001,-0.009,0.005,0.0069999999999999,-1.51,-0.061,-1.183,90.0,90.2,normal,D3
468,490.93,90.8,40.557896,-3.513582,-0.018,-0.009,-0.026,-0.008,-1.52,-0.075,-1.199,90.0,90.2,normal,D3
469,491.94,90.8,40.558033,-3.513815,-0.031,0.033,0.009,-0.001,-1.515,-0.078,-1.217,90.0,90.8,normal,D3
470,492.95,90.8,40.558174,-3.514046,-0.035,-0.016,-0.0139999999999999,-0.01,-1.521,-0.068,-1.229,90.0,90.8,normal,D3
471,493.91,90.1,40.558319,-3.514272,-0.053,-0.032,-0.019,-0.012,-1.521,-0.066,-1.239,90.0,90.1,normal,D3
472,494.94,90.9,40.558475,-3.5144910000000005,-0.008,0.017,-0.012,-0.004,-1.515,-0.066,-1.248,90.0,90.1,normal,D3
473,495.93,90.1,40.55864,-3.514697,-0.011,0.019,0.0069999999999999,0.006,-1.5119999999999998,-0.07,-1.26,90.0,90.1,normal,D3
474,496.91,89.4,40.558804,-3.5148870000000003,-0.084,0.009,-0.002,0.006,-1.503,-0.081,-1.277,90.0,88.8,normal,D3
475,497.93,88.8,40.558975,-3.5150690000000004,-0.03,-0.02,-0.006,-0.001,-1.525,-0.078,-1.285,90.0,88.8,normal,D3
476,498.96,88.1,40.559147,-3.515238,-0.06,-0.03,-0.0139999999999999,-0.006,-1.514,-0.077,-1.294,90.0,88.8,normal,D3
477,499.97,86.5,40.559322,-3.515406,0.004,-0.034,-0.001,-0.013,-1.507,-0.055,-1.29,100.0,86.5,normal,D3
478,500.96,86.8,40.559505,-3.515562,0.053,0.005,0.006,-0.0069999999999999,-1.517,-0.072,-1.3030000000000002,100.0,86.5,normal,D3
479,501.92,86.9,40.559696,-3.51571,-0.02,0.034,0.003,0.01,-1.515,-0.072,-1.3119999999999998,100.0,86.9,normal,D3
480,502.92,86.6,40.559887,-3.5158480000000005,-0.018,0.012,0.033,0.023,-1.533,-0.063,-1.32,90.0,86.6,normal,D3
481,503.94,87.1,40.560089000000005,-3.515972,-0.001,0.039,0.025,0.009,-1.5219999999999998,-0.054,-1.329,90.0,86.6,normal,D3
482,504.96,87.4,40.560287,-3.5160980000000004,-0.017,-0.002,-0.016,0.005,-1.525,-0.062,-1.3430000000000002,90.0,86.6,normal,D3
483,505.93,87.8,40.560493,-3.516203,-0.035,0.006,-0.0289999999999999,-0.002,-1.53,-0.0559999999999999,-1.354,90.0,88.4,normal,D3
484,506.96,88.4,40.560699,-3.516308,-0.017,0.025,0.032,0.031,-1.539,-0.048,-1.358,90.0,88.4,normal,D3
485,507.95,89.8,40.560913,-3.516396,-0.01,0.0069999999999999,0.002,-0.02,-1.538,-0.055,-1.367,90.0,88.4,normal,D3
486,508.91,89.7,40.561134,-3.516475,-0.064,0.026,-0.033,-0.013,-1.513,-0.048,-1.37,100.0,89.7,normal,D3
487,509.96,87.7,40.561344,-3.516546,-0.018,0.034,0.015,0.03,-1.534,-0.069,-1.385,100.0,90.8,normal,D3
488,510.91,90.8,40.561569,-3.516604,-0.003,0.0139999999999999,0.034,0.0409999999999999,-1.5630000000000002,-0.088,-1.408,100.0,90.8,normal,D3
489,512.0,92.7,40.561798,-3.516657,0.032,-0.027,-0.022,-0.016,-1.57,-0.08,-1.42,100.0,92.7,normal,D3
490,512.93,93.1,40.562031,-3.516694,-0.0579999999999999,-0.018,-0.039,-0.02,-1.547,-0.07,-1.4169999999999998,100.0,92.7,normal,D3
491,513.91,93.0,40.562267,-3.516735,-0.064,-0.049,-0.024,-0.017,-1.526,-0.05,-1.403,100.0,93.0,normal,D3
492,514.91,93.2,40.562504,-3.516763,-0.0819999999999999,0.008,-0.011,-0.003,-1.521,-0.04,-1.385,100.0,93.0,normal,D3
493,515.92,93.2,40.562740000000005,-3.516792,-0.005,-0.046,-0.001,0.008,-1.515,-0.0139999999999999,-1.356,100.0,93.0,normal,D3
494,516.91,92.7,40.562965000000005,-3.516825,0.016,-0.013,0.008,0.0139999999999999,-1.528,0.006,-1.3159999999999998,100.0,93.0,normal,D3
495,518.03,92.9,40.563194,-3.51686,-0.046,0.034,-0.011,-0.0,-1.517,0.019,-1.278,100.0,93.0,normal,D3
496,518.91,93.3,40.563419,-3.516899,-0.002,0.002,-0.026,-0.003,-1.514,0.01,-1.252,100.0,93.0,normal,D3
497,519.92,93.0,40.563648,-3.516946,-0.006,-0.017,0.013,0.009,-1.504,0.019,-1.22,100.0,93.0,normal,D3
498,520.94,92.3,40.563873,-3.516993,-0.094,-0.035,-0.013,-0.011,-1.506,0.045,-1.179,100.0,93.0,normal,D3
499,521.91,91.8,40.564102,-3.5170510000000004,-0.025,0.037,0.005,0.004,-1.52,0.033,-1.15,100.0,93.0,normal,D3
500,522.92,91.2,40.564316,-3.517109,0.027,-0.003,0.009,-0.005,-1.526,0.048,-1.112,100.0,93.0,normal,D3
501,523.96,91.9,40.564537,-3.517185,-0.046,-0.0069999999999999,0.011,-0.004,-1.53,0.044,-1.084,100.0,93.0,normal,D3
502,524.92,91.5,40.564758000000005,-3.5172440000000003,0.059,0.047,0.023,0.015,-1.526,0.044,-1.061,100.0,87.9,normal,D3
503,525.95,90.9,40.564972,-3.5173300000000003,0.015,0.024,0.021,0.016,-1.537,0.015,-1.0490000000000002,100.0,87.9,normal,D3
504,526.93,90.5,40.565189,-3.517414,-0.013,0.011,-0.009,0.012,-1.544,0.017,-1.04,100.0,87.9,normal,D3
505,527.98,90.2,40.565411,-3.517499,-0.038,-0.006,0.0,-0.021,-1.557,0.025,-1.026,100.0,87.9,normal,D3
506,528.94,90.6,40.565628,-3.5175970000000003,0.023,0.011,0.0289999999999999,0.006,-1.558,0.025,-1.014,100.0,87.9,normal,D3
507,529.92,91.1,40.565834,-3.517702,-0.032,-0.004,-0.027,-0.011,-1.528,0.038,-1.0,100.0,87.9,normal,D3
508,530.95,89.9,40.566044,-3.517806,-0.133,0.02,0.012,0.005,-1.5419999999999998,0.036,-0.985,100.0,87.9,normal,D3
509,531.92,89.6,40.56625,-3.517919,-0.008,0.002,0.017,-0.002,-1.541,0.04,-0.973,100.0,87.9,normal,D3
510,532.92,88.7,40.56646,-3.5180260000000003,-0.031,0.0139999999999999,0.004,-0.005,-1.534,0.031,-0.971,100.0,87.9,normal,D3
511,533.92,87.9,40.566666,-3.518142,0.047,-0.019,0.018,0.02,-1.541,0.023,-0.966,100.0,87.9,normal,D3
512,534.98,87.7,40.566864,-3.518266000000001,-0.065,0.022,0.0289999999999999,0.016,-1.538,0.034,-0.957,100.0,87.9,normal,D3
513,535.94,87.5,40.567055,-3.518389,-0.054,0.005,0.009,0.01,-1.544,0.032,-0.951,90.0,87.5,normal,D3
514,536.92,86.5,40.567245,-3.518522,-0.038,-0.005,0.022,0.017,-1.531,0.031,-0.948,90.0,86.5,normal,D3
515,537.93,84.8,40.567432,-3.51866,0.001,-0.018,0.015,0.005,-1.539,0.03,-0.949,90.0,86.5,normal,D3
516,539.02,83.8,40.567612,-3.51879,0.031,-0.001,-0.005,0.012,-1.547,0.037,-0.941,90.0,83.8,normal,D3
517,539.98,84.4,40.567802,-3.5189220000000003,-0.017,0.008,0.0279999999999999,0.009,-1.546,0.03,-0.938,90.0,83.8,normal,D3
518,540.92,83.4,40.567982,-3.519074,0.04,0.009,-0.012,-0.022,-1.56,0.034,-0.935,90.0,83.4,normal,D3
519,541.93,82.8,40.568153,-3.519225,0.021,0.008,0.01,0.0069999999999999,-1.569,0.023,-0.935,90.0,82.8,normal,D3
520,542.94,81.3,40.568321000000005,-3.519375,0.025,0.017,0.023,0.006,-1.5719999999999998,0.011,-0.933,90.0,82.8,normal,D3
521,543.93,81.5,40.568493,-3.5195220000000003,-0.0409999999999999,-0.016,0.03,0.025,-1.575,0.011,-0.934,90.0,82.1,normal,D3
522,544.94,82.1,40.568665,-3.519678,-0.035,-0.0069999999999999,-0.002,0.004,-1.585,0.0139999999999999,-0.933,90.0,82.1,normal,D3
523,545.93,82.8,40.568829,-3.519839,0.066,-0.025,0.017,0.002,-1.578,0.027,-0.93,90.0,82.1,normal,D3
524,546.93,82.5,40.568989,-3.520011,-0.0,0.002,-0.034,-0.012,-1.579,0.023,-0.929,90.0,82.5,normal,D3
525,547.93,82.8,40.569145,-3.520193,0.042,-0.005,0.005,0.02,-1.565,0.033,-0.93,90.0,82.5,normal,D3
