,Timestamp (seconds),Speed (km/h),Latitude coordinate (degrees),Longitude coordinate (degrees),Acceleration in X (Gs),Acceleration in Y (Gs),Acceleration in Z (Gs),Acceleration in Z filtered by KF (Gs),Roll (degrees),Pitch (degrees),Yaw (degrees),Maximum allowed speed of current road (km/h),GPS speed (km/h) [same as in RAW GPS]],class,Driver
0,21.5,0.0,40.518185,-3.409276,-0.003,0.017,0.005,0.004,-1.5630000000000002,0.023,0.021,100.0,83.8,normal,D4
1,22.53,82.3,40.518341,-3.409413,-0.003,-0.001,-0.012,-0.002,-1.5730000000000002,0.03,0.019,100.0,83.8,normal,D4
2,23.53,84.2,40.518494,-3.409551,-0.034,0.0069999999999999,0.008,0.009,-1.567,0.032,0.019,100.0,83.8,normal,D4
3,24.5,84.3,40.518654,-3.409704,-0.032,-0.019,-0.024,-0.005,-1.568,0.031,0.021,100.0,83.8,normal,D4
4,25.5,84.3,40.518829,-3.409868,-0.079,0.043,-0.0069999999999999,-0.025,-1.564,0.027,0.018,100.0,83.8,normal,D4
5,26.5,84.5,40.519009,-3.410038,-0.02,-0.0409999999999999,-0.022,-0.0139999999999999,-1.554,0.019,0.015,100.0,83.8,normal,D4
6,27.56,83.8,40.519184,-3.410199,-0.017,0.033,-0.011,0.0,-1.527,0.015,0.011,100.0,83.8,normal,D4
7,28.48,82.5,40.519352000000005,-3.410354,0.0069999999999999,-0.02,0.039,0.04,-1.541,0.009,0.0,100.0,80.5,normal,D4
8,29.5,80.5,40.519508,-3.410501,-0.057,-0.016,0.019,0.016,-1.5590000000000002,0.025,0.004,100.0,80.5,normal,D4
9,30.5,84.7,40.519688,-3.4106690000000004,0.026,-0.017,0.013,0.017,-1.5719999999999998,0.027,0.01,100.0,82.4,normal,D4
10,31.5,82.4,40.519852,-3.410825,-0.022,-0.0279999999999999,-0.012,-0.009,-1.58,0.03,0.0139999999999999,100.0,82.4,normal,D4
11,32.49,82.8,40.52002,-3.4109800000000003,-0.02,0.027,-0.032,-0.012,-1.587,0.027,0.015,100.0,83.7,normal,D4
12,33.5,83.7,40.520191,-3.411134,-0.023,-0.023,0.0139999999999999,-0.016,-1.59,0.002,0.002,100.0,83.7,normal,D4
13,34.49,84.6,40.520363,-3.411289,-0.088,-0.032,-0.0069999999999999,-0.0069999999999999,-1.582,0.017,0.002,100.0,83.7,normal,D4
14,35.51,85.3,40.520538,-3.411452,0.113,-0.022,-0.022,-0.0069999999999999,-1.5759999999999998,0.03,0.003,100.0,86.8,normal,D4
15,36.5,86.2,40.520714,-3.411617,-0.031,-0.0,-0.0069999999999999,0.008,-1.586,0.0289999999999999,0.004,100.0,86.8,normal,D4
16,37.51,86.8,40.520889,-3.411779,-0.016,-0.054,0.004,0.002,-1.575,0.031,0.005,100.0,86.8,normal,D4
17,38.53,87.5,40.521069,-3.411946,-0.074,-0.001,-0.013,-0.023,-1.579,0.025,0.003,100.0,87.7,normal,D4
18,39.49,87.4,40.521244,-3.412113,0.043,-0.048,0.037,0.01,-1.587,0.0279999999999999,0.003,100.0,87.7,normal,D4
19,40.51,87.7,40.521423,-3.412281,0.006,-0.002,0.016,0.017,-1.584,0.027,0.001,100.0,87.7,normal,D4
20,41.48,88.2,40.521599,-3.4124449999999995,-0.049,0.01,-0.01,-0.003,-1.589,0.036,0.005,100.0,88.7,normal,D4
21,42.48,88.5,40.521778000000005,-3.412611,-0.074,0.0139999999999999,-0.026,-0.019,-1.59,0.04,0.009,100.0,88.7,normal,D4
22,43.54,88.7,40.521957,-3.412782,0.002,0.022,-0.011,0.004,-1.591,0.031,0.009,100.0,88.7,normal,D4
23,44.51,89.0,40.522137,-3.412954,-0.037,-0.032,0.022,0.017,-1.588,0.023,0.008,100.0,90.1,normal,D4
24,45.51,90.1,40.522324,-3.413128,0.009,-0.009,-0.0069999999999999,-0.002,-1.594,0.025,0.022,100.0,90.1,normal,D4
25,46.5,88.1,40.522499,-3.413295,-0.045,-0.035,0.016,0.011,-1.595,0.027,0.038,100.0,90.1,normal,D4
26,47.5,87.7,40.522671,-3.413468,0.011,-0.017,-0.0069999999999999,-0.004,-1.591,0.038,0.067,100.0,89.9,normal,D4
27,48.49,89.9,40.522846,-3.413646,0.026,-0.0139999999999999,-0.015,-0.004,-1.591,0.032,0.098,100.0,89.9,normal,D4
28,49.53,89.8,40.52301,-3.413834,-0.099,-0.062,-0.0139999999999999,0.008,-1.592,0.022,0.133,100.0,89.8,normal,D4
29,50.5,89.6,40.52317,-3.4140370000000004,0.063,0.004,-0.005,-0.016,-1.598,0.033,0.173,100.0,89.6,normal,D4
30,51.57,89.6,40.523335,-3.414246,-0.035,0.023,-0.004,0.004,-1.59,0.03,0.206,100.0,89.6,normal,D4
31,52.49,89.6,40.523491,-3.41446,0.013,0.022,-0.005,-0.017,-1.584,0.004,0.226,100.0,89.6,normal,D4
32,53.48,89.7,40.523636,-3.414681,-0.0,-0.004,0.065,0.026,-1.577,0.005,0.246,90.0,89.9,normal,D4
33,54.51,89.9,40.523785,-3.414909,0.065,0.011,-0.004,0.031,-1.577,0.021,0.273,90.0,89.9,normal,D4
34,55.55,90.3,40.523918,-3.415156,0.033,-0.033,0.036,0.027,-1.577,0.022,0.295,90.0,90.3,normal,D4
35,56.59,91.9,40.524178000000006,-3.415664,0.002,0.006,0.008,0.006,-1.5759999999999998,0.017,0.313,90.0,91.9,normal,D4
36,57.5,91.9,40.524178000000006,-3.415664,-0.004,0.004,0.01,0.016,-1.5830000000000002,0.025,0.332,90.0,91.9,normal,D4
37,58.49,92.1,40.524303,-3.415932,-0.057,0.01,-0.021,-0.003,-1.575,0.024,0.348,90.0,92.1,normal,D4
38,59.57,93.0,40.524429,-3.416215,-0.024,-0.008,0.01,0.001,-1.5730000000000002,0.018,0.359,100.0,93.0,normal,D4
39,60.48,93.4,40.52454,-3.416472,0.079,-0.006,-0.036,-0.027,-1.5659999999999998,0.024,0.373,100.0,95.5,normal,D4
40,61.5,95.5,40.524639,-3.416746,0.081,-0.0289999999999999,-0.0279999999999999,-0.023,-1.547,0.036,0.392,100.0,95.5,normal,D4
41,62.52,93.5,40.524734,-3.417025,0.043,0.023,-0.0,0.003,-1.523,0.03,0.397,100.0,93.1,normal,D4
42,63.49,93.1,40.524815,-3.417304,-0.177,-0.021,0.033,0.017,-1.5319999999999998,0.018,0.3879999999999999,100.0,93.1,normal,D4
43,64.5,94.3,40.524887,-3.417592,-0.094,0.02,-0.003,0.002,-1.548,0.016,0.381,100.0,94.3,normal,D4
44,65.49,97.1,40.524963,-3.417886,-0.0069999999999999,0.02,-0.001,-0.015,-1.541,0.015,0.363,100.0,96.3,normal,D4
45,66.49,96.3,40.52504,-3.41819,-0.018,-0.008,0.008,0.017,-1.551,0.0279999999999999,0.344,100.0,96.3,normal,D4
46,67.49,96.5,40.525105,-3.4184910000000004,0.001,0.027,-0.01,-0.018,-1.537,0.0139999999999999,0.307,80.0,96.5,normal,D4
47,68.5,97.6,40.525166,-3.418785,-0.039,-0.003,-0.044,-0.031,-1.518,0.022,0.2789999999999999,80.0,96.5,normal,D4
48,69.5,96.5,40.525242,-3.419089,0.03,0.022,0.0069999999999999,-0.012,-1.5019999999999998,0.031,0.244,80.0,96.5,normal,D4
49,70.54,94.7,40.525318,-3.419397,-0.018,0.0279999999999999,-0.0139999999999999,-0.018,-1.495,0.011,0.19,80.0,94.7,normal,D4
50,71.5,93.0,40.525387,-3.419682,-0.046,0.013,-0.009,-0.016,-1.496,0.001,0.138,80.0,93.6,normal,D4
51,72.5,93.6,40.525459000000005,-3.419973,0.006,-0.008,-0.009,-0.012,-1.5,-0.008,0.079,80.0,93.6,normal,D4
52,73.51,90.8,40.525543,-3.420257,0.002,-0.04,0.005,-0.013,-1.499,-0.033,0.018,80.0,90.8,normal,D4
53,74.56,89.1,40.525631,-3.420519,-0.0069999999999999,-0.06,-0.011,-0.002,-1.494,0.012,-0.008,80.0,89.1,normal,D4
54,75.49,87.6,40.525719,-3.420784,0.015,0.012,-0.0289999999999999,-0.025,-1.495,-0.002,-0.045,80.0,89.1,normal,D4
55,76.49,88.0,40.525814,-3.421036,-0.017,0.0139999999999999,0.023,0.02,-1.509,-0.031,-0.09,80.0,86.1,normal,D4
56,77.52,86.1,40.525921,-3.421279,0.0559999999999999,-0.016,0.02,0.021,-1.523,-0.048,-0.149,80.0,86.1,normal,D4
57,78.5,86.3,40.526024,-3.421522,-0.013,0.001,0.005,-0.011,-1.528,-0.0559999999999999,-0.201,100.0,86.4,normal,D4
58,79.58,86.0,40.526302,-3.4219980000000003,0.013,0.009,-0.017,-0.006,-1.53,-0.042,-0.237,100.0,86.4,normal,D4
59,80.48,86.0,40.526302,-3.4219980000000003,-0.049,-0.0409999999999999,-0.0,-0.004,-1.539,-0.039,-0.273,90.0,85.7,normal,D4
60,81.58,85.6,40.526573,-3.422426,-0.045,-0.0139999999999999,-0.0139999999999999,-0.01,-1.54,-0.033,-0.307,90.0,85.7,normal,D4
61,82.51,85.6,40.526573,-3.422426,-0.042,-0.017,0.0139999999999999,0.011,-1.539,-0.025,-0.336,90.0,85.6,normal,D4
62,83.5,85.8,40.526718,-3.422643,-0.026,-0.001,-0.016,-0.003,-1.541,-0.031,-0.367,90.0,85.6,normal,D4
63,84.5,86.2,40.526871,-3.422845,-0.022,-0.0289999999999999,-0.016,-0.017,-1.546,-0.03,-0.3939999999999999,90.0,86.2,normal,D4
64,85.5,87.3,40.527035,-3.4230370000000003,0.017,-0.008,0.011,0.006,-1.544,-0.033,-0.421,90.0,86.9,normal,D4
65,86.51,86.9,40.527203,-3.423213,0.022,0.002,0.0139999999999999,-0.006,-1.543,-0.033,-0.4479999999999999,90.0,86.9,normal,D4
66,87.5,87.3,40.527374,-3.423369,0.06,-0.022,-0.02,-0.011,-1.539,-0.036,-0.469,90.0,87.3,normal,D4
67,88.5,87.6,40.527569,-3.4235269999999995,-0.049,-0.006,-0.013,-0.0069999999999999,-1.53,-0.0289999999999999,-0.483,90.0,87.3,normal,D4
68,89.5,87.7,40.527756,-3.423677,-0.027,-0.03,-0.011,-0.021,-1.52,-0.036,-0.493,90.0,88.2,normal,D4
69,90.5,88.2,40.527946,-3.4238160000000004,0.002,-0.0409999999999999,0.013,0.02,-1.535,-0.018,-0.486,90.0,88.2,normal,D4
70,91.5,87.6,40.528145,-3.423953,-0.005,-0.05,0.027,0.0139999999999999,-1.54,-0.0139999999999999,-0.472,90.0,87.6,normal,D4
71,92.5,89.9,40.528339,-3.424087,-0.025,-0.008,0.027,0.0279999999999999,-1.557,-0.012,-0.456,90.0,87.6,normal,D4
72,93.52,90.0,40.528542,-3.4242230000000005,0.008,-0.031,0.03,0.033,-1.57,-0.025,-0.436,90.0,91.5,normal,D4
73,94.55,91.5,40.528751,-3.424351,-0.027,-0.031,-0.018,-0.0,-1.56,-0.017,-0.408,90.0,91.5,normal,D4
74,95.5,92.8,40.52895,-3.424484,0.006,-0.018,-0.001,-0.0139999999999999,-1.531,-0.011,-0.381,90.0,92.8,normal,D4
75,96.51,92.9,40.529167,-3.424628,0.109,-0.005,-0.03,-0.003,-1.5219999999999998,-0.0069999999999999,-0.342,90.0,92.9,normal,D4
76,97.51,91.4,40.529362,-3.4247650000000003,-0.067,-0.0139999999999999,-0.07,-0.042,-1.497,0.005,-0.304,90.0,91.4,normal,D4
77,98.49,89.5,40.52956,-3.424899,-0.0559999999999999,0.026,-0.015,-0.019,-1.496,0.01,-0.266,90.0,91.2,normal,D4
78,99.49,91.2,40.529758,-3.425044,0.048,-0.023,0.021,-0.002,-1.495,0.015,-0.231,90.0,91.2,normal,D4
79,100.49,86.7,40.529945,-3.425193,-0.048,-0.048,0.0069999999999999,-0.008,-1.481,0.042,-0.184,90.0,85.9,normal,D4
80,101.51,85.9,40.530128000000005,-3.425339,0.018,0.063,0.066,0.064,-1.506,0.02,-0.147,90.0,85.9,normal,D4
81,102.52,86.5,40.530312,-3.425496,0.021,0.018,0.032,0.021,-1.543,0.009,-0.1159999999999999,90.0,86.2,normal,D4
82,103.53,86.2,40.530483,-3.42566,-0.05,0.008,-0.042,-0.016,-1.543,0.013,-0.075,90.0,86.2,normal,D4
83,104.49,87.3,40.530655,-3.425821,0.001,0.02,-0.04,-0.046,-1.523,0.016,-0.037,90.0,87.3,normal,D4
84,105.54,86.8,40.530823,-3.425985,-0.052,0.022,-0.025,-0.013,-1.501,0.006,-0.009,90.0,85.3,normal,D4
85,106.52,85.3,40.530991,-3.42616,-0.042,-0.004,0.0279999999999999,0.012,-1.505,0.0,0.016,90.0,85.3,normal,D4
86,107.6,84.0,40.5313,-3.426524,-0.033,0.0139999999999999,0.042,0.051,-1.544,0.002,0.039,90.0,83.3,normal,D4
87,108.59,85.6,40.531452,-3.426721,-0.027,0.016,0.0139999999999999,0.016,-1.556,0.0069999999999999,0.061,90.0,84.0,normal,D4
88,109.52,85.6,40.531452,-3.426721,-0.036,0.024,-0.023,-0.011,-1.5530000000000002,0.016,0.081,90.0,85.6,normal,D4
89,110.5,85.5,40.531597,-3.4269260000000004,-0.034,0.017,0.03,0.012,-1.545,-0.0069999999999999,0.093,90.0,85.5,normal,D4
90,111.48,86.2,40.53175,-3.4271230000000004,-0.036,0.006,0.025,0.005,-1.557,0.0,0.109,90.0,86.2,normal,D4
91,112.48,84.7,40.531887,-3.4273260000000003,0.003,0.009,-0.002,0.0069999999999999,-1.5659999999999998,0.006,0.127,90.0,84.7,normal,D4
92,113.48,85.0,40.532024,-3.427537,-0.038,0.009,-0.005,-0.005,-1.5759999999999998,0.001,0.142,90.0,85.0,normal,D4
93,114.48,84.9,40.532154,-3.427756,-0.018,-0.016,0.048,0.032,-1.574,-0.003,0.152,90.0,84.9,normal,D4
94,115.48,84.4,40.532284,-3.42798,0.026,0.004,0.018,0.01,-1.5759999999999998,-0.005,0.163,90.0,84.9,normal,D4
95,116.51,85.3,40.53241,-3.428208,-0.024,0.016,-0.015,-0.006,-1.587,-0.001,0.176,90.0,85.3,normal,D4
96,117.51,84.8,40.532536,-3.42844,0.002,-0.003,0.019,0.0139999999999999,-1.587,-0.008,0.186,90.0,83.9,normal,D4
97,118.5,83.9,40.53265,-3.428666,-0.044,-0.018,0.0139999999999999,0.011,-1.584,-0.003,0.1969999999999999,90.0,83.9,normal,D4
98,119.57,83.4,40.532856,-3.429135,-0.031,-0.004,-0.0069999999999999,-0.0069999999999999,-1.591,-0.0139999999999999,0.203,90.0,83.4,normal,D4
99,120.5,83.4,40.532856,-3.429135,-0.006,-0.0,0.006,0.005,-1.592,0.002,0.218,90.0,84.0,normal,D4
100,121.52,84.0,40.532955,-3.4293720000000003,0.013,0.002,0.005,0.009,-1.595,0.005,0.23,90.0,84.0,normal,D4
101,122.52,82.8,40.533051,-3.42962,-0.002,0.034,-0.031,-0.001,-1.598,0.003,0.2339999999999999,90.0,82.3,normal,D4
102,123.53,83.0,40.533138,-3.429871,-0.009,0.005,0.005,0.0,-1.597,-0.001,0.241,90.0,82.3,normal,D4
103,124.49,82.3,40.533222,-3.430131,-0.0279999999999999,-0.006,-0.021,-0.026,-1.588,-0.006,0.246,90.0,82.3,normal,D4
104,125.49,81.6,40.533295,-3.4303800000000004,-0.046,0.019,-0.017,0.003,-1.595,-0.0139999999999999,0.247,90.0,81.6,normal,D4
105,126.48,81.0,40.533367,-3.430636,0.02,-0.0289999999999999,-0.018,-0.003,-1.596,-0.006,0.252,90.0,81.6,normal,D4
106,127.49,80.4,40.533436,-3.430887,-0.017,-0.0069999999999999,0.016,0.005,-1.599,-0.003,0.257,90.0,80.1,normal,D4
107,128.48,80.1,40.533489,-3.431133,-0.0409999999999999,0.02,-0.003,-0.009,-1.594,-0.005,0.259,90.0,80.1,normal,D4
108,129.5,80.1,40.533546,-3.431369,-0.023,0.022,0.001,-0.001,-1.599,-0.013,0.257,90.0,80.1,normal,D4
109,130.5,80.2,40.533611,-3.431632,0.021,-0.002,-0.003,0.0139999999999999,-1.602,-0.013,0.255,90.0,80.1,normal,D4
110,131.51,78.5,40.533661,-3.431886,-0.005,0.021,-0.019,-0.003,-1.602,-0.015,0.259,90.0,80.1,normal,D4
111,132.49,80.1,40.533703,-3.4321370000000004,0.039,0.008,-0.0,-0.001,-1.6030000000000002,-0.004,0.263,90.0,80.1,normal,D4
112,133.5,79.1,40.533741,-3.432393,-0.0289999999999999,0.001,0.013,0.005,-1.597,-0.004,0.262,90.0,78.7,normal,D4
113,134.5,78.7,40.533768,-3.432647,0.032,0.001,-0.013,-0.005,-1.594,0.002,0.262,90.0,78.7,normal,D4
114,135.53,79.5,40.533794,-3.4329089999999995,0.0579999999999999,0.011,0.006,-0.006,-1.597,-0.012,0.261,90.0,78.7,normal,D4
115,136.49,79.2,40.533825,-3.4331730000000005,0.019,0.024,-0.039,-0.009,-1.601,-0.015,0.255,90.0,78.7,normal,D4
116,137.5,78.8,40.533840000000005,-3.4334300000000004,-0.061,-0.0289999999999999,0.0,0.002,-1.596,-0.005,0.25,90.0,78.7,normal,D4
117,138.5,78.6,40.533855,-3.4336900000000004,-0.073,-0.0,0.003,-0.005,-1.6,0.001,0.249,90.0,78.6,normal,D4
118,139.5,78.6,40.533867,-3.4339480000000004,0.018,0.005,0.026,-0.002,-1.597,0.006,0.244,90.0,78.6,normal,D4
119,140.5,76.9,40.533867,-3.4341980000000003,0.0069999999999999,0.017,0.002,0.005,-1.598,0.002,0.235,90.0,78.6,normal,D4
120,141.5,78.6,40.533875,-3.434453,0.0289999999999999,0.001,0.008,-0.0,-1.6,0.002,0.221,90.0,78.6,normal,D4
121,142.55,78.5,40.533878,-3.434705,-0.008,0.012,0.0,-0.006,-1.604,-0.004,0.204,90.0,78.6,normal,D4
122,143.49,78.6,40.533878,-3.43496,-0.022,-0.002,-0.013,-0.005,-1.607,-0.0,0.188,90.0,78.2,normal,D4
123,144.53,78.2,40.533886,-3.435223,-0.015,-0.016,-0.003,-0.003,-1.601,0.009,0.171,90.0,78.2,normal,D4
124,145.58,77.5,40.53389,-3.435749,0.02,0.019,0.003,-0.002,-1.5930000000000002,0.009,0.152,90.0,77.5,normal,D4
125,146.5,77.5,40.53389,-3.435749,-0.017,-0.012,-0.008,-0.0069999999999999,-1.594,0.024,0.147,90.0,77.5,normal,D4
126,147.56,78.0,40.533886,-3.435999,-0.0559999999999999,-0.006,-0.01,0.006,-1.595,0.023,0.132,90.0,77.5,normal,D4
127,148.58,77.5,40.533878,-3.4365080000000003,0.02,0.01,0.0139999999999999,0.01,-1.598,0.02,0.118,90.0,77.5,normal,D4
128,149.51,77.5,40.533878,-3.4365080000000003,0.02,-0.009,0.015,0.002,-1.599,0.017,0.104,90.0,77.5,normal,D4
129,150.5,75.9,40.533882,-3.43677,0.001,0.0069999999999999,0.001,0.003,-1.604,0.012,0.092,90.0,77.5,normal,D4
130,151.5,77.8,40.533875,-3.4370160000000003,-0.0279999999999999,-0.034,-0.011,-0.013,-1.601,0.023,0.084,90.0,77.5,normal,D4
131,152.5,78.3,40.533878,-3.43726,0.013,-0.012,0.012,-0.004,-1.609,0.018,0.073,90.0,77.5,normal,D4
132,153.5,78.0,40.533882,-3.437517,-0.0139999999999999,-0.011,-0.011,-0.003,-1.61,0.026,0.067,90.0,77.5,normal,D4
133,154.52,78.8,40.533878,-3.437774,0.01,-0.006,0.003,-0.006,-1.606,0.0279999999999999,0.066,90.0,81.2,normal,D4
134,155.51,78.5,40.533878,-3.4380370000000005,0.001,0.004,0.015,0.005,-1.604,0.016,0.057,90.0,81.2,normal,D4
135,156.52,78.4,40.533878,-3.438289,-0.047,-0.0139999999999999,0.003,-0.006,-1.601,0.015,0.05,90.0,81.2,normal,D4
136,157.53,77.6,40.533878,-3.438546,0.0,0.0069999999999999,0.013,0.005,-1.6,0.021,0.048,90.0,81.2,normal,D4
137,158.49,78.0,40.533875,-3.438801,0.0289999999999999,-0.001,-0.011,0.0069999999999999,-1.598,0.019,0.048,90.0,81.2,normal,D4
138,159.5,79.3,40.533875,-3.439059,-0.003,0.0,-0.01,-0.005,-1.604,0.006,0.039,90.0,81.2,normal,D4
139,160.56,81.2,40.533867,-3.43959,-0.0279999999999999,-0.0409999999999999,-0.003,0.003,-1.605,0.017,0.037,90.0,81.2,normal,D4
140,161.51,81.2,40.533867,-3.43959,0.02,0.0,0.0069999999999999,0.006,-1.602,0.018,0.037,90.0,81.2,normal,D4
141,162.51,81.3,40.533875,-3.439853,0.0139999999999999,-0.008,-0.019,0.01,-1.594,0.025,0.038,90.0,81.3,normal,D4
142,163.56,82.1,40.533875,-3.440131,-0.027,-0.008,-0.006,-0.002,-1.6,0.023,0.038,90.0,83.6,normal,D4
143,164.51,83.6,40.533878,-3.440405,-0.01,-0.018,0.021,0.012,-1.595,0.021,0.036,90.0,83.6,normal,D4
144,165.58,85.0,40.533886,-3.440968,-0.044,0.024,0.033,0.017,-1.588,0.0279999999999999,0.036,90.0,87.2,normal,D4
145,166.55,85.0,40.533886,-3.440968,-0.022,0.0069999999999999,-0.018,-0.016,-1.581,0.017,0.032,90.0,87.2,normal,D4
146,167.5,87.2,40.533871000000005,-3.441246,-0.026,-0.003,-0.026,-0.033,-1.558,0.025,0.033,90.0,87.5,normal,D4
147,168.5,87.5,40.533867,-3.441529,0.006,0.009,-0.0409999999999999,-0.047,-1.529,0.026,0.034,90.0,87.5,normal,D4
148,169.52,86.1,40.533867,-3.441814,0.004,-0.002,0.0279999999999999,0.038,-1.548,0.025,0.037,90.0,86.1,normal,D4
149,170.5,85.8,40.533859,-3.442093,-0.051,-0.0069999999999999,0.002,-0.004,-1.543,0.032,0.0409999999999999,90.0,85.8,normal,D4
150,171.54,85.6,40.533859,-3.442381,0.0069999999999999,-0.049,-0.03,-0.045,-1.525,0.0279999999999999,0.0409999999999999,90.0,86.3,normal,D4
151,172.52,86.3,40.533855,-3.442681,0.002,0.002,-0.035,-0.019,-1.508,0.022,0.042,90.0,86.3,normal,D4
152,173.54,84.9,40.533852,-3.44296,-0.015,0.004,0.025,-0.001,-1.4980000000000002,0.024,0.043,90.0,86.3,normal,D4
153,174.48,84.7,40.533844,-3.443235,0.005,0.015,0.0069999999999999,0.021,-1.518,0.016,0.04,90.0,86.3,normal,D4
154,175.49,82.7,40.533852,-3.443508,-0.004,-0.023,-0.0,0.009,-1.55,0.018,0.039,90.0,86.3,normal,D4
155,176.49,83.0,40.533840000000005,-3.443773,-0.043,-0.01,-0.009,-0.009,-1.556,0.026,0.042,90.0,86.3,normal,D4
156,177.49,83.7,40.533844,-3.444038,0.009,0.021,-0.013,-0.011,-1.557,0.024,0.04,90.0,86.3,normal,D4
157,178.51,83.6,40.533836,-3.4443080000000004,0.01,-0.013,-0.01,-0.0139999999999999,-1.547,0.025,0.037,90.0,87.9,normal,D4
158,179.49,83.8,40.533833,-3.444586,-0.022,0.012,-0.019,-0.026,-1.539,0.024,0.037,90.0,87.9,normal,D4
159,180.52,85.3,40.533825,-3.444865,0.02,0.018,-0.017,-0.017,-1.535,0.017,0.033,90.0,87.9,normal,D4
160,181.49,84.7,40.533833,-3.445152,0.033,-0.01,0.024,0.034,-1.548,0.013,0.0279999999999999,90.0,87.9,normal,D4
161,182.56,85.9,40.533833,-3.445435,-0.001,-0.005,-0.022,-0.008,-1.548,0.022,0.031,90.0,87.9,normal,D4
162,183.51,85.9,40.533836,-3.4457160000000004,0.035,-0.003,0.038,0.047,-1.551,0.022,0.033,90.0,87.9,normal,D4
163,184.51,86.1,40.533840000000005,-3.446,-0.026,-0.012,-0.018,-0.0069999999999999,-1.57,0.021,0.037,90.0,87.9,normal,D4
164,185.51,87.9,40.533836,-3.446286,0.006,-0.018,-0.004,-0.002,-1.584,0.023,0.04,90.0,87.9,normal,D4
165,186.49,89.7,40.533840000000005,-3.446562,-0.0069999999999999,-0.001,-0.04,-0.022,-1.5719999999999998,0.023,0.0409999999999999,90.0,89.7,normal,D4
166,187.5,90.6,40.533836,-3.446858,0.005,-0.01,-0.043,-0.0409999999999999,-1.536,0.018,0.039,90.0,90.6,normal,D4
167,188.5,90.5,40.533833,-3.4471580000000004,0.016,0.008,-0.013,-0.02,-1.518,0.024,0.039,90.0,90.5,normal,D4
168,189.6,87.8,40.533817,-3.447744,-0.06,-0.0289999999999999,-0.006,-0.021,-1.509,0.025,0.0409999999999999,90.0,89.1,normal,D4
169,190.49,87.8,40.533817,-3.447744,0.015,0.02,0.001,0.004,-1.505,0.024,0.044,90.0,89.1,normal,D4
170,191.57,87.3,40.533821,-3.448029,-0.085,-0.002,-0.035,-0.015,-1.5,0.022,0.043,90.0,86.1,normal,D4
171,192.5,86.1,40.533821,-3.448319,0.011,0.013,0.04,0.031,-1.518,0.017,0.042,90.0,86.1,normal,D4
172,193.58,86.8,40.533825,-3.44889,-0.0559999999999999,-0.0139999999999999,0.025,0.033,-1.54,0.015,0.038,90.0,86.8,normal,D4
173,194.5,86.8,40.533825,-3.44889,0.013,-0.024,-0.002,0.008,-1.551,0.024,0.042,90.0,86.8,normal,D4
174,195.5,88.4,40.533825,-3.44918,-0.026,0.011,-0.009,-0.016,-1.546,0.013,0.043,90.0,87.9,normal,D4
175,196.49,87.9,40.533825,-3.449461,-0.066,0.009,-0.004,-0.022,-1.546,0.023,0.042,90.0,87.9,normal,D4
176,197.5,87.4,40.533821,-3.4497440000000004,-0.0139999999999999,-0.033,-0.043,-0.0289999999999999,-1.528,0.012,0.039,90.0,87.4,normal,D4
177,198.5,88.4,40.533829,-3.450051,0.009,-0.001,0.015,0.026,-1.536,0.02,0.042,90.0,87.4,normal,D4
178,199.5,87.5,40.533825,-3.4503410000000003,-0.009,0.004,-0.002,-0.002,-1.5419999999999998,0.031,0.045,90.0,87.5,normal,D4
179,200.5,87.6,40.533817,-3.450639,-0.0279999999999999,0.001,0.006,0.0279999999999999,-1.56,0.022,0.045,90.0,87.5,normal,D4
180,201.5,88.5,40.533817,-3.450921,-0.074,-0.013,-0.049,-0.026,-1.5659999999999998,0.019,0.045,90.0,90.0,normal,D4
181,202.52,90.0,40.533806,-3.4512120000000004,0.031,-0.0139999999999999,-0.031,-0.031,-1.546,0.018,0.045,90.0,90.0,normal,D4
182,203.51,89.1,40.533806,-3.451507,-0.031,0.005,0.01,-0.013,-1.534,0.019,0.043,90.0,90.4,normal,D4
183,204.5,90.4,40.53381,-3.451805,0.01,0.004,-0.0139999999999999,-0.01,-1.539,0.02,0.042,90.0,90.4,normal,D4
184,205.54,89.9,40.533813,-3.4521040000000003,0.0139999999999999,-0.02,0.0,-0.018,-1.536,0.024,0.042,90.0,89.6,normal,D4
185,206.5,89.6,40.53381,-3.4523980000000005,-0.026,0.006,-0.003,-0.004,-1.538,0.02,0.0409999999999999,90.0,89.6,normal,D4
186,207.49,89.6,40.53381,-3.452694,-0.012,-0.005,-0.01,-0.011,-1.537,0.023,0.039,90.0,89.6,normal,D4
187,208.51,89.5,40.533806,-3.4529940000000003,-0.038,0.012,0.016,-0.013,-1.528,0.019,0.038,90.0,89.6,normal,D4
188,209.54,89.4,40.53381,-3.453285,0.0139999999999999,-0.01,-0.012,-0.02,-1.529,0.02,0.037,90.0,89.6,normal,D4
189,210.54,89.0,40.533806,-3.453581,0.05,-0.016,-0.0289999999999999,-0.032,-1.536,0.016,0.036,90.0,85.3,normal,D4
190,211.58,87.7,40.533806,-3.453871,-0.017,-0.024,-0.011,-0.024,-1.524,0.019,0.036,90.0,85.3,normal,D4
191,212.49,86.9,40.533806,-3.4541480000000004,-0.035,-0.026,-0.026,-0.032,-1.508,0.011,0.036,90.0,85.3,normal,D4
192,213.48,85.3,40.533806,-3.454425,-0.069,-0.01,0.024,0.008,-1.495,0.012,0.035,90.0,85.3,normal,D4
193,214.5,84.3,40.53381,-3.454703,0.018,0.002,-0.004,-0.002,-1.494,0.006,0.035,90.0,85.3,normal,D4
194,215.49,83.7,40.533813,-3.4549830000000004,-0.015,0.006,0.0139999999999999,0.01,-1.501,0.013,0.034,90.0,82.5,normal,D4
195,216.48,84.1,40.53381,-3.455261,-0.011,-0.0,0.018,0.016,-1.508,0.006,0.032,90.0,82.5,normal,D4
196,217.51,82.5,40.533794,-3.455534,-0.011,-0.017,0.003,0.009,-1.53,0.013,0.031,90.0,82.5,normal,D4
197,218.5,82.1,40.533791,-3.4558150000000003,0.01,0.005,0.0069999999999999,0.002,-1.541,0.016,0.031,90.0,81.0,normal,D4
198,219.51,81.0,40.533775,-3.456062,0.006,-0.009,0.027,0.0139999999999999,-1.558,0.021,0.032,90.0,81.0,normal,D4
199,220.49,81.3,40.533783,-3.45632,-0.005,-0.008,0.009,0.0069999999999999,-1.561,0.024,0.037,90.0,83.7,normal,D4
200,221.51,82.2,40.533787,-3.4565839999999994,-0.046,0.001,0.037,0.024,-1.5719999999999998,0.031,0.04,90.0,83.7,normal,D4
201,222.52,83.7,40.533787,-3.456861,-0.0279999999999999,0.0069999999999999,-0.013,-0.01,-1.564,0.024,0.0409999999999999,90.0,83.7,normal,D4
202,223.51,84.5,40.533791,-3.4571300000000003,-0.052,-0.0139999999999999,-0.039,-0.036,-1.551,0.011,0.037,90.0,84.5,normal,D4
203,224.51,84.5,40.533802,-3.457412,-0.024,-0.011,-0.006,-0.018,-1.536,0.0139999999999999,0.033,90.0,84.5,normal,D4
204,225.51,83.3,40.533783,-3.4576860000000003,-0.047,0.008,-0.009,-0.015,-1.528,0.017,0.036,90.0,82.3,normal,D4
205,226.48,82.3,40.533783,-3.457945,-0.011,-0.009,-0.001,-0.005,-1.5219999999999998,0.017,0.033,90.0,82.3,normal,D4
206,227.52,81.1,40.533768,-3.45821,-0.01,0.024,-0.005,0.002,-1.521,0.02,0.031,90.0,81.1,normal,D4
207,228.48,79.8,40.533764,-3.458469,-0.027,0.011,0.023,-0.01,-1.517,0.025,0.032,90.0,79.8,normal,D4
208,229.48,78.4,40.533764,-3.458729,-0.006,0.011,-0.005,-0.012,-1.521,0.018,0.031,90.0,78.4,normal,D4
209,230.48,76.8,40.53376,-3.458985,-0.0139999999999999,0.001,0.01,0.011,-1.535,0.022,0.03,90.0,76.8,normal,D4
210,231.49,75.9,40.533756,-3.459226,-0.004,-0.005,-0.034,0.01,-1.5419999999999998,0.026,0.03,90.0,75.9,normal,D4
211,232.49,75.5,40.533756,-3.459475,0.091,0.0139999999999999,0.05,0.077,-1.5519999999999998,0.0289999999999999,0.031,90.0,75.5,normal,D4
212,233.59,76.1,40.533756,-3.459977,0.003,-0.005,0.024,0.026,-1.5590000000000002,0.022,0.0279999999999999,90.0,75.4,normal,D4
213,234.52,76.1,40.533756,-3.459977,-0.036,-0.004,0.001,-0.001,-1.5759999999999998,0.018,0.0279999999999999,90.0,76.1,normal,D4
214,235.49,76.9,40.533756,-3.460234,-0.03,-0.003,0.025,0.016,-1.592,0.015,0.03,90.0,78.7,normal,D4
215,236.49,78.7,40.533737,-3.4604660000000003,-0.019,-0.015,-0.005,0.009,-1.594,0.02,0.034,90.0,78.7,normal,D4
216,237.48,79.5,40.533733000000005,-3.460724,-0.02,0.013,-0.02,-0.024,-1.585,0.025,0.038,90.0,79.5,normal,D4
217,238.49,80.1,40.533745,-3.460986,-0.016,-0.005,-0.002,-0.003,-1.574,0.017,0.031,90.0,80.2,normal,D4
218,239.5,80.2,40.533745,-3.461256,-0.011,0.001,0.0,-0.017,-1.554,0.023,0.0279999999999999,90.0,80.2,normal,D4
219,240.49,79.2,40.533745,-3.461519,-0.031,-0.015,-0.02,-0.008,-1.544,0.024,0.027,90.0,79.2,normal,D4
220,241.53,77.8,40.533741,-3.4617760000000004,-0.023,-0.006,0.034,0.03,-1.5590000000000002,0.02,0.0289999999999999,90.0,78.5,normal,D4
221,242.51,78.5,40.533745,-3.4620300000000004,-0.024,0.012,-0.011,-0.002,-1.569,0.022,0.033,90.0,78.5,normal,D4
222,243.5,77.8,40.533752,-3.462286,-0.03,0.021,-0.019,-0.009,-1.5759999999999998,0.017,0.03,90.0,77.8,normal,D4
223,244.5,78.9,40.533749,-3.462546,0.023,-0.011,0.042,0.012,-1.569,0.017,0.0289999999999999,90.0,78.9,normal,D4
224,245.5,79.0,40.533737,-3.462806,-0.01,-0.013,0.02,0.011,-1.568,0.02,0.0289999999999999,90.0,79.0,normal,D4
225,246.59,77.5,40.533737,-3.463308,-0.02,0.013,0.009,-0.002,-1.57,0.0289999999999999,0.035,90.0,77.5,normal,D4
226,247.49,77.5,40.533737,-3.463308,-0.026,0.019,-0.0069999999999999,-0.015,-1.5730000000000002,0.02,0.033,90.0,77.5,normal,D4
227,248.49,77.8,40.53373,-3.463565,-0.011,0.008,-0.019,-0.022,-1.5530000000000002,0.017,0.033,90.0,77.8,normal,D4
228,249.55,77.2,40.533737,-3.4638230000000005,-0.0279999999999999,-0.01,-0.044,-0.044,-1.539,0.027,0.036,90.0,77.2,normal,D4
229,250.49,75.7,40.533733000000005,-3.464068,-0.008,0.013,-0.0069999999999999,-0.018,-1.527,0.0289999999999999,0.034,90.0,75.7,normal,D4
230,251.49,73.8,40.53373,-3.464314,-0.0279999999999999,0.006,0.032,0.023,-1.519,0.036,0.0289999999999999,90.0,73.8,normal,D4
231,252.49,71.7,40.53373,-3.464556,-0.0289999999999999,0.011,0.043,0.044,-1.5519999999999998,0.05,0.036,90.0,71.7,normal,D4
232,253.49,72.1,40.533733000000005,-3.464783,0.019,0.039,0.004,-0.012,-1.546,0.035,0.023,90.0,71.7,normal,D4
233,254.49,72.0,40.533737,-3.4650190000000003,-0.046,0.031,0.033,0.025,-1.579,0.016,-0.01,90.0,72.4,normal,D4
234,255.5,72.4,40.533749,-3.465265,-0.0559999999999999,0.0069999999999999,0.0139999999999999,0.016,-1.594,0.006,-0.048,90.0,72.4,normal,D4
235,256.49,73.4,40.533764,-3.4655080000000003,-0.009,-0.015,-0.023,-0.023,-1.5759999999999998,0.013,-0.081,90.0,72.9,normal,D4
236,257.51,73.4,40.533794,-3.4657410000000004,-0.009,0.0289999999999999,-0.01,-0.016,-1.5590000000000002,0.009,-0.11,90.0,72.9,normal,D4
237,258.5,72.9,40.533817,-3.465974,0.004,-0.023,-0.0139999999999999,-0.02,-1.543,-0.002,-0.146,90.0,72.9,normal,D4
238,259.54,71.3,40.533852,-3.466186,-0.021,-0.044,0.047,0.02,-1.546,0.01,-0.17,90.0,71.3,normal,D4
239,260.5,69.8,40.533894,-3.466413,-0.042,0.015,0.026,0.023,-1.579,0.013,-0.187,90.0,69.8,normal,D4
240,261.6,70.1,40.533985,-3.4668660000000004,-0.0289999999999999,-0.0,-0.005,0.001,-1.5930000000000002,-0.008,-0.228,90.0,70.6,normal,D4
241,262.59,71.7,40.534046,-3.467085,-0.006,-0.002,0.025,0.016,-1.599,-0.011,-0.257,90.0,70.1,normal,D4
242,263.52,71.7,40.534046,-3.467085,-0.03,0.002,-0.01,-0.001,-1.595,-0.019,-0.287,90.0,71.7,normal,D4
243,264.49,73.2,40.534107,-3.467307,-0.011,-0.02,-0.013,0.001,-1.599,-0.0139999999999999,-0.31,90.0,74.6,normal,D4
244,265.54,74.6,40.534199,-3.4675300000000004,0.084,0.02,-0.033,-0.031,-1.588,-0.022,-0.336,90.0,75.6,normal,D4
245,266.51,75.6,40.534290000000006,-3.467737,-0.055,-0.008,-0.0289999999999999,-0.0139999999999999,-1.579,-0.018,-0.361,90.0,75.6,normal,D4
246,267.5,75.5,40.534386,-3.467956,0.033,-0.011,0.02,0.006,-1.582,-0.023,-0.381,90.0,75.1,normal,D4
247,268.5,75.1,40.534485,-3.4681610000000003,-0.016,-0.011,-0.065,-0.051,-1.5659999999999998,-0.017,-0.401,90.0,75.1,normal,D4
248,269.53,75.6,40.534592,-3.468371,-0.008,0.015,0.023,0.015,-1.5590000000000002,-0.016,-0.419,90.0,75.6,normal,D4
249,270.58,74.7,40.534821,-3.468768,-0.088,0.021,0.004,0.0139999999999999,-1.577,-0.022,-0.4429999999999999,90.0,73.4,normal,D4
250,271.51,74.7,40.534821,-3.468768,0.019,-0.004,0.005,-0.004,-1.592,-0.033,-0.4639999999999999,100.0,75.3,normal,D4
251,272.48,75.3,40.534939,-3.468958,-0.051,0.002,-0.002,-0.006,-1.597,-0.0279999999999999,-0.483,100.0,75.3,normal,D4
252,273.53,76.1,40.535069,-3.469135,0.0139999999999999,0.03,-0.018,-0.017,-1.591,-0.031,-0.503,100.0,76.5,normal,D4
253,274.53,76.5,40.53521,-3.469302,-0.0279999999999999,-0.012,0.021,-0.015,-1.5719999999999998,-0.027,-0.522,100.0,76.5,normal,D4
254,275.52,76.4,40.535355,-3.469469,0.0139999999999999,-0.025,-0.005,-0.004,-1.5630000000000002,-0.0069999999999999,-0.527,90.0,76.4,normal,D4
255,276.51,75.9,40.535503000000006,-3.469622,-0.033,-0.0139999999999999,0.039,0.0409999999999999,-1.592,0.001,-0.534,90.0,74.6,normal,D4
256,277.51,74.6,40.535641,-3.469763,0.008,-0.015,-0.018,0.002,-1.596,0.008,-0.53,90.0,74.6,normal,D4
257,278.58,78.3,40.535954,-3.470034,-0.011,0.023,0.002,0.01,-1.599,-0.018,-0.541,100.0,77.5,normal,D4
258,279.61,79.5,40.536129,-3.47016,0.006,0.024,0.0279999999999999,0.012,-1.601,-0.0409999999999999,-0.563,100.0,78.3,normal,D4
259,280.49,79.5,40.536129,-3.47016,-0.004,-0.013,-0.012,-0.0,-1.596,-0.046,-0.5820000000000001,100.0,79.5,normal,D4
260,281.58,81.0,40.536484,-3.470397,0.006,-0.001,0.005,0.004,-1.597,-0.035,-0.594,100.0,80.3,normal,D4
261,282.58,80.5,40.536674,-3.470499,-0.008,-0.006,-0.06,-0.0559999999999999,-1.596,-0.036,-0.609,100.0,81.0,normal,D4
262,283.48,80.5,40.536674,-3.470499,-0.0409999999999999,-0.036,0.001,-0.002,-1.601,-0.037,-0.619,100.0,79.6,normal,D4
263,284.61,82.7,40.53706,-3.470677,-0.021,-0.0139999999999999,-0.013,-0.01,-1.591,-0.023,-0.614,100.0,82.7,normal,D4
264,285.52,82.7,40.53706,-3.470677,-0.004,-0.053,-0.002,-0.018,-1.584,-0.013,-0.602,100.0,82.7,normal,D4
265,286.52,83.9,40.537258,-3.4707449999999995,-0.005,-0.033,0.018,0.0,-1.579,-0.006,-0.581,90.0,83.9,normal,D4
266,287.5,83.9,40.53746,-3.470824,0.015,-0.026,-0.023,-0.025,-1.571,0.002,-0.556,90.0,83.9,normal,D4
267,288.51,82.6,40.537663,-3.4708870000000003,0.009,-0.003,-0.04,-0.046,-1.538,0.01,-0.527,90.0,82.6,normal,D4
268,289.48,79.6,40.537857,-3.470937,-0.026,0.03,0.038,0.032,-1.544,0.0069999999999999,-0.503,90.0,79.8,normal,D4
269,290.49,79.8,40.538052,-3.47099,-0.039,-0.026,0.03,0.033,-1.57,0.006,-0.482,90.0,79.8,normal,D4
270,291.51,80.6,40.538242,-3.471047,0.033,0.002,-0.002,-0.005,-1.584,0.01,-0.4579999999999999,90.0,81.7,normal,D4
271,292.5,81.7,40.538441,-3.471105,-0.096,-0.019,0.031,0.01,-1.5830000000000002,0.021,-0.432,90.0,81.7,normal,D4
272,293.48,81.7,40.538639,-3.471169,-0.027,0.016,-0.01,-0.002,-1.587,0.023,-0.41,90.0,81.7,normal,D4
273,294.5,82.6,40.538834,-3.4712410000000005,0.076,-0.0069999999999999,0.006,0.026,-1.59,0.021,-0.3939999999999999,90.0,83.8,normal,D4
274,295.5,83.8,40.539043,-3.471311,-0.0139999999999999,0.024,0.009,-0.003,-1.588,0.017,-0.382,90.0,84.3,normal,D4
275,296.49,84.3,40.539246,-3.471378,-0.0139999999999999,-0.015,-0.011,-0.0069999999999999,-1.599,0.027,-0.365,90.0,84.3,normal,D4
276,297.57,85.8,40.539658,-3.471514,-0.025,0.026,-0.001,-0.0139999999999999,-1.596,0.025,-0.35,90.0,85.8,normal,D4
277,298.49,85.8,40.539658,-3.471514,0.0069999999999999,0.0,0.021,-0.015,-1.587,0.035,-0.3389999999999999,90.0,85.8,normal,D4
278,299.49,86.6,40.539871000000005,-3.4715870000000004,-0.008,-0.001,-0.032,-0.018,-1.5730000000000002,0.0279999999999999,-0.33,90.0,86.6,normal,D4
279,300.52,86.4,40.540081,-3.471657,-0.001,0.024,-0.026,-0.019,-1.5719999999999998,0.02,-0.3229999999999999,90.0,86.4,normal,D4
280,301.6,86.1,40.540493,-3.471795,-0.0139999999999999,0.003,-0.021,-0.021,-1.556,0.02,-0.314,90.0,85.2,normal,D4
281,302.49,86.1,40.540493,-3.471795,0.005,0.006,-0.0139999999999999,-0.003,-1.5490000000000002,0.021,-0.305,90.0,84.2,normal,D4
282,303.5,84.2,40.540695,-3.471859,-0.052,-0.005,0.01,0.021,-1.564,0.017,-0.299,90.0,84.2,normal,D4
283,304.5,83.3,40.540897,-3.4719260000000003,-0.0289999999999999,0.012,0.019,0.013,-1.582,0.005,-0.297,30.0,83.7,normal,D4
284,305.49,83.7,40.5411,-3.471992,-0.002,0.017,-0.02,-0.012,-1.586,0.009,-0.294,30.0,83.7,normal,D4
285,306.49,85.4,40.541309000000005,-3.472059,0.006,0.013,-0.017,-0.021,-1.569,0.0069999999999999,-0.292,30.0,84.2,normal,D4
286,307.52,84.2,40.541515,-3.4721230000000003,0.008,0.006,-0.01,-0.009,-1.564,0.006,-0.291,30.0,84.7,normal,D4
287,308.49,84.7,40.541718,-3.472185,-0.02,0.0069999999999999,-0.003,0.013,-1.5719999999999998,0.005,-0.29,30.0,84.7,normal,D4
288,309.53,83.8,40.541924,-3.472253,-0.034,-0.011,-0.0,-0.02,-1.535,0.004,-0.291,30.0,83.8,normal,D4
289,310.52,82.8,40.542133,-3.472322,-0.006,-0.002,-0.004,-0.004,-1.523,0.0069999999999999,-0.292,30.0,82.8,normal,D4
290,311.49,80.5,40.542324,-3.472382,0.027,-0.034,-0.004,0.006,-1.516,0.012,-0.29,30.0,80.5,normal,D4
291,312.49,78.6,40.542519,-3.472445,0.0559999999999999,0.015,-0.023,-0.004,-1.523,0.0069999999999999,-0.286,30.0,78.6,normal,D4
292,313.54,77.3,40.542706,-3.4725080000000004,-0.015,0.008,-0.003,0.008,-1.524,0.02,-0.286,30.0,77.3,normal,D4
293,314.5,74.9,40.542892,-3.4725580000000003,-0.012,-0.004,-0.004,0.001,-1.5219999999999998,0.017,-0.285,30.0,73.4,normal,D4
294,315.51,73.4,40.543072,-3.47262,-0.033,-0.012,0.04,0.052,-1.547,0.02,-0.2739999999999999,30.0,73.4,normal,D4
295,316.61,72.0,40.543423,-3.472752,-0.017,0.01,0.039,0.025,-1.575,0.02,-0.27,30.0,72.3,normal,D4
296,317.5,72.0,40.543423,-3.472752,-0.045,0.006,0.019,0.01,-1.59,0.009,-0.27,30.0,72.0,normal,D4
297,318.5,74.9,40.543602,-3.472817,0.005,-0.022,0.005,0.008,-1.59,0.011,-0.276,30.0,74.9,normal,D4
298,319.5,74.0,40.543781,-3.47287,0.027,-0.0289999999999999,0.005,-0.0069999999999999,-1.609,0.026,-0.271,90.0,74.0,normal,D4
299,320.56,74.7,40.543968,-3.472944,-0.021,0.013,0.008,-0.002,-1.61,0.02,-0.267,90.0,75.1,normal,D4
300,321.51,75.1,40.544147,-3.473015,0.021,-0.004,-0.012,-0.004,-1.609,0.01,-0.27,90.0,76.3,normal,D4
301,322.49,76.3,40.544327,-3.473082,0.011,0.0069999999999999,0.003,-0.001,-1.606,0.009,-0.273,90.0,76.6,normal,D4
302,323.49,76.6,40.544518,-3.473146,0.026,0.0,0.008,0.0,-1.608,0.013,-0.2739999999999999,90.0,76.6,normal,D4
303,324.49,77.3,40.544704,-3.473211,0.018,0.019,0.013,0.005,-1.602,0.009,-0.273,90.0,77.3,normal,D4
304,325.51,77.8,40.544903000000005,-3.473243,-0.02,-0.012,-0.017,-0.01,-1.606,-0.001,-0.272,90.0,77.8,normal,D4
305,326.48,78.9,40.545097,-3.473314,0.052,-0.023,0.0289999999999999,0.012,-1.605,-0.004,-0.2689999999999999,90.0,78.9,normal,D4
306,327.5,79.5,40.545292,-3.47338,-0.0069999999999999,-0.004,0.003,0.006,-1.609,-0.0069999999999999,-0.2689999999999999,90.0,79.5,normal,D4
307,328.52,80.0,40.545486,-3.4734519999999995,-0.055,0.009,0.006,-0.003,-1.597,-0.008,-0.268,90.0,80.0,normal,D4
308,329.53,80.7,40.545685,-3.473524,0.018,0.013,-0.037,-0.027,-1.589,-0.023,-0.268,90.0,80.7,normal,D4
309,330.5,80.3,40.545876,-3.4735949999999995,0.002,0.001,-0.024,-0.018,-1.5719999999999998,-0.0139999999999999,-0.264,90.0,80.3,normal,D4
310,331.5,80.0,40.54607,-3.473645,-0.011,0.01,-0.013,-0.027,-1.555,-0.006,-0.253,90.0,80.0,normal,D4
311,332.5,78.4,40.546268,-3.473727,0.001,0.022,0.016,0.022,-1.571,-0.01,-0.241,90.0,78.3,normal,D4
312,333.5,78.3,40.546455,-3.473807,-0.002,0.003,0.011,0.008,-1.588,-0.013,-0.233,90.0,78.3,normal,D4
313,334.5,77.9,40.546638,-3.473865,-0.023,-0.012,-0.023,-0.005,-1.588,-0.016,-0.226,90.0,76.8,normal,D4
314,335.51,76.8,40.546829,-3.4739370000000003,-0.02,-0.018,0.004,0.011,-1.596,-0.024,-0.22,90.0,78.8,normal,D4
315,336.56,78.8,40.547012,-3.474021,-0.006,-0.011,-0.023,-0.008,-1.591,-0.026,-0.213,90.0,78.8,normal,D4
316,337.48,79.1,40.547199,-3.474095,-0.04,-0.012,-0.0289999999999999,-0.021,-1.568,-0.026,-0.205,90.0,79.1,normal,D4
317,338.51,77.4,40.547379,-3.474175,0.02,-0.022,0.0069999999999999,0.0139999999999999,-1.558,-0.022,-0.196,90.0,77.0,normal,D4
318,339.49,77.0,40.547554,-3.474248,-0.031,0.027,0.015,0.021,-1.569,-0.025,-0.188,90.0,77.0,normal,D4
319,340.51,75.7,40.547733,-3.47434,-0.032,0.005,0.016,0.021,-1.589,-0.021,-0.18,90.0,75.7,normal,D4
320,341.52,77.4,40.547909,-3.4744269999999995,-0.009,-0.006,-0.009,0.002,-1.595,-0.01,-0.1689999999999999,90.0,77.4,normal,D4
321,342.62,78.9,40.548279,-3.47464,-0.042,0.0139999999999999,-0.0069999999999999,-0.002,-1.598,-0.008,-0.157,90.0,77.9,normal,D4
322,343.51,78.9,40.548279,-3.47464,-0.0289999999999999,0.0069999999999999,-0.024,-0.022,-1.5830000000000002,-0.0069999999999999,-0.151,90.0,78.0,normal,D4
323,344.51,78.0,40.548458,-3.474737,0.077,-0.004,0.0,-0.013,-1.5759999999999998,-0.013,-0.145,90.0,78.0,normal,D4
324,345.51,77.9,40.548645,-3.474852,-0.052,-0.01,-0.025,-0.0279999999999999,-1.557,-0.0069999999999999,-0.134,90.0,77.9,normal,D4
325,346.5,76.0,40.54882,-3.474963,0.001,0.009,-0.005,-0.008,-1.555,-0.016,-0.131,90.0,77.9,normal,D4
326,347.48,75.7,40.548996,-3.475083,0.008,0.01,-0.011,-0.003,-1.545,-0.0139999999999999,-0.13,90.0,72.4,normal,D4
327,348.51,72.4,40.549168,-3.4752,-0.027,0.023,-0.003,-0.006,-1.546,-0.0139999999999999,-0.131,90.0,72.4,normal,D4
328,349.51,71.9,40.549332,-3.475302,-0.015,-0.008,0.015,0.0289999999999999,-1.574,-0.0289999999999999,-0.136,90.0,71.9,normal,D4
329,350.53,71.3,40.549488,-3.475421,0.054,-0.009,0.024,0.016,-1.587,-0.018,-0.133,90.0,72.2,normal,D4
330,351.49,72.2,40.549652,-3.475531,-0.043,0.02,0.016,0.009,-1.601,-0.019,-0.13,90.0,72.2,normal,D4
331,352.49,73.0,40.549812,-3.475652,0.086,-0.013,0.012,0.017,-1.6,-0.022,-0.127,90.0,73.0,normal,D4
332,353.52,74.0,40.549969,-3.475782,-0.019,-0.006,0.004,-0.001,-1.604,-0.026,-0.124,90.0,74.0,normal,D4
333,354.53,74.1,40.550133,-3.47591,0.001,-0.012,0.002,-0.003,-1.596,-0.024,-0.124,90.0,75.7,normal,D4
334,355.48,75.7,40.550289,-3.47605,-0.0289999999999999,-0.011,0.012,0.002,-1.599,-0.024,-0.121,90.0,76.0,normal,D4
335,356.49,76.0,40.550446,-3.4761839999999995,-0.015,0.027,-0.012,-0.001,-1.608,-0.024,-0.121,90.0,76.0,normal,D4
336,357.52,76.5,40.550594,-3.4763269999999995,-0.009,-0.003,-0.012,0.002,-1.606,-0.024,-0.121,90.0,76.5,normal,D4
337,358.59,77.0,40.550915,-3.476615,-0.021,-0.022,0.019,0.006,-1.6030000000000002,-0.012,-0.119,90.0,77.3,normal,D4
338,359.59,77.0,40.550915,-3.476615,0.01,0.006,0.027,0.012,-1.607,-0.015,-0.1159999999999999,90.0,77.4,normal,D4
339,360.5,77.4,40.551071,-3.4767620000000004,-0.03,0.001,-0.009,-0.006,-1.607,-0.017,-0.113,90.0,77.4,normal,D4
340,361.52,79.4,40.551212,-3.476914,0.01,0.012,0.015,-0.005,-1.609,-0.018,-0.108,90.0,80.0,normal,D4
341,362.49,80.0,40.551373,-3.477084,-0.066,-0.002,-0.015,-0.005,-1.61,-0.017,-0.107,90.0,80.4,normal,D4
342,363.5,80.4,40.55154,-3.477262,-0.012,-0.017,0.008,0.003,-1.602,-0.01,-0.104,90.0,80.4,normal,D4
343,364.49,81.1,40.551689,-3.477429,0.031,-0.005,0.009,0.006,-1.598,-0.019,-0.103,90.0,81.1,normal,D4
344,365.58,82.7,40.551998,-3.477782,-0.038,-0.011,0.0139999999999999,0.008,-1.599,-0.023,-0.103,90.0,81.9,normal,D4
345,366.58,82.8,40.552147,-3.477968,-0.012,-0.0139999999999999,0.0279999999999999,0.026,-1.597,-0.021,-0.1,90.0,82.7,normal,D4
346,367.5,82.8,40.552147,-3.477968,-0.033,-0.0,-0.012,-0.01,-1.607,-0.02,-0.098,90.0,82.8,normal,D4
347,368.57,83.8,40.552433,-3.47834,-0.039,-0.036,0.005,0.004,-1.6030000000000002,-0.024,-0.099,90.0,83.4,normal,D4
348,369.49,83.8,40.552433,-3.47834,0.009,-0.008,-0.001,-0.005,-1.605,-0.0139999999999999,-0.094,90.0,83.4,normal,D4
349,370.5,85.4,40.552586,-3.478536,0.04,-0.016,-0.011,-0.009,-1.608,-0.011,-0.092,90.0,85.5,normal,D4
350,371.49,85.5,40.552738,-3.478739,-0.032,-0.0,-0.0279999999999999,-0.0289999999999999,-1.616,-0.018,-0.091,90.0,85.5,normal,D4
351,372.53,86.8,40.552879,-3.478954,-0.013,-0.0069999999999999,-0.019,-0.01,-1.606,-0.024,-0.092,90.0,86.8,normal,D4
352,373.57,87.5,40.553158,-3.479396,-0.051,0.0279999999999999,0.015,-0.008,-1.598,-0.018,-0.088,90.0,87.5,normal,D4
353,374.5,87.5,40.553158,-3.479396,0.0279999999999999,-0.032,-0.012,-0.009,-1.596,-0.022,-0.084,90.0,87.5,normal,D4
354,375.51,87.8,40.553295,-3.479629,0.004,0.024,-0.031,-0.027,-1.5719999999999998,-0.009,-0.0819999999999999,90.0,87.8,normal,D4
355,376.5,87.6,40.553432,-3.479859,0.005,0.0289999999999999,0.044,0.015,-1.556,-0.008,-0.076,90.0,87.8,normal,D4
356,377.5,86.9,40.553566,-3.480079,-0.036,-0.009,0.02,0.022,-1.578,-0.016,-0.083,90.0,87.3,normal,D4
357,378.5,87.3,40.553688,-3.480324,0.047,0.0139999999999999,-0.009,-0.001,-1.596,-0.013,-0.083,90.0,87.3,normal,D4
358,379.5,88.5,40.553814,-3.4805650000000004,-0.02,0.015,0.008,0.006,-1.6,-0.016,-0.084,90.0,87.3,normal,D4
359,380.51,89.4,40.553936,-3.48081,-0.001,-0.011,0.004,0.008,-1.602,-0.016,-0.083,90.0,91.3,normal,D4
360,381.5,89.9,40.554054,-3.481053,-0.034,-0.009,-0.0069999999999999,-0.006,-1.601,-0.018,-0.0819999999999999,90.0,91.3,normal,D4
361,382.56,91.3,40.554295,-3.4815620000000003,0.018,-0.0139999999999999,0.01,-0.0,-1.604,-0.016,-0.077,90.0,91.3,normal,D4
362,383.49,91.3,40.554295,-3.4815620000000003,0.053,0.008,-0.002,0.0,-1.598,-0.013,-0.072,90.0,91.3,normal,D4
363,384.52,93.0,40.554417,-3.481838,0.0289999999999999,-0.012,-0.024,-0.012,-1.609,-0.0069999999999999,-0.063,90.0,95.5,normal,D4
364,385.5,93.9,40.554531,-3.482106,-0.053,0.073,-0.017,-0.015,-1.601,-0.011,-0.063,90.0,95.5,normal,D4
365,386.5,95.5,40.554646000000005,-3.482386,0.017,0.01,-0.008,-0.025,-1.6,-0.0139999999999999,-0.063,90.0,95.5,normal,D4
366,387.51,97.3,40.554752,-3.482667,-0.011,-0.024,-0.104,-0.066,-1.58,-0.015,-0.062,90.0,96.2,normal,D4
367,388.5,96.2,40.554855,-3.482963,-0.025,0.01,-0.071,-0.06,-1.5530000000000002,-0.003,-0.0559999999999999,90.0,96.2,normal,D4
368,389.5,94.8,40.554947,-3.48325,-0.0279999999999999,-0.0139999999999999,-0.015,-0.03,-1.5219999999999998,-0.0139999999999999,-0.055,90.0,96.2,normal,D4
369,390.51,92.4,40.555046,-3.483543,-0.039,0.011,0.027,0.027,-1.5219999999999998,-0.0139999999999999,-0.0559999999999999,90.0,96.2,normal,D4
370,391.5,91.6,40.555134,-3.483817,0.0069999999999999,-0.011,0.038,0.033,-1.558,-0.026,-0.06,90.0,96.2,normal,D4
371,392.5,91.5,40.555214,-3.484094,-0.0,-0.021,0.022,0.019,-1.574,-0.008,-0.0579999999999999,90.0,96.2,normal,D4
372,393.5,93.0,40.555294,-3.484379,-0.081,0.003,0.002,0.005,-1.578,-0.001,-0.051,90.0,96.2,normal,D4
373,394.6,93.1,40.555439,-3.4849660000000005,-0.02,0.0279999999999999,-0.008,-0.0279999999999999,-1.546,-0.003,-0.046,90.0,83.8,normal,D4
374,395.49,93.1,40.555439,-3.4849660000000005,0.022,0.017,-0.034,-0.025,-1.528,-0.015,-0.047,90.0,83.8,normal,D4
375,396.52,91.6,40.5555,-3.4852540000000003,-0.036,0.0069999999999999,-0.009,-0.009,-1.513,-0.004,-0.048,90.0,83.8,normal,D4
376,397.51,89.6,40.555569,-3.485546,-0.02,-0.011,0.003,-0.001,-1.503,-0.0069999999999999,-0.046,90.0,83.8,normal,D4
377,398.53,86.6,40.555622,-3.485835,-0.03,0.02,-0.004,-0.0069999999999999,-1.499,-0.0069999999999999,-0.044,90.0,83.8,normal,D4
378,399.58,83.8,40.555725,-3.486374,0.0579999999999999,0.026,0.054,0.033,-1.519,-0.021,-0.05,90.0,83.8,normal,D4
379,400.61,84.4,40.555767,-3.48664,0.032,-0.013,0.044,0.047,-1.554,-0.017,-0.053,90.0,83.8,normal,D4
380,401.56,85.5,40.555805,-3.486915,0.012,-0.0,0.015,0.015,-1.575,-0.006,-0.048,90.0,84.4,normal,D4
381,402.59,87.1,40.55584,-3.487197,-0.1,0.03,0.0139999999999999,0.015,-1.577,-0.008,-0.045,90.0,85.5,normal,D4
382,403.49,87.1,40.55584,-3.487197,0.052,0.005,-0.02,-0.009,-1.585,-0.011,-0.045,90.0,88.0,normal,D4
383,404.6,88.6,40.555904,-3.4877550000000004,0.011,-0.003,0.016,0.006,-1.589,-0.012,-0.042,90.0,88.0,normal,D4
384,405.49,88.6,40.555904,-3.4877550000000004,-0.172,0.011,-0.036,-0.042,-1.58,-0.012,-0.04,90.0,88.0,normal,D4
385,406.58,88.7,40.555946,-3.4883330000000004,-0.021,-0.046,-0.0579999999999999,-0.027,-1.569,-0.021,-0.03,90.0,88.0,normal,D4
386,407.48,88.7,40.555946,-3.4883330000000004,-0.006,-0.016,-0.033,-0.026,-1.555,-0.033,-0.021,90.0,88.0,normal,D4
387,408.48,88.4,40.555954,-3.4886220000000003,-0.02,0.012,0.043,0.005,-1.537,-0.0289999999999999,-0.01,90.0,88.0,normal,D4
388,409.49,87.7,40.555965,-3.488903,-0.004,-0.009,-0.031,-0.023,-1.5319999999999998,-0.025,-0.001,90.0,88.0,normal,D4
389,410.53,86.3,40.555969,-3.489168,0.076,-0.019,-0.003,0.004,-1.53,-0.01,0.018,90.0,88.0,normal,D4
390,411.48,86.6,40.555965,-3.489453,-0.0289999999999999,-0.015,0.021,-0.005,-1.529,-0.0069999999999999,0.0279999999999999,90.0,88.0,normal,D4
391,412.48,85.6,40.55595,-3.489738,0.009,0.013,0.005,0.02,-1.551,-0.003,0.044,90.0,88.0,normal,D4
392,413.52,85.2,40.555923,-3.490021,-0.0069999999999999,-0.001,0.024,0.015,-1.58,0.003,0.059,90.0,88.0,normal,D4
393,414.48,86.0,40.555893,-3.490298,0.027,-0.016,-0.045,-0.0279999999999999,-1.575,0.001,0.07,90.0,88.0,normal,D4
394,415.49,87.0,40.555859000000005,-3.4905760000000003,-0.066,0.012,-0.012,-0.038,-1.554,-0.004,0.085,90.0,88.0,normal,D4
395,416.51,85.6,40.555813,-3.490854,-0.001,-0.0,0.006,-0.001,-1.54,-0.0139999999999999,0.091,90.0,88.0,normal,D4
396,417.49,84.7,40.555763,-3.49112,-0.052,-0.03,-0.001,0.02,-1.5659999999999998,-0.024,0.087,90.0,81.8,normal,D4
397,418.49,84.5,40.555706,-3.491385,-0.0559999999999999,-0.016,0.001,-0.005,-1.575,-0.0139999999999999,0.098,90.0,81.8,normal,D4
398,419.51,85.6,40.555637,-3.4916480000000005,-0.017,-0.003,-0.04,-0.038,-1.5490000000000002,-0.004,0.109,90.0,81.8,normal,D4
399,420.49,84.3,40.555576,-3.491912,-0.01,-0.023,0.009,0.008,-1.555,-0.009,0.11,90.0,81.8,normal,D4
400,421.5,84.1,40.5555,-3.492173,-0.055,-0.001,-0.024,-0.022,-1.545,0.004,0.122,90.0,81.8,normal,D4
401,422.5,83.8,40.55542,-3.492426,0.105,0.02,-0.0289999999999999,-0.012,-1.539,0.009,0.129,90.0,81.8,normal,D4
402,423.49,83.9,40.555332,-3.492679,-0.074,0.011,-0.023,-0.027,-1.525,0.003,0.12,90.0,81.8,normal,D4
403,424.52,81.2,40.555241,-3.492931,-0.024,0.026,-0.026,-0.03,-1.513,-0.02,0.089,90.0,81.8,normal,D4
404,425.49,79.4,40.555153,-3.493175,0.031,0.001,0.054,0.061,-1.525,0.004,0.069,90.0,81.8,normal,D4
405,426.49,78.4,40.555061,-3.493414,0.017,0.026,0.051,0.053,-1.564,0.012,0.048,90.0,81.8,normal,D4
406,427.5,79.1,40.55497,-3.493644,-0.01,0.022,0.018,0.021,-1.577,0.004,0.01,90.0,81.8,normal,D4
407,428.49,80.4,40.554882,-3.493871,-0.0579999999999999,0.015,0.025,0.002,-1.586,-0.002,-0.036,90.0,81.8,normal,D4
408,429.57,82.7,40.554703,-3.494359,0.0289999999999999,0.042,-0.0289999999999999,-0.038,-1.575,0.009,-0.085,90.0,81.8,normal,D4
409,430.53,82.7,40.554703,-3.494359,0.024,0.015,-0.015,-0.012,-1.555,-0.008,-0.144,90.0,81.8,normal,D4
410,431.49,81.8,40.554615000000005,-3.494603,-0.027,-0.027,-0.02,-0.02,-1.535,-0.027,-0.205,90.0,81.8,normal,D4
411,432.5,80.7,40.55455,-3.49484,-0.0069999999999999,0.004,0.022,0.013,-1.541,-0.0279999999999999,-0.25,100.0,80.7,normal,D4
412,433.5,79.4,40.554478,-3.495085,0.039,-0.011,0.0409999999999999,0.03,-1.575,-0.035,-0.308,100.0,80.7,normal,D4
413,434.59,82.2,40.554375,-3.4955870000000004,-0.025,-0.034,0.016,0.0069999999999999,-1.594,-0.038,-0.362,100.0,80.7,normal,D4
414,435.53,82.2,40.554375,-3.4955870000000004,0.0139999999999999,-0.003,0.01,0.017,-1.599,-0.034,-0.401,100.0,83.2,normal,D4
415,436.57,83.2,40.554295,-3.4961300000000004,0.036,-0.013,-0.04,-0.033,-1.605,-0.027,-0.452,100.0,83.2,normal,D4
416,437.5,83.2,40.554295,-3.4961300000000004,0.027,-0.0409999999999999,-0.057,-0.06,-1.5619999999999998,-0.019,-0.484,100.0,83.2,normal,D4
417,438.5,83.6,40.554268,-3.496399,-0.0289999999999999,0.004,-0.013,-0.021,-1.5319999999999998,-0.001,-0.511,100.0,83.2,normal,D4
418,439.51,82.1,40.554241,-3.4966699999999995,-0.052,0.0069999999999999,-0.027,-0.0289999999999999,-1.519,-0.019,-0.5489999999999999,100.0,83.2,normal,D4
419,440.5,79.5,40.554226,-3.4969410000000005,0.05,-0.0069999999999999,-0.012,-0.005,-1.508,-0.023,-0.58,100.0,79.3,normal,D4
420,441.59,77.3,40.554222,-3.4974540000000003,0.042,0.009,0.047,0.049,-1.5519999999999998,-0.009,-0.5920000000000001,100.0,79.3,normal,D4
421,442.52,77.3,40.554222,-3.4974540000000003,0.019,0.024,0.032,0.022,-1.571,-0.0409999999999999,-0.626,100.0,79.3,normal,D4
422,443.51,78.2,40.554237,-3.497724,0.0409999999999999,-0.0069999999999999,0.0279999999999999,0.026,-1.586,-0.042,-0.662,100.0,79.3,normal,D4
423,444.52,79.3,40.554249,-3.497983,-0.03,-0.017,0.019,0.013,-1.598,-0.0409999999999999,-0.6920000000000001,100.0,79.3,normal,D4
424,445.54,81.1,40.554264,-3.49824,-0.049,-0.04,-0.024,-0.024,-1.594,-0.0279999999999999,-0.7170000000000001,90.0,81.1,normal,D4
425,446.5,83.8,40.554306,-3.49851,-0.033,0.006,-0.049,-0.042,-1.575,-0.034,-0.735,90.0,83.8,normal,D4
426,447.5,83.3,40.554348,-3.4987790000000003,0.006,-0.01,0.02,0.0289999999999999,-1.5659999999999998,-0.049,-0.754,90.0,83.8,normal,D4
427,448.56,83.7,40.554398,-3.499043,0.046,-0.043,-0.026,-0.037,-1.5590000000000002,-0.064,-0.7609999999999999,90.0,83.8,normal,D4
428,449.5,84.2,40.554451,-3.499311,0.0289999999999999,-0.045,-0.0069999999999999,0.003,-1.519,-0.027,-0.75,90.0,83.8,normal,D4
429,450.55,83.4,40.554512,-3.499559,-0.016,0.012,-0.004,0.0069999999999999,-1.514,0.033,-0.73,90.0,83.8,normal,D4
430,451.5,84.1,40.554565,-3.499824,0.039,0.036,-0.015,-0.005,-1.518,0.044,-0.728,90.0,83.8,normal,D4
431,452.51,83.1,40.554623,-3.500084,-0.027,0.113,0.003,0.017,-1.495,0.0069999999999999,-0.742,90.0,83.8,normal,D4
432,453.51,80.8,40.55468,-3.500344,-0.0409999999999999,0.0279999999999999,-0.004,-0.018,-1.497,-0.09,-0.8059999999999999,90.0,82.7,normal,D4
433,454.6,82.0,40.554844,-3.500842,-0.002,0.022,-0.018,-0.013,-1.503,-0.149,-0.88,90.0,82.7,normal,D4
434,455.52,82.0,40.554844,-3.500842,-0.0559999999999999,-0.107,-0.0069999999999999,-0.002,-1.503,-0.14,-0.924,90.0,82.7,normal,D4
435,456.57,81.6,40.554951,-3.501074,-0.006,-0.044,0.008,0.019,-1.49,-0.091,-0.927,90.0,82.7,normal,D4
436,457.48,81.5,40.555065,-3.501298,-0.019,-0.0279999999999999,0.001,0.004,-1.492,-0.073,-0.931,90.0,82.7,normal,D4
437,458.51,80.6,40.555176,-3.501518,-0.033,-0.07,0.032,0.026,-1.5019999999999998,-0.057,-0.927,90.0,82.7,normal,D4
438,459.49,80.9,40.555294,-3.501739,-0.009,-0.046,0.046,0.05,-1.534,-0.03,-0.905,90.0,82.7,normal,D4
439,460.58,85.7,40.555546,-3.502192,-0.0139999999999999,-0.0409999999999999,0.032,0.044,-1.561,-0.004,-0.8690000000000001,90.0,82.7,normal,D4
440,461.61,88.7,40.555668,-3.5024330000000004,0.047,-0.016,-0.001,-0.003,-1.57,-0.0,-0.831,90.0,90.0,normal,D4
441,462.51,88.7,40.555668,-3.5024330000000004,-0.009,-0.098,0.027,0.015,-1.584,0.03,-0.79,90.0,90.0,normal,D4
442,463.51,90.0,40.555786,-3.502678,-0.018,-0.008,-0.07,-0.08,-1.538,0.062,-0.735,90.0,90.0,normal,D4
443,464.51,93.0,40.555901,-3.502943,0.002,0.009,-0.0559999999999999,-0.0559999999999999,-1.523,0.049,-0.703,90.0,93.0,normal,D4
444,465.65,93.0,40.556019,-3.503206,-0.032,0.027,-0.04,-0.033,-1.496,0.057,-0.6559999999999999,90.0,93.0,normal,D4
445,466.51,92.6,40.556126,-3.503477,-0.084,0.0069999999999999,-0.021,-0.017,-1.497,0.047,-0.627,90.0,92.1,normal,D4
446,467.6,92.1,40.556313,-3.5040120000000003,0.066,-0.005,-0.005,0.006,-1.501,0.049,-0.588,90.0,92.1,normal,D4
447,468.6,91.7,40.556393,-3.504299,-0.095,-0.008,-0.001,-0.006,-1.5019999999999998,0.048,-0.555,90.0,91.7,normal,D4
448,469.49,91.7,40.556393,-3.504299,-0.012,0.0,-0.032,-0.022,-1.499,0.06,-0.527,90.0,91.7,normal,D4
449,470.48,91.1,40.556469,-3.504585,-0.0,-0.01,0.02,0.004,-1.494,0.067,-0.499,90.0,91.1,normal,D4
450,471.57,91.3,40.556595,-3.505155,-0.072,0.024,-0.002,-0.004,-1.497,0.061,-0.476,90.0,91.1,normal,D4
451,472.5,91.3,40.556595,-3.505155,-0.044,0.03,-0.006,-0.006,-1.49,0.046,-0.46,90.0,91.3,normal,D4
452,473.5,91.3,40.556652,-3.505445,0.062,0.012,0.008,-0.011,-1.497,0.062,-0.435,90.0,91.3,normal,D4
453,474.51,91.8,40.556683,-3.505746,0.0579999999999999,-0.027,0.008,-0.005,-1.489,0.059,-0.418,90.0,91.8,normal,D4
454,475.5,91.0,40.556725,-3.506036,-0.11,0.009,-0.039,-0.038,-1.472,0.0579999999999999,-0.391,90.0,91.8,normal,D4
455,476.49,90.5,40.556751,-3.506335,-0.005,-0.01,-0.019,-0.03,-1.4469999999999998,0.055,-0.37,90.0,90.5,normal,D4
456,477.49,85.6,40.556767,-3.506644,0.018,0.026,0.015,0.033,-1.446,0.036,-0.355,90.0,90.5,normal,D4
457,478.56,82.8,40.556778,-3.507201,0.042,-0.0069999999999999,0.0409999999999999,0.02,-1.463,0.034,-0.347,90.0,82.8,normal,D4
458,479.57,82.4,40.556782,-3.507476,-0.062,0.002,0.008,0.012,-1.4780000000000002,0.042,-0.336,90.0,82.8,normal,D4
459,480.5,82.4,40.556782,-3.507476,-0.04,0.015,-0.004,-0.0069999999999999,-1.493,0.049,-0.337,90.0,82.4,normal,D4
460,481.48,82.4,40.556774,-3.507741,0.063,0.001,-0.011,-0.006,-1.4980000000000002,0.026,-0.351,90.0,82.1,normal,D4
461,482.6,81.9,40.55677,-3.508279,-0.011,-0.018,0.009,-0.005,-1.494,0.021,-0.37,90.0,81.9,normal,D4
462,483.51,81.9,40.55677,-3.508279,-0.02,0.0069999999999999,-0.006,-0.002,-1.501,0.011,-0.39,90.0,81.9,normal,D4
463,484.49,82.3,40.556763,-3.508548,0.006,0.031,0.027,0.02,-1.491,-0.01,-0.429,90.0,82.0,normal,D4
464,485.5,82.0,40.556763,-3.50881,-0.025,0.0279999999999999,-0.019,-0.008,-1.495,-0.021,-0.473,90.0,82.8,normal,D4
465,486.49,82.8,40.556767,-3.5090800000000004,-0.016,0.027,0.025,0.027,-1.506,-0.021,-0.521,90.0,82.8,normal,D4
466,487.49,80.7,40.556774,-3.509326,-0.0279999999999999,0.02,-0.019,-0.008,-1.525,-0.038,-0.573,90.0,80.7,normal,D4
467,488.49,83.1,40.556793,-3.509579,0.009,0.01,0.003,0.0069999999999999,-1.537,-0.053,-0.619,90.0,83.1,normal,D4
468,489.56,83.3,40.556808,-3.509857,-0.043,-0.0,0.027,0.0069999999999999,-1.5530000000000002,-0.0579999999999999,-0.667,90.0,83.3,normal,D4
469,490.5,85.9,40.556831,-3.510123,-0.03,-0.032,0.043,0.042,-1.5590000000000002,-0.06,-0.7090000000000001,90.0,87.3,normal,D4
470,491.51,87.3,40.556862,-3.510414,-0.002,0.0069999999999999,-0.024,-0.026,-1.557,-0.064,-0.748,90.0,90.8,normal,D4
471,492.49,90.8,40.556904,-3.510705,0.002,0.003,-0.055,-0.064,-1.543,-0.067,-0.785,90.0,90.8,normal,D4
472,493.49,91.2,40.556957,-3.510988,0.035,-0.018,-0.045,-0.036,-1.517,-0.072,-0.8190000000000001,90.0,91.2,normal,D4
473,494.5,90.5,40.557018,-3.511276,-0.017,-0.019,-0.02,-0.016,-1.506,-0.071,-0.8490000000000001,90.0,90.5,normal,D4
474,495.5,90.1,40.557087,-3.511561,-0.016,-0.0139999999999999,-0.022,-0.019,-1.5019999999999998,-0.073,-0.873,90.0,90.1,normal,D4
475,496.53,89.8,40.557167,-3.51183,-0.0279999999999999,-0.0069999999999999,-0.001,-0.004,-1.501,-0.066,-0.893,90.0,89.8,normal,D4
476,497.49,89.0,40.557247,-3.5121050000000005,0.037,-0.021,-0.001,-0.009,-1.504,-0.074,-0.912,90.0,89.0,normal,D4
477,498.57,89.0,40.557434,-3.5126440000000003,-0.03,-0.015,-0.008,-0.008,-1.5,-0.061,-0.926,90.0,89.0,normal,D4
478,499.5,89.0,40.557434,-3.5126440000000003,-0.158,0.024,0.062,0.066,-1.508,-0.064,-0.935,90.0,89.0,normal,D4
479,500.5,90.7,40.557541,-3.512893,0.031,-0.003,0.048,0.0559999999999999,-1.557,-0.067,-0.953,90.0,90.7,normal,D4
480,501.49,94.2,40.557659,-3.51315,-0.068,0.013,-0.023,-0.03,-1.548,-0.079,-0.971,90.0,94.2,normal,D4
481,502.5,94.8,40.557793,-3.513412,-0.0069999999999999,-0.024,-0.0279999999999999,-0.032,-1.519,-0.086,-0.986,90.0,94.2,normal,D4
482,503.49,95.2,40.557922,-3.5136550000000004,-0.017,0.035,-0.0279999999999999,-0.023,-1.507,-0.089,-1.002,90.0,94.6,normal,D4
483,504.5,94.6,40.558067,-3.513906,-0.062,-0.044,-0.013,-0.012,-1.5019999999999998,-0.073,-1.009,90.0,94.6,normal,D4
484,505.55,94.2,40.558231,-3.5141440000000004,-0.038,0.011,-0.016,-0.019,-1.5,-0.071,-1.014,90.0,93.1,normal,D4
485,506.5,93.8,40.558384,-3.514379,-0.021,-0.024,-0.0139999999999999,-0.006,-1.5019999999999998,-0.088,-1.025,90.0,93.1,normal,D4
486,507.49,93.1,40.558548,-3.514602,0.027,0.019,-0.006,-0.013,-1.499,-0.076,-1.022,90.0,93.1,normal,D4
487,508.48,92.1,40.55872,-3.514811,0.001,0.027,-0.015,-0.018,-1.4980000000000002,-0.076,-1.03,90.0,92.0,normal,D4
488,509.61,91.2,40.559052,-3.515193,0.088,0.003,-0.005,-0.006,-1.496,-0.094,-1.047,90.0,92.0,normal,D4
489,510.5,91.2,40.559052,-3.515193,0.032,-0.015,-0.034,-0.004,-1.501,-0.085,-1.054,90.0,91.2,normal,D4
490,511.52,90.6,40.559242,-3.515364,-0.107,0.008,0.0069999999999999,-0.004,-1.489,-0.075,-1.055,90.0,91.2,normal,D4
491,512.61,89.5,40.559616,-3.515728,-0.002,0.005,0.006,0.0,-1.491,-0.081,-1.061,100.0,89.5,normal,D4
492,513.49,89.5,40.559616,-3.515728,-0.011,0.018,-0.001,-0.012,-1.495,-0.072,-1.064,100.0,87.8,normal,D4
493,514.53,87.8,40.559811,-3.5158730000000005,0.025,0.011,0.031,0.03,-1.506,-0.062,-1.067,100.0,87.8,normal,D4
494,515.53,86.7,40.560005,-3.516,-0.0579999999999999,0.0069999999999999,0.01,0.025,-1.533,-0.0579999999999999,-1.072,100.0,86.7,normal,D4
495,516.5,88.3,40.560207,-3.5161260000000003,-0.0289999999999999,0.017,-0.045,-0.045,-1.529,-0.066,-1.0759999999999998,90.0,88.3,normal,D4
496,517.51,88.4,40.560413,-3.516235,-0.03,-0.019,-0.024,-0.027,-1.505,-0.0559999999999999,-1.078,90.0,88.4,normal,D4
497,518.5,88.7,40.560619,-3.516328,-0.075,0.005,-0.011,-0.017,-1.499,-0.059,-1.08,90.0,87.6,normal,D4
498,519.51,87.6,40.560825,-3.516428,0.033,0.001,0.003,0.004,-1.497,-0.065,-1.085,90.0,87.6,normal,D4
499,520.51,87.4,40.561031,-3.516499,-0.019,-0.001,0.005,-0.001,-1.494,-0.067,-1.087,90.0,87.4,normal,D4
500,521.51,86.4,40.561245,-3.516578,0.018,-0.002,-0.0069999999999999,0.002,-1.493,-0.076,-1.099,90.0,87.4,normal,D4
501,522.61,85.1,40.561672,-3.51669,0.026,-0.053,-0.005,0.008,-1.489,-0.072,-1.11,100.0,84.7,normal,D4
502,523.49,85.1,40.561672,-3.51669,0.027,-0.018,0.0139999999999999,0.008,-1.5,-0.0559999999999999,-1.102,100.0,84.7,normal,D4
503,524.51,84.7,40.561886,-3.5167040000000003,0.052,0.019,-0.004,0.0409999999999999,-1.4980000000000002,-0.026,-1.083,100.0,84.7,normal,D4
504,525.58,85.0,40.562305,-3.516772,-0.011,-0.013,0.022,0.017,-1.513,-0.052,-1.064,100.0,85.0,normal,D4
505,526.5,85.0,40.562305,-3.516772,-0.009,-0.034,-0.015,-0.008,-1.514,-0.033,-1.038,100.0,85.0,normal,D4
506,527.56,84.5,40.562729,-3.516826,-0.024,-0.009,0.004,0.002,-1.508,-0.026,-1.0,100.0,84.2,normal,D4
507,528.48,84.5,40.562729,-3.516826,0.021,-0.008,-0.0139999999999999,-0.0069999999999999,-1.503,-0.022,-0.97,100.0,84.2,normal,D4
508,529.52,84.2,40.562939,-3.516835,-0.0289999999999999,-0.067,0.019,0.026,-1.494,-0.005,-0.933,100.0,84.2,normal,D4
509,530.49,83.4,40.563145,-3.51686,-0.017,0.005,0.033,0.008,-1.492,0.0139999999999999,-0.894,100.0,84.2,normal,D4
510,531.48,82.4,40.563343,-3.516891,-0.019,0.003,0.0289999999999999,0.039,-1.535,0.005,-0.861,100.0,84.2,normal,D4
511,532.48,83.8,40.563545,-3.516926,-0.054,0.011,0.035,0.04,-1.555,0.004,-0.833,100.0,84.2,normal,D4
512,533.48,86.9,40.563747,-3.51697,-0.0279999999999999,-0.001,0.04,0.021,-1.571,0.0289999999999999,-0.794,100.0,84.2,normal,D4
513,534.49,89.0,40.563965,-3.5170220000000003,-0.083,-0.019,0.021,0.017,-1.575,0.038,-0.752,100.0,84.2,normal,D4
514,535.59,94.0,40.564411,-3.517149,-0.027,-0.005,-0.013,-0.012,-1.579,0.035,-0.7170000000000001,100.0,84.2,normal,D4
515,536.49,94.0,40.564411,-3.517149,-0.084,0.009,0.004,-0.003,-1.586,0.032,-0.6940000000000001,90.0,100.1,normal,D4
516,537.55,95.6,40.564648,-3.5172230000000004,0.144,-0.035,-0.044,-0.0559999999999999,-1.571,0.038,-0.667,90.0,100.1,normal,D4
517,538.49,96.1,40.56488,-3.517307,0.138,0.015,0.021,-0.009,-1.557,0.042,-0.647,90.0,100.1,normal,D4
518,539.49,96.4,40.565117,-3.517408,-0.061,-0.002,0.01,-0.0,-1.565,0.043,-0.637,90.0,100.1,normal,D4
519,540.49,97.7,40.56535,-3.517499,0.003,-0.045,-0.012,-0.008,-1.577,0.027,-0.625,90.0,100.1,normal,D4
520,541.49,98.6,40.565586,-3.517596,-0.098,-0.003,-0.032,0.002,-1.584,0.043,-0.606,90.0,100.1,normal,D4
521,542.5,100.0,40.565823,-3.517701,0.124,0.0409999999999999,-0.054,-0.051,-1.579,0.07,-0.5920000000000001,90.0,100.1,normal,D4
522,543.51,101.4,40.566055,-3.517817,-0.089,0.005,-0.049,-0.053,-1.546,0.068,-0.5770000000000001,90.0,100.1,normal,D4
