,Timestamp (seconds),Speed (km/h),Latitude coordinate (degrees),Longitude coordinate (degrees),Acceleration in X (Gs),Acceleration in Y (Gs),Acceleration in Z (Gs),Acceleration in Z filtered by KF (Gs),Roll (degrees),Pitch (degrees),Yaw (degrees),Maximum allowed speed of current road (km/h),GPS speed (km/h) [same as in RAW GPS]],class,Driver
0,22.33,93.3,40.519077,-3.410102,-0.052,0.001,-0.033,-0.015,-1.5590000000000002,0.025,0.147,100.0,92.9,normal,D5
1,23.34,92.9,40.519268,-3.410277,-0.04,-0.005,-0.01,-0.009,-1.555,0.005,0.146,100.0,92.9,normal,D5
2,24.33,92.7,40.519455,-3.410453,0.01,0.011,0.022,0.002,-1.5519999999999998,0.008,0.143,100.0,92.7,normal,D5
3,25.36,92.7,40.519646,-3.410628,-0.009,0.003,-0.0139999999999999,-0.005,-1.551,0.012,0.143,100.0,92.7,normal,D5
4,26.37,92.2,40.519836,-3.4108,-0.003,0.013,0.0289999999999999,0.016,-1.5490000000000002,0.017,0.146,100.0,92.2,normal,D5
5,27.33,92.2,40.52002,-3.410976,0.004,0.036,0.001,0.0069999999999999,-1.5590000000000002,0.015,0.146,100.0,91.5,normal,D5
6,28.37,91.5,40.520206,-3.411161,-0.081,-0.006,-0.004,0.004,-1.557,0.01,0.141,100.0,91.5,normal,D5
7,29.34,91.8,40.520382,-3.4113260000000003,0.042,0.003,-0.0279999999999999,-0.0069999999999999,-1.565,0.009,0.143,100.0,91.5,normal,D5
8,30.34,92.2,40.520573,-3.4115050000000005,-0.123,0.034,0.023,-0.003,-1.5719999999999998,0.01,0.142,100.0,91.8,normal,D5
9,31.34,93.3,40.520767,-3.411677,0.034,0.012,0.004,-0.006,-1.5759999999999998,0.004,0.136,100.0,93.3,normal,D5
10,32.36,93.3,40.520966,-3.411858,-0.048,0.017,-0.013,0.0,-1.5719999999999998,0.01,0.135,100.0,93.3,normal,D5
11,33.39,95.4,40.52116,-3.412039,-0.099,-0.009,0.01,-0.0,-1.569,0.0279999999999999,0.139,100.0,95.4,normal,D5
12,34.34,94.6,40.521362,-3.412218,0.057,0.008,0.016,0.0069999999999999,-1.567,0.032,0.142,100.0,95.4,normal,D5
13,35.34,94.6,40.521557,-3.4123980000000005,0.023,0.0139999999999999,-0.023,0.002,-1.565,0.023,0.145,100.0,94.6,normal,D5
14,36.37,93.6,40.521736,-3.4125660000000004,-0.068,0.015,0.037,0.016,-1.57,0.024,0.145,100.0,93.6,normal,D5
15,37.34,94.1,40.521919,-3.4127339999999995,0.031,0.003,0.001,0.006,-1.581,0.02,0.145,100.0,93.6,normal,D5
16,38.36,94.0,40.522106,-3.4129120000000004,-0.0409999999999999,0.019,-0.009,-0.016,-1.577,0.0139999999999999,0.143,100.0,94.0,normal,D5
17,39.34,94.0,40.522297,-3.4130910000000005,-0.093,-0.026,-0.011,-0.012,-1.586,0.005,0.145,100.0,94.0,normal,D5
18,40.35,93.1,40.522484000000006,-3.413265,0.06,-0.067,-0.016,-0.017,-1.584,0.011,0.16,100.0,93.3,normal,D5
19,41.34,93.3,40.522663,-3.413459,-0.026,-0.045,0.04,0.015,-1.582,0.033,0.1889999999999999,100.0,93.3,normal,D5
20,42.34,94.8,40.522846,-3.413656,-0.001,-0.01,0.01,0.013,-1.594,0.037,0.22,100.0,93.3,normal,D5
21,43.34,94.1,40.523033,-3.413853,0.005,-0.032,-0.002,-0.005,-1.599,0.03,0.254,100.0,95.4,normal,D5
22,44.36,95.4,40.523216,-3.41407,-0.083,0.001,-0.02,-0.01,-1.595,0.025,0.288,100.0,95.4,normal,D5
23,45.42,95.5,40.523399,-3.4142980000000005,-0.015,-0.033,-0.018,0.002,-1.595,0.02,0.316,100.0,95.4,normal,D5
24,46.34,96.9,40.523567,-3.414539,-0.006,0.01,0.036,0.019,-1.592,0.02,0.344,90.0,96.9,normal,D5
25,47.35,96.7,40.523731,-3.414781,0.018,0.024,-0.008,0.004,-1.591,0.023,0.369,90.0,96.9,normal,D5
26,48.36,97.1,40.52388,-3.4150339999999995,-0.046,0.022,0.006,0.013,-1.59,0.033,0.3989999999999999,90.0,97.1,normal,D5
27,49.35,98.3,40.524025,-3.415292,-0.048,0.0289999999999999,-0.002,-0.0,-1.592,0.023,0.416,90.0,97.1,normal,D5
28,50.35,99.9,40.524174,-3.415573,0.071,-0.02,0.012,0.0139999999999999,-1.592,0.017,0.429,90.0,97.1,normal,D5
29,51.41,100.8,40.524307,-3.415846,0.035,0.015,-0.021,-0.009,-1.597,0.023,0.446,90.0,100.8,normal,D5
30,52.35,101.8,40.524433,-3.416128,-0.008,-0.035,-0.039,-0.035,-1.577,0.04,0.4629999999999999,90.0,100.8,normal,D5
31,53.4,100.9,40.524551,-3.4164230000000004,0.015,-0.019,-0.0409999999999999,-0.034,-1.534,0.046,0.482,90.0,100.8,normal,D5
32,54.42,99.8,40.524654,-3.416723,0.0139999999999999,-0.006,-0.003,-0.0,-1.5119999999999998,0.044,0.497,90.0,100.8,normal,D5
33,55.35,97.8,40.52475,-3.417015,0.009,0.021,-0.015,0.017,-1.486,0.039,0.508,90.0,95.7,normal,D5
34,56.35,96.8,40.52483,-3.4173120000000003,0.098,0.0279999999999999,0.019,0.022,-1.496,0.04,0.507,90.0,95.7,normal,D5
35,57.35,95.7,40.524906,-3.417613,-0.021,0.053,-0.02,-0.012,-1.489,0.018,0.495,90.0,95.7,normal,D5
36,58.35,94.1,40.524975,-3.417906,0.022,0.019,0.013,0.01,-1.494,0.008,0.477,100.0,94.1,normal,D5
37,59.33,93.9,40.525043,-3.4182010000000003,-0.021,0.025,0.004,0.001,-1.491,0.017,0.4589999999999999,100.0,94.1,normal,D5
38,60.33,92.2,40.525108,-3.418489,-0.005,0.012,-0.0139999999999999,0.01,-1.49,0.031,0.435,80.0,92.2,normal,D5
39,61.35,92.2,40.525166,-3.418784,-0.073,0.027,0.016,0.003,-1.485,0.003,0.4,80.0,92.2,normal,D5
40,62.38,90.0,40.525238,-3.419053,-0.04,0.0289999999999999,-0.0069999999999999,-0.003,-1.487,-0.002,0.354,80.0,90.0,normal,D5
41,63.35,89.0,40.525299,-3.419339,-0.055,0.008,0.003,-0.0,-1.484,-0.011,0.313,80.0,90.0,normal,D5
42,64.35,88.5,40.525364,-3.41961,0.01,0.002,-0.0069999999999999,0.006,-1.496,-0.008,0.27,80.0,90.0,normal,D5
43,65.37,87.4,40.525429,-3.419884,0.024,0.001,0.009,-0.002,-1.497,0.003,0.2239999999999999,80.0,85.6,normal,D5
44,66.42,85.6,40.525509,-3.420153,-0.009,-0.002,0.0279999999999999,0.023,-1.508,-0.01,0.17,80.0,85.6,normal,D5
45,67.34,86.1,40.525578,-3.420414,-0.069,-0.027,-0.0,-0.005,-1.514,-0.012,0.127,80.0,86.1,normal,D5
46,68.35,86.3,40.525661,-3.42067,0.003,-0.019,0.022,0.016,-1.513,-0.004,0.09,80.0,86.1,normal,D5
47,69.37,86.8,40.525753,-3.420933,0.054,-0.024,-0.009,0.015,-1.52,-0.016,0.0559999999999999,80.0,86.8,normal,D5
48,70.34,88.4,40.525856,-3.421188,0.024,0.01,-0.012,0.005,-1.5319999999999998,-0.024,0.021,100.0,88.4,normal,D5
49,71.33,87.0,40.52597,-3.421432,0.052,0.0579999999999999,0.011,0.018,-1.538,-0.06,-0.031,90.0,87.0,normal,D5
50,72.36,87.6,40.526085,-3.421673,-0.031,-0.005,0.02,0.011,-1.548,-0.042,-0.077,90.0,87.0,normal,D5
51,73.36,89.1,40.526215,-3.4218800000000003,0.027,0.012,0.033,0.019,-1.565,-0.057,-0.1169999999999999,90.0,89.1,normal,D5
52,74.35,90.2,40.526356,-3.422111,-0.035,-0.039,-0.002,-0.013,-1.565,-0.0559999999999999,-0.158,90.0,90.2,normal,D5
53,75.41,90.9,40.526508,-3.422338,-0.057,0.001,-0.0969999999999999,-0.066,-1.556,-0.043,-0.185,90.0,90.9,normal,D5
54,76.33,90.4,40.526665,-3.422554,-0.034,-0.022,-0.043,-0.05,-1.537,-0.046,-0.214,90.0,90.4,normal,D5
55,77.33,89.9,40.526836,-3.422746,-0.032,0.001,0.001,0.0,-1.52,-0.0409999999999999,-0.24,90.0,90.4,normal,D5
56,78.33,89.3,40.526997,-3.422934,-0.004,-0.015,0.026,0.023,-1.5219999999999998,-0.036,-0.268,90.0,89.9,normal,D5
57,79.33,90.1,40.52718,-3.423122,-0.026,-0.002,0.022,0.027,-1.535,-0.044,-0.3,90.0,90.1,normal,D5
58,80.4,91.6,40.527363,-3.423302,0.012,-0.013,0.043,0.025,-1.544,-0.033,-0.321,90.0,90.1,normal,D5
59,81.34,92.2,40.527557,-3.4234730000000004,-0.018,-0.001,0.004,0.003,-1.551,-0.048,-0.3429999999999999,90.0,92.2,normal,D5
60,82.33,93.6,40.527763,-3.423628,0.024,0.016,-0.01,0.002,-1.564,-0.048,-0.363,90.0,93.6,normal,D5
61,83.37,94.0,40.527966,-3.423779,0.001,-0.013,-0.013,-0.015,-1.5530000000000002,-0.057,-0.382,90.0,93.6,normal,D5
62,84.38,94.1,40.528175,-3.4239330000000003,-0.042,-0.052,-0.011,-0.003,-1.5419999999999998,-0.033,-0.373,90.0,94.1,normal,D5
63,85.4,94.4,40.528385,-3.424077,-0.021,-0.023,0.003,0.009,-1.537,-0.013,-0.356,90.0,94.1,normal,D5
64,86.33,94.4,40.528595,-3.424214,-0.073,0.004,-0.046,-0.0139999999999999,-1.52,-0.011,-0.341,90.0,94.4,normal,D5
65,87.35,92.4,40.528805,-3.424357,-0.064,-0.0,-0.047,-0.033,-1.51,-0.012,-0.318,90.0,94.4,normal,D5
66,88.42,91.3,40.529007,-3.42449,0.051,-0.042,-0.006,0.011,-1.495,-0.013,-0.287,90.0,91.3,normal,D5
67,89.34,90.7,40.529198,-3.424621,-0.059,-0.045,-0.0279999999999999,-0.012,-1.492,-0.003,-0.258,90.0,89.1,normal,D5
68,90.34,89.1,40.529396000000006,-3.424757,0.051,0.024,-0.006,0.008,-1.49,-0.011,-0.2269999999999999,90.0,89.1,normal,D5
69,91.4,87.9,40.529598,-3.4249089999999995,0.004,0.022,-0.012,-0.001,-1.484,-0.015,-0.2019999999999999,90.0,87.9,normal,D5
70,92.34,87.4,40.529793,-3.425053,-0.059,0.016,0.0139999999999999,0.017,-1.492,-0.005,-0.177,90.0,87.9,normal,D5
71,93.34,86.6,40.529968,-3.425184,0.02,-0.035,0.006,0.008,-1.4980000000000002,0.001,-0.147,90.0,87.4,normal,D5
72,94.38,85.8,40.530148,-3.4253339999999994,-0.023,-0.03,0.0279999999999999,0.009,-1.507,0.017,-0.099,90.0,85.8,normal,D5
73,95.34,86.1,40.530327,-3.425489,-0.096,-0.011,-0.01,-0.008,-1.51,0.02,-0.0579999999999999,90.0,85.8,normal,D5
74,96.35,84.3,40.530506,-3.4256519999999995,-0.098,0.023,-0.011,-0.009,-1.5119999999999998,0.012,-0.015,90.0,84.3,normal,D5
75,97.34,83.4,40.530666,-3.425817,-0.046,0.022,0.018,-0.004,-1.52,0.012,0.019,90.0,84.3,normal,D5
76,98.33,83.8,40.530819,-3.425987,-0.002,0.046,0.015,-0.005,-1.527,-0.002,0.046,90.0,84.2,normal,D5
77,99.37,84.2,40.530972,-3.426165,0.008,0.008,0.015,-0.005,-1.533,-0.018,0.059,90.0,84.2,normal,D5
78,100.34,84.5,40.531132,-3.426346,-0.049,-0.001,-0.006,-0.003,-1.536,0.005,0.081,90.0,84.2,normal,D5
79,101.36,84.2,40.531284,-3.426536,-0.022,0.003,0.011,0.009,-1.529,0.002,0.108,90.0,84.2,normal,D5
80,102.34,84.2,40.531441,-3.426717,-0.07,0.019,0.064,0.0139999999999999,-1.554,-0.002,0.127,90.0,84.2,normal,D5
81,103.35,84.7,40.53159,-3.426921,-0.03,0.017,-0.0,0.0,-1.564,-0.003,0.143,90.0,84.7,normal,D5
82,104.39,85.3,40.531738,-3.427131,0.008,-0.003,0.019,0.012,-1.5730000000000002,-0.0139999999999999,0.158,90.0,84.7,normal,D5
83,105.34,85.2,40.531887,-3.427347,-0.038,0.003,-0.008,-0.001,-1.575,-0.01,0.174,90.0,85.2,normal,D5
84,106.34,85.8,40.532028,-3.4275620000000004,-0.051,-0.024,-0.024,-0.0139999999999999,-1.588,-0.005,0.1939999999999999,90.0,85.2,normal,D5
85,107.36,86.0,40.532162,-3.427783,-0.023,0.017,-0.019,-0.025,-1.595,-0.006,0.209,90.0,86.0,normal,D5
86,108.35,86.7,40.532288,-3.4280160000000004,-0.043,0.0069999999999999,-0.031,-0.015,-1.5930000000000002,-0.0139999999999999,0.218,90.0,86.0,normal,D5
87,109.38,86.0,40.532413,-3.4282449999999995,-0.043,-0.026,-0.031,-0.012,-1.5930000000000002,-0.006,0.2319999999999999,90.0,86.0,normal,D5
88,110.39,85.5,40.532536,-3.428478,-0.018,-0.005,0.002,-0.003,-1.591,-0.002,0.247,90.0,86.0,normal,D5
89,111.35,85.9,40.53265,-3.428717,0.026,0.0069999999999999,-0.011,0.004,-1.588,-0.005,0.263,90.0,85.9,normal,D5
90,112.35,85.8,40.532764,-3.428956,-0.002,0.002,0.027,0.02,-1.589,-0.009,0.2789999999999999,90.0,85.9,normal,D5
91,113.36,85.4,40.532864,-3.429211,-0.0069999999999999,0.019,0.0289999999999999,0.02,-1.592,-0.017,0.286,90.0,85.9,normal,D5
92,114.35,85.9,40.532974,-3.42947,-0.017,-0.01,0.011,-0.001,-1.597,-0.015,0.295,90.0,85.9,normal,D5
93,115.37,85.9,40.53307,-3.429725,-0.038,-0.0069999999999999,-0.004,0.008,-1.592,-0.006,0.305,90.0,85.9,normal,D5
94,116.35,85.7,40.533157,-3.429981,0.002,-0.005,0.011,0.009,-1.6,-0.015,0.31,90.0,85.8,normal,D5
95,117.39,85.8,40.533241,-3.430244,-0.008,0.011,0.01,-0.002,-1.594,0.0,0.313,90.0,85.8,normal,D5
96,118.35,85.8,40.533318,-3.430499,-0.011,0.005,-0.009,-0.001,-1.605,-0.012,0.316,90.0,85.8,normal,D5
97,119.34,85.9,40.533394,-3.430758,0.005,0.0,-0.0069999999999999,-0.009,-1.592,-0.005,0.321,90.0,85.8,normal,D5
98,120.35,85.9,40.533459,-3.431022,0.009,-0.023,0.049,0.015,-1.591,0.003,0.33,90.0,85.2,normal,D5
99,121.34,84.8,40.53352,-3.431283,-0.011,0.003,-0.02,-0.003,-1.597,-0.003,0.337,90.0,85.2,normal,D5
100,122.4,85.2,40.533577,-3.431553,0.009,0.0139999999999999,0.004,0.01,-1.597,-0.0139999999999999,0.336,90.0,85.2,normal,D5
101,123.36,84.2,40.533627,-3.4318190000000004,-0.044,-0.018,-0.026,-0.009,-1.599,-0.0139999999999999,0.335,90.0,85.2,normal,D5
102,124.4,86.0,40.53368,-3.4321040000000003,0.023,-0.015,0.002,-0.002,-1.604,-0.013,0.3429999999999999,90.0,85.2,normal,D5
103,125.35,85.8,40.533726,-3.432374,-0.047,-0.023,-0.0139999999999999,-0.016,-1.609,-0.006,0.347,90.0,86.3,normal,D5
104,126.34,86.3,40.533764,-3.432663,-0.016,-0.019,-0.0139999999999999,-0.01,-1.602,-0.011,0.347,90.0,86.3,normal,D5
105,127.33,86.1,40.533794,-3.432938,-0.05,-0.024,-0.034,-0.0069999999999999,-1.606,0.001,0.349,90.0,86.3,normal,D5
106,128.35,86.2,40.533821,-3.433219,-0.004,0.027,-0.01,-0.0069999999999999,-1.598,0.008,0.357,90.0,86.3,normal,D5
107,129.36,84.4,40.533836,-3.433498,0.034,0.024,-0.02,-0.009,-1.602,0.009,0.353,90.0,85.1,normal,D5
108,130.36,86.2,40.533848,-3.4337800000000005,0.035,0.011,-0.012,-0.009,-1.6030000000000002,0.006,0.347,90.0,85.1,normal,D5
109,131.38,85.8,40.533859,-3.4340550000000003,-0.039,0.004,-0.02,-0.003,-1.578,0.001,0.3339999999999999,90.0,85.1,normal,D5
110,132.35,85.1,40.533867,-3.434331,0.005,-0.011,0.03,0.012,-1.5759999999999998,-0.006,0.32,90.0,85.1,normal,D5
111,133.34,84.3,40.533878,-3.434596,0.012,-0.012,-0.003,0.012,-1.5719999999999998,0.005,0.31,90.0,85.1,normal,D5
112,134.33,84.5,40.533875,-3.434887,-0.008,0.025,0.03,0.016,-1.578,0.006,0.294,90.0,85.1,normal,D5
113,135.39,84.2,40.533878,-3.43516,0.01,0.015,-0.002,0.006,-1.594,0.008,0.273,90.0,85.1,normal,D5
114,136.34,83.9,40.533878,-3.4354339999999994,0.008,0.018,0.006,-0.006,-1.5930000000000002,0.006,0.25,90.0,85.1,normal,D5
115,137.38,83.7,40.533875,-3.43571,-0.017,0.034,-0.0,0.005,-1.584,0.01,0.226,90.0,85.1,normal,D5
116,138.4,83.4,40.533878,-3.435975,-0.042,-0.004,-0.006,0.003,-1.585,0.04,0.208,90.0,85.1,normal,D5
117,139.33,82.5,40.533878,-3.436243,-0.0279999999999999,0.024,-0.015,0.005,-1.598,0.04,0.204,90.0,85.1,normal,D5
118,140.34,82.5,40.533871000000005,-3.436509,-0.04,0.001,0.005,0.005,-1.5930000000000002,0.034,0.193,90.0,85.1,normal,D5
119,141.37,82.9,40.533875,-3.436784,-0.051,-0.0139999999999999,0.019,0.01,-1.606,0.023,0.183,-1.0,88.2,normal,D5
120,142.33,83.3,40.533875,-3.4370550000000004,-0.033,-0.027,0.013,0.004,-1.606,0.009,0.1689999999999999,-1.0,88.2,normal,D5
121,143.39,84.1,40.533875,-3.437333,0.018,-0.017,0.005,0.006,-1.614,0.005,0.156,-1.0,88.2,normal,D5
122,144.34,84.9,40.533878,-3.437612,-0.021,-0.018,0.012,-0.004,-1.615,0.008,0.146,-1.0,88.2,normal,D5
123,145.36,84.9,40.533882,-3.437882,0.022,-0.019,0.011,0.015,-1.6130000000000002,0.016,0.142,-1.0,88.2,normal,D5
124,146.34,85.2,40.533867,-3.438163,-0.0279999999999999,0.012,0.012,0.013,-1.61,0.027,0.14,-1.0,88.2,normal,D5
125,147.39,86.4,40.533863,-3.438447,-0.033,0.013,0.004,-0.001,-1.616,0.018,0.134,-1.0,88.2,normal,D5
126,148.37,87.6,40.533855,-3.438731,-0.055,-0.0139999999999999,-0.006,-0.006,-1.615,0.013,0.125,-1.0,88.2,normal,D5
127,149.35,88.2,40.533852,-3.439019,-0.003,-0.017,0.008,0.017,-1.598,0.012,0.122,-1.0,88.2,normal,D5
128,150.41,89.2,40.533852,-3.439317,0.033,-0.024,0.027,-0.002,-1.6,0.021,0.125,90.0,89.7,normal,D5
129,151.34,89.7,40.533855,-3.4396190000000004,0.0289999999999999,0.022,-0.01,-0.01,-1.612,0.0289999999999999,0.126,90.0,89.7,normal,D5
130,152.37,90.0,40.533840000000005,-3.439915,-0.027,0.008,-0.0139999999999999,-0.018,-1.605,0.015,0.121,90.0,91.8,normal,D5
131,153.34,91.8,40.533840000000005,-3.440215,0.017,-0.008,0.02,0.011,-1.599,0.016,0.115,90.0,91.8,normal,D5
132,154.36,92.9,40.533840000000005,-3.4405080000000003,0.01,-0.006,-0.0,0.001,-1.594,0.015,0.115,90.0,91.8,normal,D5
133,155.38,94.1,40.533829,-3.440814,-0.032,0.0139999999999999,0.054,0.021,-1.6,0.02,0.111,90.0,94.1,normal,D5
134,156.36,96.3,40.533825,-3.441133,-0.031,0.001,0.011,0.008,-1.59,0.02,0.11,90.0,94.1,normal,D5
135,157.34,97.6,40.533821,-3.4414519999999995,-0.018,0.008,0.031,0.003,-1.587,0.009,0.106,90.0,99.6,normal,D5
136,158.34,99.6,40.533825,-3.441782,0.071,-0.003,-0.035,-0.019,-1.581,0.021,0.105,90.0,99.6,normal,D5
137,159.34,98.7,40.533829,-3.44211,-0.002,-0.015,-0.032,-0.034,-1.5319999999999998,0.018,0.106,90.0,98.7,normal,D5
138,160.34,97.1,40.533821,-3.4424360000000003,-0.043,0.039,-0.016,-0.0139999999999999,-1.503,0.021,0.103,90.0,98.7,normal,D5
139,161.33,95.4,40.533817,-3.442743,-0.035,-0.016,0.0069999999999999,0.01,-1.4980000000000002,0.011,0.095,90.0,97.1,normal,D5
140,162.34,94.7,40.533813,-3.443058,-0.012,0.005,-0.002,-0.01,-1.506,0.021,0.093,90.0,94.7,normal,D5
141,163.34,94.0,40.533806,-3.443367,-0.009,0.018,-0.013,-0.015,-1.506,0.0279999999999999,0.094,90.0,94.0,normal,D5
142,164.37,93.2,40.533802,-3.443679,-0.043,0.026,-0.027,-0.016,-1.514,0.026,0.093,90.0,93.2,normal,D5
143,165.36,92.4,40.533806,-3.4439839999999995,-0.033,-0.003,0.019,0.015,-1.516,0.008,0.091,90.0,92.4,normal,D5
144,166.35,92.0,40.533806,-3.444283,-0.017,0.006,-0.001,-0.011,-1.527,0.022,0.09,90.0,92.4,normal,D5
145,167.4,91.1,40.533802,-3.444573,0.004,-0.002,-0.005,-0.005,-1.525,0.018,0.09,90.0,91.1,normal,D5
146,168.35,91.6,40.533798,-3.44487,-0.036,0.015,-0.0069999999999999,-0.0069999999999999,-1.528,0.025,0.092,90.0,91.1,normal,D5
147,169.41,91.3,40.533791,-3.4451660000000004,-0.013,-0.002,-0.004,0.001,-1.533,0.017,0.095,90.0,91.2,normal,D5
148,170.35,91.2,40.533791,-3.4454580000000004,-0.03,-0.0069999999999999,0.0069999999999999,0.004,-1.526,0.023,0.095,90.0,91.2,normal,D5
149,171.38,90.9,40.533794,-3.445761,-0.008,0.001,-0.004,0.001,-1.53,0.013,0.093,90.0,91.2,normal,D5
150,172.42,91.5,40.533794,-3.4460610000000003,-0.009,0.021,0.03,0.025,-1.535,0.0069999999999999,0.086,90.0,90.9,normal,D5
151,173.39,90.5,40.533794,-3.4463470000000003,-0.026,0.013,-0.019,-0.012,-1.53,0.015,0.0819999999999999,90.0,90.5,normal,D5
152,174.35,90.5,40.533806,-3.446629,-0.021,-0.006,0.016,0.004,-1.526,0.019,0.081,90.0,90.5,normal,D5
153,175.35,90.3,40.533791,-3.446925,-0.012,0.018,0.021,0.017,-1.528,0.031,0.086,90.0,90.3,normal,D5
154,176.35,91.0,40.533791,-3.447223,-0.008,0.002,-0.001,0.002,-1.537,0.022,0.087,90.0,91.2,normal,D5
155,177.36,91.2,40.533791,-3.447524,-0.012,0.03,-0.005,0.006,-1.5419999999999998,0.0279999999999999,0.088,90.0,91.2,normal,D5
156,178.37,92.0,40.533787,-3.447833,-0.006,0.0139999999999999,0.022,0.0069999999999999,-1.543,0.031,0.087,90.0,92.0,normal,D5
157,179.35,91.5,40.533779,-3.448135,0.004,0.01,-0.001,0.006,-1.534,0.016,0.078,90.0,92.0,normal,D5
158,180.35,91.9,40.533775,-3.448437,-0.005,-0.011,0.006,0.002,-1.536,0.01,0.071,90.0,92.0,normal,D5
159,181.33,91.8,40.533775,-3.4487400000000004,0.002,-0.0069999999999999,-0.009,0.002,-1.537,0.005,0.068,90.0,92.0,normal,D5
160,182.35,92.7,40.533772,-3.4490480000000003,-0.06,-0.005,-0.006,-0.006,-1.5419999999999998,0.024,0.072,90.0,94.2,normal,D5
161,183.38,93.5,40.533764,-3.44935,-0.016,0.016,-0.009,-0.001,-1.548,0.018,0.076,90.0,94.2,normal,D5
162,184.41,94.0,40.533752,-3.4496480000000003,-0.021,-0.006,0.002,-0.001,-1.539,0.016,0.074,90.0,94.2,normal,D5
163,185.43,94.2,40.533749,-3.44996,0.001,0.026,0.024,0.016,-1.537,0.012,0.07,90.0,94.2,normal,D5
164,186.33,94.4,40.533752,-3.450272,0.01,-0.001,0.039,0.009,-1.534,0.01,0.069,90.0,94.4,normal,D5
165,187.36,94.1,40.533752,-3.4505800000000004,-0.011,-0.044,-0.027,-0.02,-1.5119999999999998,0.008,0.065,90.0,94.4,normal,D5
166,188.34,91.6,40.533752,-3.4508870000000003,-0.037,0.002,-0.027,-0.018,-1.503,0.023,0.069,90.0,91.6,normal,D5
167,189.36,91.9,40.533768,-3.451192,-0.0139999999999999,0.017,-0.008,-0.009,-1.5019999999999998,0.025,0.069,90.0,91.6,normal,D5
168,190.36,90.8,40.533752,-3.451488,-0.03,0.025,-0.004,-0.002,-1.5019999999999998,0.015,0.066,90.0,90.8,normal,D5
169,191.36,89.7,40.533756,-3.451793,-0.037,0.002,0.009,0.002,-1.505,0.0139999999999999,0.068,90.0,90.8,normal,D5
170,192.33,88.9,40.533764,-3.45209,-0.004,0.03,0.012,0.001,-1.507,0.013,0.064,90.0,88.9,normal,D5
171,193.33,88.4,40.53376,-3.452383,-0.022,-0.023,-0.001,0.0139999999999999,-1.5,0.0139999999999999,0.06,90.0,88.9,normal,D5
172,194.34,88.1,40.53376,-3.452681,-0.021,0.009,0.011,0.0069999999999999,-1.51,0.018,0.057,90.0,88.1,normal,D5
173,195.41,86.6,40.533752,-3.452972,-0.019,-0.005,0.019,0.01,-1.515,0.023,0.055,90.0,86.6,normal,D5
174,196.34,86.8,40.533749,-3.453259,0.02,0.0,0.016,0.011,-1.516,0.0139999999999999,0.0559999999999999,90.0,86.6,normal,D5
175,197.34,86.2,40.533749,-3.4535440000000004,-0.025,-0.0,-0.009,0.0,-1.515,0.022,0.055,90.0,86.2,normal,D5
176,198.35,86.0,40.533737,-3.453817,-0.011,-0.015,0.0289999999999999,0.0139999999999999,-1.515,0.03,0.059,90.0,86.2,normal,D5
177,199.41,86.1,40.53373,-3.454102,-0.0279999999999999,0.011,-0.024,-0.0139999999999999,-1.536,0.0279999999999999,0.062,90.0,86.1,normal,D5
178,200.36,86.6,40.533726,-3.4543800000000005,-0.08,0.004,-0.024,-0.0139999999999999,-1.537,0.023,0.062,90.0,86.1,normal,D5
179,201.33,86.5,40.533726,-3.454671,-0.024,-0.009,-0.0069999999999999,0.006,-1.54,0.009,0.0559999999999999,90.0,86.5,normal,D5
180,202.34,85.6,40.533718,-3.454947,-0.033,0.03,-0.0069999999999999,-0.006,-1.54,0.0139999999999999,0.052,90.0,86.5,normal,D5
181,203.34,86.7,40.533722,-3.455235,-0.089,-0.023,-0.012,-0.027,-1.518,0.021,0.052,90.0,86.7,normal,D5
182,204.34,85.9,40.533722,-3.455521,-0.003,-0.012,0.003,-0.006,-1.517,0.018,0.054,90.0,86.7,normal,D5
183,205.34,85.5,40.533714,-3.455801,0.01,-0.009,-0.022,-0.0139999999999999,-1.501,0.01,0.051,90.0,86.7,normal,D5
184,206.35,83.5,40.53371,-3.456083,-0.016,0.031,0.023,0.0069999999999999,-1.505,0.01,0.046,90.0,82.3,normal,D5
185,207.33,82.3,40.533714,-3.4563589999999995,-0.022,-0.0069999999999999,0.005,0.003,-1.511,0.004,0.039,90.0,82.3,normal,D5
186,208.38,81.9,40.533714,-3.4566230000000004,-0.034,-0.027,0.008,0.013,-1.519,0.021,0.043,90.0,81.9,normal,D5
187,209.34,81.8,40.53371,-3.456893,-0.003,0.009,0.013,0.023,-1.541,0.0289999999999999,0.048,90.0,81.9,normal,D5
188,210.35,82.3,40.533707,-3.4571650000000003,-0.011,-0.001,0.042,0.018,-1.543,0.023,0.051,90.0,82.3,normal,D5
189,211.36,82.9,40.533707,-3.4574290000000003,-0.002,0.012,-0.006,-0.002,-1.56,0.012,0.051,90.0,82.3,normal,D5
190,212.37,83.7,40.533707,-3.457699,0.0069999999999999,0.017,0.004,0.008,-1.568,0.002,0.044,90.0,83.7,normal,D5
191,213.34,84.4,40.533714,-3.457984,-0.034,-0.006,0.003,0.005,-1.5619999999999998,0.003,0.043,90.0,83.7,normal,D5
192,214.34,85.0,40.53371,-3.4582610000000003,-0.025,-0.015,-0.003,-0.0069999999999999,-1.5719999999999998,0.01,0.045,90.0,85.0,normal,D5
193,215.34,84.9,40.533707,-3.458529,-0.013,-0.006,-0.013,-0.012,-1.568,0.004,0.044,90.0,85.0,normal,D5
194,216.35,86.1,40.53371,-3.458813,0.011,-0.012,-0.002,-0.003,-1.567,0.0069999999999999,0.044,90.0,84.9,normal,D5
195,217.34,86.3,40.533714,-3.4590970000000003,-0.02,0.001,-0.003,-0.0,-1.5659999999999998,0.015,0.046,90.0,86.1,normal,D5
196,218.39,86.8,40.533718,-3.459384,-0.059,-0.002,0.006,0.015,-1.564,0.024,0.049,90.0,86.3,normal,D5
197,219.34,86.8,40.533718,-3.4596730000000004,0.008,0.0289999999999999,-0.001,-0.006,-1.558,0.016,0.051,90.0,86.8,normal,D5
198,220.36,87.5,40.533714,-3.45996,-0.0559999999999999,-0.003,-0.022,-0.006,-1.561,0.016,0.054,90.0,86.8,normal,D5
199,221.35,87.4,40.533714,-3.460257,-0.044,-0.006,-0.0289999999999999,-0.022,-1.5630000000000002,0.015,0.0559999999999999,90.0,87.5,normal,D5
200,222.34,86.7,40.533714,-3.460546,-0.018,0.01,-0.021,-0.021,-1.548,0.008,0.0579999999999999,90.0,87.4,normal,D5
201,223.35,85.7,40.533722,-3.460828,-0.005,-0.0069999999999999,-0.019,-0.013,-1.551,0.01,0.059,90.0,85.7,normal,D5
202,224.34,85.3,40.533722,-3.4611080000000003,-0.011,0.009,0.02,0.012,-1.557,0.0,0.055,90.0,85.7,normal,D5
203,225.35,85.7,40.533726,-3.4613910000000003,-0.046,-0.0289999999999999,0.033,0.015,-1.5719999999999998,0.008,0.051,90.0,85.7,normal,D5
204,226.36,86.1,40.533733000000005,-3.461678,0.02,-0.023,0.01,0.008,-1.577,0.012,0.052,90.0,85.7,normal,D5
205,227.37,87.0,40.533741,-3.461965,0.046,-0.031,0.019,0.011,-1.5830000000000002,0.018,0.0579999999999999,90.0,85.7,normal,D5
206,228.35,87.5,40.533745,-3.462245,0.001,-0.018,-0.009,-0.009,-1.587,0.011,0.06,90.0,87.5,normal,D5
207,229.39,87.9,40.533741,-3.462527,-0.009,0.004,0.019,-0.004,-1.587,0.02,0.062,90.0,87.5,normal,D5
208,230.35,88.7,40.533741,-3.462815,-0.044,0.018,-0.011,-0.012,-1.586,0.0279999999999999,0.063,90.0,87.9,normal,D5
209,231.34,88.7,40.533741,-3.4631,0.0069999999999999,0.017,0.018,0.001,-1.585,0.032,0.063,90.0,88.7,normal,D5
210,232.33,89.4,40.533737,-3.463396,-0.016,0.016,-0.01,-0.01,-1.582,0.022,0.063,90.0,88.7,normal,D5
211,233.36,89.5,40.533741,-3.463689,-0.023,0.0139999999999999,-0.009,-0.008,-1.5719999999999998,0.006,0.059,90.0,89.5,normal,D5
212,234.35,89.8,40.533733000000005,-3.463986,-0.0069999999999999,-0.004,0.002,-0.002,-1.577,0.015,0.0559999999999999,90.0,89.5,normal,D5
213,235.43,89.7,40.533722,-3.464278,0.0069999999999999,-0.005,-0.022,-0.019,-1.561,0.022,0.055,90.0,89.7,normal,D5
214,236.37,88.9,40.533733000000005,-3.4645650000000003,-0.008,0.019,-0.006,-0.0139999999999999,-1.545,0.023,0.048,90.0,89.7,normal,D5
215,237.34,88.1,40.533733000000005,-3.46485,0.035,0.01,0.016,0.0289999999999999,-1.5490000000000002,0.009,0.034,90.0,88.1,normal,D5
216,238.34,88.7,40.533741,-3.465142,-0.027,0.034,0.019,0.012,-1.558,-0.011,0.004,90.0,88.1,normal,D5
217,239.35,87.9,40.533756,-3.465443,0.032,0.006,-0.003,0.002,-1.571,-0.021,-0.035,90.0,87.9,normal,D5
218,240.35,89.3,40.533779,-3.465732,-0.05,-0.006,-0.032,-0.016,-1.578,-0.027,-0.075,90.0,87.9,normal,D5
219,241.36,89.9,40.533806,-3.4660260000000003,0.004,0.01,-0.001,0.013,-1.5719999999999998,-0.034,-0.114,90.0,87.9,normal,D5
220,242.42,90.0,40.533848,-3.46633,0.019,0.001,0.009,0.001,-1.577,-0.06,-0.161,90.0,87.9,normal,D5
221,243.34,90.3,40.533901,-3.466611,-0.013,-0.004,-0.0289999999999999,-0.02,-1.577,-0.071,-0.205,90.0,87.9,normal,D5
222,244.38,90.7,40.533966,-3.466901,-0.042,-0.002,-0.013,-0.0069999999999999,-1.571,-0.076,-0.251,90.0,91.2,normal,D5
223,245.34,90.6,40.534061,-3.4671830000000003,-0.046,-0.024,-0.0,-0.002,-1.5659999999999998,-0.077,-0.292,90.0,91.2,normal,D5
224,246.34,90.5,40.534149,-3.467455,-0.0069999999999999,0.0069999999999999,0.001,-0.0,-1.571,-0.064,-0.327,90.0,91.2,normal,D5
225,247.33,91.2,40.534248,-3.4677230000000003,-0.0289999999999999,0.021,0.039,0.011,-1.568,-0.068,-0.366,90.0,91.2,normal,D5
226,248.37,91.6,40.534355,-3.467988,-0.052,0.02,-0.012,0.005,-1.588,-0.075,-0.409,90.0,91.2,normal,D5
227,249.33,92.5,40.534473,-3.468243,0.004,-0.012,0.003,0.002,-1.589,-0.072,-0.4529999999999999,90.0,92.5,normal,D5
228,250.35,93.2,40.534603,-3.468489,0.023,-0.019,0.002,-0.002,-1.595,-0.071,-0.491,90.0,92.5,normal,D5
229,251.36,93.2,40.534744,-3.468728,-0.017,-0.004,0.004,-0.012,-1.588,-0.067,-0.531,90.0,94.0,normal,D5
230,252.33,94.0,40.534897,-3.46896,0.008,-0.012,-0.012,-0.013,-1.588,-0.08,-0.57,90.0,94.0,normal,D5
231,253.43,93.9,40.535061,-3.469181,-0.123,0.015,-0.017,-0.02,-1.592,-0.075,-0.614,90.0,94.0,normal,D5
232,254.4,95.1,40.535252,-3.469389,-0.11,0.022,0.003,-0.025,-1.592,-0.078,-0.652,100.0,95.1,normal,D5
233,255.33,95.9,40.535439,-3.469574,-0.026,-0.009,-0.02,-0.025,-1.594,-0.072,-0.696,100.0,95.1,normal,D5
234,256.37,96.2,40.535625,-3.469765,-0.049,-0.025,-0.016,-0.019,-1.589,-0.078,-0.74,100.0,95.1,normal,D5
235,257.34,96.6,40.535839,-3.469945,-0.0579999999999999,0.019,-0.011,-0.01,-1.592,-0.079,-0.773,100.0,95.1,normal,D5
236,258.33,96.5,40.536041,-3.4701120000000003,-0.016,-0.022,-0.027,-0.009,-1.586,-0.087,-0.81,100.0,95.1,normal,D5
237,259.36,97.4,40.536255,-3.470264,-0.08,-0.0279999999999999,-0.009,0.005,-1.5759999999999998,-0.088,-0.856,100.0,95.1,normal,D5
238,260.37,99.0,40.536488,-3.470387,-0.06,-0.017,-0.019,-0.008,-1.579,-0.088,-0.887,90.0,99.5,normal,D5
239,261.34,98.1,40.536713,-3.470501,-0.026,0.01,-0.01,-0.0139999999999999,-1.585,-0.088,-0.932,90.0,99.5,normal,D5
240,262.33,98.3,40.536945,-3.470596,0.03,-0.005,-0.026,-0.013,-1.584,-0.095,-0.971,90.0,99.5,normal,D5
241,263.35,98.9,40.537193,-3.470683,0.039,-0.052,0.033,0.012,-1.582,-0.059,-0.986,90.0,99.5,normal,D5
242,264.34,99.5,40.53743,-3.470759,-0.013,-0.033,-0.008,-0.004,-1.584,-0.008,-0.974,90.0,99.5,normal,D5
243,265.35,99.2,40.53767,-3.470846,0.023,-0.019,-0.001,-0.003,-1.5830000000000002,0.0,-0.963,90.0,99.5,normal,D5
244,266.41,99.9,40.537907,-3.47093,-0.004,-0.03,-0.003,-0.0069999999999999,-1.586,0.001,-0.948,90.0,100.5,normal,D5
245,267.34,100.5,40.538151,-3.471013,-0.055,-0.0,-0.024,-0.008,-1.579,0.006,-0.934,90.0,100.5,normal,D5
246,268.42,101.7,40.538399,-3.4710980000000005,-0.019,0.049,-0.006,-0.004,-1.578,-0.001,-0.922,90.0,100.5,normal,D5
247,269.34,101.7,40.538647,-3.4711830000000004,0.044,-0.012,0.035,0.008,-1.575,0.008,-0.916,90.0,101.5,normal,D5
248,270.39,101.5,40.538883,-3.471272,-0.026,0.016,-0.009,0.005,-1.579,0.01,-0.909,90.0,101.5,normal,D5
249,271.34,101.6,40.53915,-3.4713580000000004,0.07,-0.049,0.0069999999999999,-0.01,-1.578,0.018,-0.8909999999999999,90.0,101.6,normal,D5
250,272.37,101.6,40.539398,-3.471439,-0.019,0.025,0.0,-0.012,-1.574,0.008,-0.884,90.0,101.6,normal,D5
251,273.34,102.4,40.53965,-3.4715050000000005,-0.0579999999999999,-0.011,-0.002,-0.009,-1.5659999999999998,0.018,-0.873,90.0,101.6,normal,D5
252,274.35,101.6,40.539906,-3.4715910000000005,0.01,0.013,-0.03,-0.021,-1.5590000000000002,0.011,-0.858,90.0,101.6,normal,D5
253,275.36,101.2,40.540142,-3.4716730000000005,0.024,-0.005,-0.0409999999999999,-0.031,-1.5219999999999998,0.0069999999999999,-0.8490000000000001,90.0,101.6,normal,D5
254,276.33,98.3,40.540371,-3.471753,-0.006,0.009,0.0069999999999999,-0.008,-1.504,0.003,-0.847,90.0,101.6,normal,D5
255,277.34,95.9,40.540607,-3.471824,-0.016,-0.017,-0.0069999999999999,-0.005,-1.4980000000000002,0.0069999999999999,-0.8420000000000001,90.0,101.6,normal,D5
256,278.33,93.6,40.540836,-3.471897,-0.055,-0.011,0.03,0.011,-1.499,0.01,-0.836,90.0,101.6,aggressive,D5
257,279.33,91.4,40.541061,-3.471972,-0.034,0.018,0.009,-0.001,-1.501,0.008,-0.831,90.0,101.6,aggressive,D5
258,280.34,89.6,40.541279,-3.472045,0.017,0.033,0.003,-0.002,-1.508,0.018,-0.8270000000000001,90.0,101.6,aggressive,D5
259,281.36,87.3,40.541489,-3.472118,0.005,0.009,0.0069999999999999,0.001,-1.5,0.009,-0.826,90.0,101.6,aggressive,D5
260,282.35,84.8,40.541691,-3.472189,-0.031,-0.002,0.001,-0.001,-1.514,0.01,-0.8240000000000001,90.0,101.6,aggressive,D5
261,283.35,83.6,40.541885,-3.472254,-0.001,0.012,0.005,0.008,-1.536,0.017,-0.816,-1.0,83.7,aggressive,D5
262,284.35,82.0,40.54208,-3.472316,-0.005,0.013,0.026,0.006,-1.5530000000000002,0.019,-0.813,-1.0,83.7,aggressive,D5
263,285.43,82.0,40.542282,-3.472379,0.01,0.002,0.004,0.006,-1.554,0.01,-0.813,-1.0,83.7,aggressive,D5
264,286.35,81.8,40.54248,-3.472443,0.0289999999999999,0.018,0.026,0.03,-1.564,0.0139999999999999,-0.815,-1.0,83.7,aggressive,D5
265,287.35,82.1,40.542679,-3.472507,0.05,0.001,0.013,0.023,-1.579,0.017,-0.812,-1.0,83.7,aggressive,D5
266,288.37,82.0,40.542889,-3.472579,0.024,0.017,-0.013,-0.0069999999999999,-1.582,0.022,-0.809,-1.0,83.7,aggressive,D5
267,289.36,82.8,40.543087,-3.4726410000000003,-0.0279999999999999,0.005,0.012,0.011,-1.584,0.02,-0.802,-1.0,83.7,aggressive,D5
268,290.42,83.5,40.543289,-3.472717,-0.055,0.033,0.027,0.015,-1.586,0.016,-0.8,-1.0,83.7,aggressive,D5
269,291.37,83.7,40.543495,-3.472795,-0.035,0.021,0.009,0.005,-1.589,0.003,-0.802,-1.0,83.7,aggressive,D5
270,292.41,83.4,40.543697,-3.472864,-0.009,-0.004,-0.006,-0.012,-1.5659999999999998,-0.002,-0.804,-1.0,83.7,aggressive,D5
271,293.35,82.7,40.543903,-3.472923,-0.018,0.003,0.011,0.0069999999999999,-1.5630000000000002,0.015,-0.8059999999999999,-1.0,83.7,aggressive,D5
272,294.42,81.1,40.544102,-3.472986,-0.015,-0.037,-0.001,-0.002,-1.568,0.009,-0.8079999999999999,-1.0,83.7,aggressive,D5
273,295.35,81.5,40.544304,-3.473053,-0.022,0.001,-0.019,-0.009,-1.569,0.022,-0.799,-1.0,83.7,aggressive,D5
274,296.36,82.1,40.544502,-3.473114,-0.0139999999999999,0.005,0.01,0.002,-1.581,0.027,-0.795,-1.0,83.7,aggressive,D5
275,297.37,81.6,40.544697,-3.473178,-0.027,0.012,0.001,-0.005,-1.585,0.0139999999999999,-0.7959999999999999,-1.0,83.7,aggressive,D5
276,298.33,81.7,40.544891,-3.473242,-0.0139999999999999,-0.0139999999999999,0.018,-0.016,-1.587,-0.002,-0.797,-1.0,83.7,aggressive,D5
277,299.38,81.1,40.54509,-3.4733050000000003,-0.01,-0.0139999999999999,-0.017,-0.004,-1.58,-0.008,-0.7959999999999999,-1.0,83.7,aggressive,D5
278,300.35,81.3,40.545296,-3.473381,-0.019,-0.002,-0.004,0.006,-1.5730000000000002,-0.006,-0.795,-1.0,77.0,aggressive,D5
279,301.38,81.7,40.54549,-3.473443,-0.0139999999999999,0.002,-0.019,-0.011,-1.574,-0.0069999999999999,-0.794,-1.0,77.0,aggressive,D5
280,302.35,80.3,40.545692,-3.473513,-0.025,-0.004,-0.024,-0.015,-1.564,-0.013,-0.7929999999999999,-1.0,77.0,aggressive,D5
281,303.36,80.2,40.545883,-3.473574,-0.084,0.0279999999999999,0.018,0.01,-1.567,-0.015,-0.79,-1.0,77.0,aggressive,D5
282,304.39,79.9,40.546078,-3.473644,-0.037,-0.021,0.01,-0.004,-1.5719999999999998,-0.021,-0.7909999999999999,-1.0,77.0,aggressive,D5
283,305.33,80.0,40.546272,-3.473707,0.038,-0.036,-0.081,-0.055,-1.558,-0.02,-0.785,-1.0,77.0,aggressive,D5
284,306.36,78.6,40.546471,-3.4737660000000004,0.025,0.006,-0.0289999999999999,-0.002,-1.541,-0.016,-0.775,-1.0,77.0,aggressive,D5
285,307.36,76.5,40.546654,-3.473843,0.036,-0.021,0.046,0.054,-1.539,-0.023,-0.7709999999999999,-1.0,77.0,aggressive,D5
286,308.36,77.0,40.546841,-3.473913,-0.013,0.012,0.008,0.023,-1.5730000000000002,-0.021,-0.764,-1.0,77.0,aggressive,D5
287,309.34,78.2,40.547031,-3.473986,-0.032,0.002,0.021,0.008,-1.592,-0.018,-0.755,-1.0,77.0,aggressive,D5
288,310.34,78.0,40.547211,-3.474063,-0.047,0.012,-0.013,-0.0069999999999999,-1.595,-0.016,-0.743,90.0,78.0,aggressive,D5
289,311.33,78.2,40.547394,-3.474149,0.031,0.008,0.01,-0.003,-1.599,-0.017,-0.732,90.0,78.0,aggressive,D5
290,312.33,78.2,40.547581,-3.4742300000000004,-0.037,0.006,0.008,0.008,-1.6,-0.022,-0.725,90.0,78.2,aggressive,D5
291,313.39,79.2,40.54776,-3.47432,-0.025,0.021,0.009,0.008,-1.589,-0.018,-0.7140000000000001,90.0,78.2,aggressive,D5
292,314.33,79.2,40.547947,-3.474416,-0.019,-0.015,0.048,0.026,-1.575,-0.0139999999999999,-0.705,90.0,79.2,aggressive,D5
293,315.35,80.2,40.548134000000005,-3.474518,-0.006,-0.006,0.016,0.0069999999999999,-1.584,-0.016,-0.696,90.0,79.2,aggressive,D5
294,316.34,80.2,40.548317,-3.474623,-0.016,0.008,-0.002,-0.002,-1.592,-0.006,-0.69,90.0,80.2,aggressive,D5
295,317.33,80.4,40.548504,-3.47473,-0.017,-0.005,0.032,0.008,-1.587,-0.017,-0.685,90.0,80.2,aggressive,D5
296,318.36,80.0,40.548683,-3.474844,0.018,-0.002,-0.012,0.0,-1.586,-0.013,-0.679,90.0,80.0,aggressive,D5
297,319.42,79.3,40.548866,-3.474952,-0.033,0.006,-0.0279999999999999,-0.013,-1.588,-0.008,-0.669,90.0,80.0,aggressive,D5
298,320.33,80.3,40.549042,-3.4750730000000005,-0.034,0.022,-0.02,-0.011,-1.581,-0.02,-0.667,90.0,80.3,aggressive,D5
299,321.33,80.4,40.549221,-3.475198,-0.0139999999999999,0.013,0.016,-0.005,-1.5830000000000002,-0.018,-0.669,90.0,80.3,aggressive,D5
300,322.34,80.6,40.549404,-3.475324,-0.0139999999999999,-0.0,0.011,0.003,-1.577,-0.02,-0.6679999999999999,90.0,80.6,aggressive,D5
301,323.33,79.7,40.549583,-3.4754440000000004,-0.035,0.015,-0.0579999999999999,-0.055,-1.564,-0.01,-0.6629999999999999,90.0,80.6,aggressive,D5
302,324.38,78.3,40.549747,-3.475576,-0.003,0.02,-0.025,-0.031,-1.531,-0.018,-0.6609999999999999,90.0,79.7,aggressive,D5
303,325.36,75.1,40.549908,-3.475708,-0.038,0.011,-0.0279999999999999,0.004,-1.527,-0.022,-0.66,90.0,75.1,aggressive,D5
304,326.37,73.8,40.550072,-3.4758410000000004,0.0139999999999999,0.003,0.0289999999999999,0.016,-1.5490000000000002,-0.025,-0.664,90.0,75.1,aggressive,D5
305,327.34,74.1,40.550224,-3.475972,-0.032,-0.002,0.002,-0.001,-1.577,-0.0279999999999999,-0.669,90.0,74.4,aggressive,D5
306,328.35,74.4,40.550377000000005,-3.4761,-0.042,-0.002,-0.01,-0.008,-1.589,-0.024,-0.67,90.0,74.4,aggressive,D5
307,329.34,74.1,40.550529,-3.476237,-0.0279999999999999,-0.003,-0.001,-0.001,-1.588,-0.025,-0.669,90.0,74.1,aggressive,D5
308,330.37,74.3,40.55069,-3.476375,-0.026,0.0139999999999999,-0.0069999999999999,0.002,-1.594,-0.023,-0.664,90.0,74.1,aggressive,D5
309,331.34,75.3,40.550838,-3.476514,-0.03,-0.004,0.009,0.0069999999999999,-1.596,-0.021,-0.6609999999999999,90.0,74.1,aggressive,D5
310,332.39,75.8,40.550983,-3.476661,-0.025,-0.004,0.022,0.008,-1.6,-0.0279999999999999,-0.664,90.0,75.8,aggressive,D5
311,333.43,76.8,40.551136,-3.476815,0.004,-0.003,0.011,0.001,-1.608,-0.035,-0.667,90.0,75.8,aggressive,D5
312,334.35,77.7,40.551289,-3.4769690000000004,-0.005,-0.005,0.01,0.0,-1.61,-0.032,-0.669,90.0,78.2,aggressive,D5
313,335.36,78.2,40.551434,-3.4771400000000003,-0.013,-0.05,-0.0139999999999999,0.002,-1.605,-0.025,-0.6679999999999999,90.0,78.2,normal,D5
314,336.4,79.6,40.551579,-3.477307,-0.002,-0.043,0.002,0.0,-1.6,-0.017,-0.659,90.0,80.4,normal,D5
315,337.34,80.4,40.551727,-3.477485,-0.036,-0.013,0.003,0.006,-1.599,-0.018,-0.653,90.0,80.4,normal,D5
316,338.42,81.8,40.551876,-3.477663,0.013,0.012,0.0069999999999999,0.0139999999999999,-1.597,-0.024,-0.652,90.0,81.8,normal,D5
317,339.37,81.7,40.552025,-3.477841,-0.023,0.0139999999999999,-0.04,-0.024,-1.59,-0.037,-0.6559999999999999,90.0,82.2,normal,D5
318,340.35,82.2,40.552166,-3.478025,-0.042,-0.017,-0.003,-0.01,-1.587,-0.032,-0.659,90.0,82.2,normal,D5
319,341.35,81.6,40.552303,-3.478215,-0.047,0.004,-0.037,-0.027,-1.582,-0.0289999999999999,-0.6559999999999999,90.0,81.6,normal,D5
320,342.37,80.0,40.552448,-3.478407,0.001,-0.004,-0.036,-0.044,-1.537,-0.01,-0.648,90.0,81.6,normal,D5
321,343.35,77.5,40.552589000000005,-3.478584,-0.003,0.003,0.0139999999999999,0.017,-1.52,-0.009,-0.64,90.0,77.5,normal,D5
322,344.34,75.9,40.552719,-3.478774,-0.018,0.033,0.017,0.0289999999999999,-1.5319999999999998,-0.026,-0.637,90.0,77.5,normal,D5
323,345.35,75.9,40.552845,-3.47896,0.009,0.021,0.033,0.017,-1.5659999999999998,-0.051,-0.655,90.0,77.5,normal,D5
324,346.33,76.1,40.552967,-3.47915,-0.01,-0.0139999999999999,0.024,0.016,-1.5659999999999998,-0.048,-0.664,90.0,77.5,normal,D5
325,347.35,75.7,40.553093,-3.479339,-0.055,0.02,-0.001,-0.01,-1.5759999999999998,-0.026,-0.662,90.0,77.5,normal,D5
326,348.42,75.7,40.553219,-3.479525,0.021,0.008,0.005,0.009,-1.579,-0.016,-0.653,90.0,77.5,normal,D5
327,349.35,76.8,40.553341,-3.479721,0.003,-0.022,0.018,0.0139999999999999,-1.584,-0.01,-0.645,90.0,77.5,normal,D5
328,350.35,77.7,40.553455,-3.479954,-0.017,0.021,-0.021,-0.009,-1.592,-0.015,-0.64,90.0,84.8,normal,D5
329,351.33,77.9,40.553577,-3.480148,-0.006,-0.004,-0.0069999999999999,0.005,-1.596,-0.031,-0.6459999999999999,90.0,84.8,normal,D5
330,352.43,79.2,40.553703000000006,-3.480339,-0.036,-0.042,-0.016,-0.002,-1.596,-0.024,-0.643,90.0,84.8,normal,D5
331,353.37,79.6,40.553825,-3.480542,-0.051,-0.003,-0.001,0.003,-1.592,-0.025,-0.64,90.0,84.8,normal,D5
332,354.36,81.0,40.553925,-3.480767,-0.026,0.003,0.003,0.0,-1.586,-0.0289999999999999,-0.639,90.0,84.8,normal,D5
333,355.33,84.8,40.554031,-3.481,-0.065,-0.01,-0.003,0.002,-1.5830000000000002,-0.034,-0.6409999999999999,90.0,84.8,normal,D5
334,356.44,82.5,40.554138,-3.4812410000000003,-0.01,0.009,-0.012,-0.0139999999999999,-1.5619999999999998,-0.025,-0.6409999999999999,90.0,84.8,normal,D5
335,357.35,82.7,40.554237,-3.4814830000000003,-0.037,0.017,-0.004,-0.02,-1.564,-0.024,-0.642,90.0,84.8,normal,D5
336,358.34,83.1,40.554337,-3.48172,0.0139999999999999,0.01,-0.035,-0.034,-1.5530000000000002,-0.011,-0.642,90.0,80.5,normal,D5
337,359.34,81.4,40.554436,-3.481964,-0.005,-0.0139999999999999,-0.023,-0.006,-1.535,-0.015,-0.637,90.0,80.5,normal,D5
338,360.33,80.5,40.554523,-3.482209,-0.021,0.016,0.001,0.008,-1.539,-0.017,-0.636,90.0,80.5,normal,D5
339,361.36,79.6,40.554619,-3.482447,0.001,0.017,0.012,0.004,-1.546,-0.018,-0.636,90.0,80.5,normal,D5
340,362.36,79.3,40.554714,-3.482689,-0.021,0.017,-0.018,-0.005,-1.5490000000000002,-0.016,-0.632,90.0,79.2,normal,D5
341,363.34,79.2,40.554794,-3.48292,-0.071,0.018,-0.015,-0.003,-1.56,-0.0139999999999999,-0.632,90.0,79.2,normal,D5
342,364.35,79.2,40.554871,-3.483149,-0.001,0.003,0.01,0.009,-1.5719999999999998,-0.013,-0.629,90.0,79.2,normal,D5
343,365.36,79.7,40.554951,-3.483391000000001,-0.016,-0.001,-0.003,-0.008,-1.5759999999999998,-0.019,-0.63,90.0,79.7,normal,D5
344,366.41,80.8,40.555023,-3.48363,-0.035,-0.009,0.0139999999999999,0.0069999999999999,-1.5719999999999998,-0.023,-0.63,90.0,79.7,normal,D5
345,367.36,80.7,40.555092,-3.483874,-0.042,0.009,0.01,0.003,-1.5719999999999998,-0.0289999999999999,-0.632,90.0,80.7,normal,D5
346,368.34,81.2,40.555172,-3.484124,-0.009,0.003,0.008,0.005,-1.5730000000000002,-0.035,-0.635,90.0,80.7,normal,D5
347,369.34,82.4,40.555244,-3.484369,-0.0279999999999999,-0.008,0.011,0.003,-1.608,-0.035,-0.635,90.0,80.7,normal,D5
348,370.35,82.9,40.555305,-3.4846220000000003,0.023,-0.023,0.01,0.002,-1.584,-0.033,-0.623,90.0,82.9,normal,D5
349,371.36,83.9,40.555386,-3.484893,-0.02,-0.003,-0.042,-0.022,-1.608,-0.026,-0.623,90.0,82.9,normal,D5
350,372.36,84.3,40.555443,-3.485156,-0.052,0.004,-0.024,-0.0139999999999999,-1.606,-0.023,-0.617,90.0,82.9,normal,D5
351,373.36,85.5,40.5555,-3.4854230000000004,-0.002,0.016,-0.022,-0.013,-1.61,-0.0139999999999999,-0.612,90.0,82.9,normal,D5
352,374.38,86.5,40.555557,-3.485698,-0.011,0.009,0.011,-0.006,-1.601,-0.025,-0.616,90.0,86.8,normal,D5
353,375.33,86.8,40.555607,-3.485975,-0.05,0.019,-0.016,-0.004,-1.6030000000000002,-0.019,-0.617,90.0,86.8,normal,D5
354,376.35,87.5,40.555653,-3.486242,-0.015,-0.004,0.001,-0.009,-1.6,-0.03,-0.618,90.0,86.8,normal,D5
355,377.38,87.9,40.555698,-3.4865150000000003,0.009,-0.018,-0.0,-0.009,-1.605,-0.03,-0.615,90.0,86.8,normal,D5
356,378.33,88.5,40.555733,-3.486803,-0.031,0.005,0.01,-0.003,-1.599,-0.022,-0.613,90.0,86.8,normal,D5
357,379.33,89.6,40.555767,-3.487095,-0.035,0.019,-0.0069999999999999,-0.011,-1.598,-0.013,-0.615,90.0,86.8,normal,D5
358,380.33,90.4,40.555801,-3.487388,-0.021,-0.0139999999999999,-0.022,-0.01,-1.5930000000000002,-0.017,-0.612,90.0,86.8,normal,D5
359,381.33,89.7,40.555832,-3.48768,0.002,0.0139999999999999,-0.031,-0.03,-1.579,-0.009,-0.604,90.0,86.8,normal,D5
360,382.41,89.4,40.555866,-3.4879830000000003,-0.06,-0.012,0.031,-0.002,-1.558,-0.013,-0.596,90.0,86.8,normal,D5
361,383.33,86.6,40.555885,-3.488261,0.0069999999999999,-0.017,-0.016,-0.006,-1.558,-0.026,-0.589,90.0,86.8,normal,D5
362,384.33,85.4,40.555897,-3.488545,-0.006,-0.003,0.001,-0.006,-1.558,-0.046,-0.575,90.0,86.8,normal,D5
363,385.34,84.7,40.555908,-3.4888190000000003,-0.02,-0.0069999999999999,-0.023,-0.012,-1.557,-0.052,-0.5660000000000001,90.0,86.8,normal,D5
364,386.33,83.9,40.555916,-3.489099,-0.022,-0.01,-0.0289999999999999,-0.011,-1.564,-0.034,-0.5539999999999999,90.0,86.8,normal,D5
365,387.33,84.4,40.555916,-3.4893730000000005,0.009,-0.0069999999999999,0.013,0.006,-1.577,-0.022,-0.535,90.0,86.8,normal,D5
366,388.34,84.2,40.555901,-3.489647,-0.004,0.011,-0.0409999999999999,-0.019,-1.5730000000000002,-0.016,-0.516,90.0,86.8,normal,D5
367,389.36,84.0,40.555889,-3.48992,0.055,0.001,0.01,0.005,-1.582,-0.037,-0.507,90.0,86.8,normal,D5
368,390.39,83.2,40.555866,-3.490193,-0.077,-0.0069999999999999,-0.026,-0.019,-1.581,-0.004,-0.489,90.0,86.8,normal,D5
369,391.34,84.7,40.555828000000005,-3.490463,0.032,0.003,-0.039,-0.034,-1.5659999999999998,-0.009,-0.472,90.0,86.8,normal,D5
370,392.35,82.9,40.555794,-3.490736,-0.015,0.047,-0.053,-0.045,-1.555,-0.018,-0.455,90.0,86.8,normal,D5
371,393.34,80.7,40.555756,-3.490997,0.009,0.035,-0.039,-0.019,-1.538,-0.023,-0.4479999999999999,90.0,86.8,normal,D5
372,394.34,78.7,40.55571,-3.4912400000000003,-0.0289999999999999,-0.004,-0.013,-0.021,-1.5319999999999998,-0.015,-0.439,90.0,86.8,normal,D5
373,395.4,77.2,40.55566,-3.491489,0.026,0.013,0.001,0.008,-1.538,-0.025,-0.43,90.0,86.8,normal,D5
374,396.34,76.1,40.555599,-3.491735,-0.024,0.0279999999999999,0.002,0.0069999999999999,-1.551,-0.037,-0.425,90.0,86.8,normal,D5
375,397.34,75.7,40.555531,-3.491969,-0.025,0.006,0.068,0.046,-1.565,-0.046,-0.434,90.0,86.8,normal,D5
376,398.34,77.0,40.555462,-3.492198,-0.006,-0.011,0.02,0.022,-1.598,-0.036,-0.436,90.0,86.8,normal,D5
377,399.33,78.0,40.555386,-3.492438,-0.027,-0.013,0.0069999999999999,0.018,-1.601,-0.021,-0.427,90.0,86.8,normal,D5
378,400.44,79.3,40.555309,-3.492684,-0.0819999999999999,0.004,0.001,-0.024,-1.597,0.0069999999999999,-0.419,90.0,86.8,normal,D5
379,401.34,79.3,40.555222,-3.492913,0.016,0.032,0.0069999999999999,-0.005,-1.589,0.008,-0.42,90.0,86.8,normal,D5
380,402.34,80.0,40.555134,-3.49316,-0.019,0.038,-0.025,-0.002,-1.57,0.006,-0.433,90.0,86.8,normal,D5
381,403.35,79.2,40.555038,-3.493393,-0.069,0.052,-0.0279999999999999,-0.024,-1.57,0.013,-0.451,90.0,86.8,normal,D5
382,404.34,79.4,40.554947,-3.493642,-0.045,0.0279999999999999,-0.006,-0.011,-1.556,-0.0,-0.486,90.0,86.8,normal,D5
383,405.35,79.3,40.554855,-3.49386,0.002,-0.005,0.0139999999999999,0.017,-1.561,-0.006,-0.528,90.0,86.8,normal,D5
384,406.35,78.7,40.554771,-3.4940870000000004,0.015,-0.013,-0.009,0.005,-1.5590000000000002,-0.005,-0.574,90.0,86.8,normal,D5
385,407.4,78.2,40.554691,-3.4943160000000004,0.0139999999999999,0.008,0.005,0.004,-1.555,-0.001,-0.625,-1.0,76.6,normal,D5
386,408.35,78.1,40.554623,-3.4945690000000003,-0.042,-0.02,-0.032,-0.015,-1.567,-0.002,-0.6779999999999999,-1.0,76.6,normal,D5
387,409.35,77.7,40.554546,-3.494792,-0.15,0.0,-0.042,-0.039,-1.575,-0.018,-0.735,-1.0,76.6,normal,D5
388,410.35,77.8,40.554478,-3.495029,-0.016,0.002,0.003,0.006,-1.584,-0.031,-0.787,-1.0,76.6,normal,D5
389,411.41,78.7,40.55442,-3.49528,-0.001,-0.023,-0.011,0.0139999999999999,-1.6030000000000002,-0.018,-0.833,-1.0,76.6,normal,D5
390,412.35,78.2,40.554363,-3.495531,0.004,0.006,-0.021,-0.016,-1.606,-0.04,-0.88,-1.0,76.6,normal,D5
391,413.35,80.3,40.554321,-3.49579,-0.024,-0.009,0.019,-0.006,-1.602,-0.0409999999999999,-0.923,-1.0,76.6,normal,D5
392,414.38,81.1,40.554283,-3.49605,0.059,-0.061,0.009,0.0139999999999999,-1.605,-0.024,-0.965,-1.0,76.6,normal,D5
393,415.37,82.0,40.554249,-3.496312,0.001,0.004,0.023,0.02,-1.59,-0.022,-1.001,-1.0,76.6,normal,D5
394,416.35,82.6,40.554234,-3.496583,-0.034,0.005,0.036,0.024,-1.591,-0.025,-1.039,-1.0,76.6,normal,D5
395,417.35,83.0,40.554218,-3.4968550000000005,-0.026,0.004,0.004,-0.019,-1.609,-0.037,-1.078,-1.0,76.6,normal,D5
396,418.36,84.1,40.554211,-3.497135,0.006,-0.019,-0.047,-0.065,-1.574,-0.036,-1.112,-1.0,76.6,normal,D5
397,419.35,81.6,40.554203,-3.497407,0.012,-0.04,-0.021,-0.0139999999999999,-1.557,-0.025,-1.131,-1.0,76.6,normal,D5
398,420.34,80.4,40.554211,-3.497671,-0.02,-0.025,-0.046,-0.023,-1.544,-0.034,-1.157,-1.0,76.6,normal,D5
399,421.34,80.1,40.554226,-3.497921,-0.011,-0.003,-0.0,0.01,-1.538,-0.05,-1.195,-1.0,76.6,normal,D5
400,422.4,80.1,40.554253,-3.4981800000000005,-0.072,0.009,0.026,0.0289999999999999,-1.551,-0.046,-1.228,-1.0,76.6,normal,D5
401,423.33,80.3,40.554287,-3.498443,-0.0139999999999999,-0.012,0.015,0.01,-1.5530000000000002,-0.036,-1.249,-1.0,76.6,normal,D5
402,424.36,80.7,40.554329,-3.498703,-0.0139999999999999,-0.025,-0.01,0.009,-1.569,-0.035,-1.259,-1.0,76.6,normal,D5
403,425.36,81.0,40.554375,-3.498977,-0.01,-0.011,-0.017,-0.009,-1.581,-0.053,-1.27,-1.0,76.6,normal,D5
404,426.36,80.4,40.554424,-3.499244,0.047,-0.036,-0.03,-0.032,-1.558,-0.077,-1.278,-1.0,76.6,normal,D5
405,427.34,79.2,40.554474,-3.4995,0.036,-0.045,0.006,0.003,-1.5019999999999998,-0.036,-1.269,-1.0,76.6,normal,D5
406,428.33,78.9,40.554535,-3.499747,0.015,-0.031,0.031,0.022,-1.51,0.035,-1.245,-1.0,76.6,normal,D5
407,429.45,78.6,40.554588,-3.4999860000000003,-0.091,0.031,0.033,-0.0,-1.515,0.0579999999999999,-1.222,-1.0,76.6,normal,D5
408,430.33,77.8,40.554642,-3.500234,-0.0,0.093,-0.01,-0.001,-1.52,0.03,-1.219,-1.0,76.6,normal,D5
409,431.33,77.3,40.554703,-3.5004800000000005,-0.032,0.059,-0.0,-0.006,-1.51,-0.096,-1.293,-1.0,76.6,normal,D5
410,432.33,77.0,40.554783,-3.5007050000000004,-0.0289999999999999,-0.015,-0.001,-0.003,-1.509,-0.123,-1.355,-1.0,76.6,normal,D5
411,433.34,76.8,40.554867,-3.500928,-0.001,-0.03,-0.015,-0.008,-1.519,-0.135,-1.4,-1.0,76.6,normal,D5
412,434.35,76.5,40.554966,-3.501138,0.023,-0.0289999999999999,0.042,0.03,-1.51,-0.111,-1.4269999999999998,-1.0,76.6,normal,D5
413,435.35,76.8,40.555069,-3.5013410000000005,0.0069999999999999,-0.032,0.0139999999999999,0.013,-1.513,-0.085,-1.429,-1.0,76.6,normal,D5
414,436.33,76.6,40.55518,-3.501549,-0.034,-0.047,0.022,0.015,-1.508,-0.079,-1.4340000000000002,-1.0,76.6,normal,D5
415,437.33,77.3,40.555294,-3.50176,0.035,-0.078,0.021,-0.003,-1.518,-0.049,-1.415,-1.0,76.6,normal,D5
416,438.34,76.7,40.555405,-3.501961,0.004,-0.021,0.026,0.02,-1.511,-0.0279999999999999,-1.3869999999999998,90.0,77.4,normal,D5
417,439.36,77.4,40.555515,-3.5021730000000004,-0.0069999999999999,-0.031,0.005,0.002,-1.5219999999999998,-0.012,-1.359,90.0,77.4,normal,D5
418,440.34,77.4,40.55563,-3.502375,-0.0,-0.051,-0.021,0.003,-1.524,-0.011,-1.327,90.0,77.4,normal,D5
419,441.34,78.3,40.555733,-3.502592,-0.02,-0.016,0.001,0.004,-1.521,0.013,-1.287,90.0,77.4,normal,D5
420,442.33,77.9,40.555836,-3.502815,-0.016,-0.005,-0.017,-0.012,-1.52,0.022,-1.252,90.0,77.9,normal,D5
421,443.34,78.8,40.555935,-3.503042,-0.06,0.0139999999999999,-0.004,0.009,-1.5119999999999998,0.035,-1.211,90.0,77.9,normal,D5
422,444.33,77.6,40.556026,-3.503275,0.022,0.026,0.002,-0.002,-1.524,0.031,-1.181,90.0,77.6,normal,D5
423,445.34,77.4,40.556114,-3.503499,-0.073,0.008,0.008,-0.005,-1.5219999999999998,0.015,-1.155,90.0,77.6,normal,D5
424,446.34,77.5,40.556202,-3.5037230000000004,-0.045,-0.01,0.005,0.0069999999999999,-1.516,0.008,-1.133,90.0,77.5,normal,D5
425,447.35,78.4,40.556282,-3.503961,-0.005,-0.009,-0.011,-0.005,-1.523,0.019,-1.1,90.0,78.4,normal,D5
426,448.34,78.2,40.556355,-3.504205,-0.026,-0.02,0.008,-0.004,-1.523,0.02,-1.078,90.0,78.4,normal,D5
427,449.34,77.8,40.556423,-3.5044440000000003,-0.018,0.012,-0.01,-0.008,-1.516,0.023,-1.053,90.0,78.2,normal,D5
428,450.41,78.2,40.55648,-3.504694,-0.083,0.011,-0.005,-0.018,-1.519,0.035,-1.028,90.0,78.2,normal,D5
429,451.34,78.0,40.556541,-3.504931,-0.049,0.001,0.003,-0.0069999999999999,-1.529,0.038,-1.008,90.0,78.2,normal,D5
430,452.35,78.1,40.556587,-3.505171,0.004,0.009,0.022,0.001,-1.533,0.0289999999999999,-0.992,90.0,78.0,normal,D5
431,453.34,78.2,40.556633000000005,-3.505418,0.037,-0.0139999999999999,0.012,-0.01,-1.526,0.015,-0.98,90.0,78.2,normal,D5
432,454.35,75.9,40.556671,-3.50566,0.005,-0.004,-0.006,-0.001,-1.524,0.011,-0.97,90.0,78.2,normal,D5
433,455.36,76.9,40.556713,-3.5059,0.011,0.0069999999999999,-0.008,-0.015,-1.535,0.019,-0.96,90.0,75.9,normal,D5
434,456.35,78.2,40.556740000000005,-3.506165,-0.0069999999999999,0.003,0.005,-0.0,-1.528,0.009,-0.955,90.0,78.2,normal,D5
435,457.35,78.2,40.556763,-3.506419,-0.016,0.009,0.001,-0.0,-1.5119999999999998,0.001,-0.95,90.0,78.2,normal,D5
436,458.35,78.6,40.556778,-3.506674,-0.038,-0.006,0.015,0.018,-1.5319999999999998,0.0069999999999999,-0.943,90.0,78.6,normal,D5
437,459.34,79.4,40.556782,-3.506926,-0.043,0.01,-0.012,-0.013,-1.543,0.01,-0.934,90.0,78.6,normal,D5
438,460.35,80.4,40.556786,-3.50719,-0.01,-0.017,0.006,-0.011,-1.55,0.026,-0.923,90.0,80.4,normal,D5
439,461.35,81.3,40.556782,-3.507464,-0.021,0.02,-0.023,-0.016,-1.528,0.035,-0.916,90.0,81.3,normal,D5
440,462.41,81.3,40.556774,-3.507729,-0.0139999999999999,0.026,0.0279999999999999,0.005,-1.517,0.037,-0.92,90.0,81.3,normal,D5
441,463.35,81.0,40.556759,-3.507996,0.026,0.0409999999999999,-0.019,-0.01,-1.519,0.021,-0.934,90.0,81.3,normal,D5
442,464.39,80.9,40.556751,-3.508264,-0.025,0.049,0.003,-0.001,-1.516,-0.0,-0.964,90.0,81.6,normal,D5
443,465.35,81.6,40.556740000000005,-3.5085260000000003,-0.004,0.033,-0.012,-0.012,-1.524,-0.012,-0.998,90.0,81.6,normal,D5
444,466.35,81.0,40.556728,-3.5087839999999995,-0.064,-0.005,-0.027,-0.018,-1.525,-0.013,-1.034,90.0,81.0,normal,D5
445,467.35,81.1,40.556732,-3.5090550000000005,0.001,0.0139999999999999,-0.019,-0.01,-1.5219999999999998,-0.015,-1.08,90.0,81.0,normal,D5
446,468.35,81.2,40.556740000000005,-3.509317,-0.046,0.017,-0.026,-0.0279999999999999,-1.525,-0.0279999999999999,-1.13,90.0,81.1,normal,D5
447,469.33,81.6,40.556747,-3.509584,0.026,0.019,0.013,0.015,-1.5219999999999998,-0.054,-1.183,90.0,82.4,normal,D5
448,470.35,82.4,40.556763,-3.509853,-0.038,0.018,0.024,0.015,-1.529,-0.057,-1.233,90.0,82.4,normal,D5
449,471.44,81.1,40.556778,-3.5101120000000003,0.008,-0.023,-0.004,-0.001,-1.543,-0.05,-1.273,90.0,82.4,normal,D5
450,472.36,83.5,40.556808,-3.510382,-0.033,0.015,-0.013,-0.006,-1.545,-0.068,-1.31,90.0,82.4,normal,D5
451,473.35,84.9,40.55685,-3.510648,-0.015,-0.012,-0.019,-0.018,-1.5419999999999998,-0.063,-1.346,90.0,82.4,normal,D5
452,474.37,85.3,40.556896,-3.51092,0.018,-0.0,-0.015,-0.02,-1.526,-0.057,-1.378,90.0,84.5,normal,D5
453,475.35,84.9,40.55695,-3.51119,-0.004,-0.0069999999999999,0.003,-0.004,-1.513,-0.048,-1.408,90.0,84.5,normal,D5
454,476.34,84.5,40.557018,-3.511461,-0.009,0.006,-0.0069999999999999,-0.005,-1.521,-0.052,-1.431,90.0,84.5,normal,D5
455,477.42,84.9,40.557091,-3.511724,-0.018,0.035,0.003,0.003,-1.511,-0.053,-1.452,90.0,84.9,normal,D5
456,478.37,84.6,40.557171,-3.511981,-0.003,-0.009,0.0069999999999999,-0.011,-1.511,-0.0579999999999999,-1.47,90.0,84.9,normal,D5
457,479.43,84.5,40.557255,-3.512233,-0.044,-0.015,0.011,0.017,-1.51,-0.071,-1.49,90.0,84.3,normal,D5
458,480.4,84.3,40.55735,-3.512487,-0.002,-0.003,-0.005,-0.003,-1.507,-0.073,-1.508,90.0,84.3,normal,D5
459,481.36,84.2,40.557446,-3.512734,-0.01,0.0,-0.011,-0.019,-1.506,-0.067,-1.5219999999999998,90.0,84.3,normal,D5
460,482.33,84.5,40.557552,-3.512976,-0.043,0.0139999999999999,0.01,0.0069999999999999,-1.507,-0.074,-1.534,90.0,84.5,normal,D5
461,483.33,83.8,40.557663,-3.5132190000000003,-0.066,0.013,0.012,-0.0139999999999999,-1.514,-0.065,-1.5490000000000002,90.0,84.5,normal,D5
462,484.43,84.5,40.557781,-3.513444,0.02,-0.005,-0.016,0.006,-1.517,-0.068,-1.5630000000000002,90.0,84.3,normal,D5
463,485.37,84.3,40.557903,-3.513671,-0.015,0.002,0.003,-0.0,-1.516,-0.078,-1.578,90.0,84.3,normal,D5
464,486.33,84.2,40.558033,-3.513893,-0.032,-0.019,-0.019,-0.016,-1.517,-0.074,-1.591,90.0,84.3,normal,D5
465,487.36,84.0,40.558174,-3.514111,0.011,-0.042,-0.016,-0.009,-1.525,-0.06,-1.602,90.0,84.0,normal,D5
466,488.33,83.9,40.558319,-3.514314,-0.018,-0.001,0.004,-0.005,-1.515,-0.03,-1.599,90.0,84.0,normal,D5
467,489.36,83.6,40.558464,-3.514511,-0.013,0.0139999999999999,-0.012,-0.02,-1.539,-0.035,-1.594,90.0,84.0,normal,D5
468,490.35,83.4,40.558613,-3.5147,-0.019,0.04,-0.023,-0.019,-1.5319999999999998,-0.055,-1.599,90.0,84.0,normal,D5
469,491.33,82.9,40.558762,-3.5148839999999995,0.013,-0.015,0.009,-0.018,-1.539,-0.0559999999999999,-1.616,90.0,84.0,normal,D5
470,492.35,82.5,40.558918,-3.515052,-0.034,-0.011,-0.004,-0.004,-1.538,-0.068,-1.629,90.0,84.0,normal,D5
471,493.34,82.6,40.559082,-3.515216000000001,-0.033,0.0069999999999999,0.02,0.022,-1.525,-0.075,-1.639,90.0,84.0,normal,D5
472,494.41,82.2,40.559246,-3.515372,0.034,-0.0069999999999999,-0.02,-0.004,-1.536,-0.054,-1.643,90.0,80.8,normal,D5
473,495.33,81.8,40.559418,-3.5155230000000004,0.001,-0.018,-0.005,0.008,-1.528,-0.045,-1.645,90.0,80.8,normal,D5
474,496.38,82.9,40.559597,-3.515668,-0.024,-0.008,-0.016,-0.017,-1.521,-0.05,-1.648,90.0,80.8,normal,D5
475,497.35,81.6,40.559769,-3.515791000000001,0.004,0.002,-0.0279999999999999,-0.003,-1.509,-0.0579999999999999,-1.653,90.0,80.8,normal,D5
476,498.34,81.9,40.559959,-3.515918,-0.016,0.001,-0.002,-0.001,-1.513,-0.055,-1.659,90.0,80.8,normal,D5
477,499.33,80.8,40.560143,-3.5160370000000003,-0.031,0.018,-0.0279999999999999,-0.019,-1.515,-0.062,-1.666,90.0,80.8,normal,D5
478,500.45,82.9,40.560326,-3.516136,-0.052,-0.026,0.009,-0.003,-1.535,-0.07,-1.6769999999999998,90.0,80.8,normal,D5
479,501.34,80.3,40.56052,-3.5162370000000003,-0.012,-0.012,-0.019,-0.001,-1.537,-0.061,-1.679,90.0,80.5,normal,D5
480,502.39,80.5,40.560703,-3.516335,-0.008,0.032,-0.002,-0.004,-1.53,-0.072,-1.685,90.0,80.5,normal,D5
481,503.35,81.1,40.560902,-3.516422,-0.0069999999999999,0.012,-0.021,-0.011,-1.539,-0.07,-1.699,90.0,80.5,normal,D5
482,504.38,80.6,40.561092,-3.516495,-0.009,-0.0069999999999999,0.015,0.016,-1.526,-0.077,-1.707,100.0,81.7,normal,D5
483,505.39,81.7,40.561298,-3.516567,-0.071,-0.024,0.013,0.003,-1.523,-0.068,-1.711,100.0,81.7,normal,D5
484,506.34,80.1,40.561493,-3.516618,-0.026,-0.0409999999999999,-0.002,-0.003,-1.54,-0.0579999999999999,-1.719,100.0,81.7,normal,D5
485,507.34,80.8,40.561687,-3.5166730000000004,-0.049,-0.024,0.017,0.009,-1.543,-0.053,-1.72,100.0,80.1,normal,D5
486,508.34,80.9,40.561882,-3.516715,0.024,0.015,0.018,0.013,-1.543,-0.045,-1.709,100.0,80.9,normal,D5
487,509.35,83.9,40.562088,-3.516751,-0.05,0.0069999999999999,0.0069999999999999,0.015,-1.543,-0.048,-1.696,100.0,80.9,normal,D5
488,510.34,85.9,40.562286,-3.5167900000000003,-0.0139999999999999,-0.002,0.01,-0.003,-1.556,-0.049,-1.685,100.0,85.9,normal,D5
489,511.34,85.4,40.562504,-3.5168160000000004,-0.026,-0.0279999999999999,0.016,-0.003,-1.557,-0.053,-1.659,100.0,85.9,normal,D5
490,512.34,86.1,40.562721,-3.516838,-0.01,-0.005,-0.024,-0.022,-1.539,-0.035,-1.629,100.0,85.9,normal,D5
491,513.38,86.0,40.562939,-3.516875,-0.004,0.0139999999999999,0.005,-0.005,-1.544,-0.027,-1.599,100.0,85.9,normal,D5
492,514.35,85.8,40.563148,-3.516906,-0.052,-0.031,-0.006,-0.0,-1.539,-0.011,-1.561,100.0,85.9,normal,D5
493,515.44,86.4,40.563366,-3.5169410000000005,0.044,-0.01,-0.0289999999999999,0.008,-1.541,0.003,-1.521,100.0,85.9,normal,D5
494,516.46,87.0,40.563583,-3.516981,0.006,0.036,-0.017,-0.012,-1.5419999999999998,-0.009,-1.4880000000000002,100.0,85.9,normal,D5
495,517.35,85.7,40.563789,-3.5170190000000003,0.031,0.008,-0.0069999999999999,0.004,-1.543,0.004,-1.465,100.0,85.9,normal,D5
496,518.4,86.6,40.563995,-3.517066,0.002,-0.0139999999999999,0.001,0.004,-1.543,-0.001,-1.4380000000000002,100.0,85.9,normal,D5
497,519.36,86.9,40.564209000000005,-3.517123,-0.015,0.015,-0.005,-0.006,-1.548,0.0289999999999999,-1.4069999999999998,100.0,85.9,normal,D5
498,520.34,87.1,40.564419,-3.5171870000000003,-0.06,-0.025,0.034,0.018,-1.5619999999999998,0.027,-1.381,100.0,85.9,normal,D5
499,521.4,88.7,40.564632,-3.517257,-0.0,0.008,-0.011,0.005,-1.578,0.05,-1.342,100.0,85.9,normal,D5
500,522.35,90.2,40.564838,-3.517323,-0.039,0.052,-0.021,-0.016,-1.574,0.05,-1.317,100.0,85.9,normal,D5
501,523.35,90.6,40.565056,-3.5173980000000005,-0.0279999999999999,0.055,-0.054,-0.045,-1.54,0.022,-1.3030000000000002,100.0,85.8,normal,D5
502,524.37,89.2,40.565277,-3.5174800000000004,0.032,0.012,-0.015,-0.01,-1.523,0.013,-1.296,100.0,85.8,normal,D5
503,525.35,88.3,40.565479,-3.517567,0.038,-0.023,0.015,-0.013,-1.524,-0.002,-1.296,100.0,85.8,normal,D5
504,526.37,86.9,40.565693,-3.51767,-0.0409999999999999,-0.015,0.008,0.005,-1.52,0.006,-1.293,100.0,85.8,normal,D5
505,527.35,86.0,40.565899,-3.5177660000000004,-0.011,-0.005,0.0139999999999999,0.021,-1.534,0.023,-1.281,100.0,85.8,normal,D5
506,528.41,85.8,40.566101,-3.517868,-0.023,-0.005,-0.015,-0.008,-1.545,0.034,-1.268,100.0,85.8,normal,D5
507,529.36,85.6,40.566307,-3.517978,0.009,0.0069999999999999,0.002,-0.001,-1.5490000000000002,0.027,-1.257,100.0,85.8,normal,D5
508,530.34,85.4,40.566509,-3.518092,-0.047,0.009,0.0069999999999999,-0.003,-1.5519999999999998,0.022,-1.254,100.0,85.8,normal,D5
509,531.35,85.3,40.5667,-3.518206,-0.012,-0.018,0.008,0.02,-1.556,0.004,-1.257,100.0,85.8,normal,D5
510,532.37,84.4,40.566891,-3.518327,-0.011,-0.009,0.0069999999999999,0.004,-1.5730000000000002,0.002,-1.256,100.0,85.8,normal,D5
511,533.36,85.6,40.567078,-3.51845,-0.033,0.006,0.013,0.011,-1.569,0.021,-1.254,100.0,85.8,normal,D5
512,534.38,85.8,40.567265,-3.518586,-0.025,-0.003,0.042,0.027,-1.59,0.035,-1.245,100.0,85.8,normal,D5
513,535.36,87.0,40.567455,-3.518722,-0.013,-0.006,0.02,0.011,-1.594,0.022,-1.244,100.0,85.8,normal,D5
514,536.33,87.8,40.567646,-3.5188620000000004,-0.003,0.021,0.013,0.0069999999999999,-1.61,0.022,-1.247,100.0,85.8,normal,D5
515,537.38,89.4,40.567837,-3.5190080000000004,-0.0069999999999999,0.001,-0.006,-0.01,-1.602,0.012,-1.249,90.0,89.4,normal,D5
516,538.33,89.1,40.568027,-3.519156,0.009,-0.003,-0.009,-0.006,-1.5930000000000002,0.025,-1.245,90.0,89.4,normal,D5
517,539.33,89.7,40.568214000000005,-3.519314,-0.037,-0.019,-0.0409999999999999,-0.048,-1.585,0.027,-1.239,90.0,88.5,normal,D5
518,540.35,88.5,40.568398,-3.519479,-0.011,0.011,-0.016,0.001,-1.5659999999999998,0.04,-1.236,90.0,88.5,normal,D5
519,541.34,88.2,40.568584,-3.519652,0.002,0.011,0.033,0.009,-1.554,0.033,-1.235,90.0,88.5,normal,D5
520,542.34,87.6,40.56876,-3.519836,-0.003,-0.0069999999999999,-0.037,-0.015,-1.5419999999999998,0.025,-1.235,90.0,87.6,normal,D5
