,Timestamp (seconds),Speed (km/h),Latitude coordinate (degrees),Longitude coordinate (degrees),Acceleration in X (Gs),Acceleration in Y (Gs),Acceleration in Z (Gs),Acceleration in Z filtered by KF (Gs),Roll (degrees),Pitch (degrees),Yaw (degrees),Maximum allowed speed of current road (km/h),GPS speed (km/h) [same as in RAW GPS]],class,Driver
0,18.42,68.3,40.516933,-3.408077,-0.068,-0.006,-0.024,-0.012,-1.5630000000000002,-0.04,0.0559999999999999,100.0,68.4,normal,D6
1,19.37,68.5,40.517075,-3.408206,0.013,0.048,0.006,-0.002,-1.555,-0.035,0.0559999999999999,100.0,68.4,normal,D6
2,20.36,68.0,40.517216,-3.4083370000000004,0.035,-0.0069999999999999,-0.016,-0.008,-1.554,-0.032,0.0579999999999999,100.0,68.4,normal,D6
3,21.37,68.4,40.517357,-3.408457,-0.046,0.017,-0.0069999999999999,-0.004,-1.5519999999999998,-0.034,0.065,100.0,68.4,normal,D6
4,22.36,68.2,40.517494,-3.4085910000000004,0.019,-0.011,0.022,0.008,-1.54,-0.023,0.074,100.0,68.2,normal,D6
5,23.36,67.8,40.517635,-3.408721,-0.026,0.008,-0.015,0.002,-1.548,-0.02,0.08,100.0,67.9,normal,D6
6,24.39,67.9,40.517765,-3.408847,0.008,0.0279999999999999,0.015,0.006,-1.546,-0.019,0.078,100.0,67.9,normal,D6
7,25.44,66.1,40.517902,-3.408976,-0.0139999999999999,0.015,0.015,0.025,-1.55,-0.015,0.0819999999999999,100.0,66.1,normal,D6
8,26.37,68.2,40.518024,-3.4091,0.002,0.047,0.012,0.01,-1.5619999999999998,0.006,0.0819999999999999,100.0,68.2,normal,D6
9,27.41,69.0,40.518169,-3.409222,-0.018,-0.004,-0.016,-0.004,-1.554,0.009,0.085,100.0,69.0,normal,D6
10,28.39,68.8,40.518311,-3.409349,0.065,-0.032,0.0139999999999999,-0.009,-1.5519999999999998,0.023,0.092,100.0,69.0,normal,D6
11,29.41,69.4,40.518459,-3.4094870000000004,0.015,0.011,-0.023,-0.0139999999999999,-1.545,0.036,0.094,100.0,69.4,normal,D6
12,30.36,69.5,40.518604,-3.4096230000000003,-0.016,0.011,0.0289999999999999,0.013,-1.546,0.02,0.086,100.0,69.4,normal,D6
13,31.36,69.1,40.518745,-3.40975,-0.055,0.016,0.006,0.018,-1.547,0.005,0.079,100.0,69.1,normal,D6
14,32.36,69.5,40.518894,-3.409885,0.018,-0.051,0.048,0.025,-1.55,0.024,0.084,100.0,69.1,normal,D6
15,33.36,68.2,40.519005,-3.410006,-0.021,0.046,0.036,-0.003,-1.56,0.035,0.1,100.0,68.2,normal,D6
16,34.36,70.9,40.519146,-3.410138,-0.045,0.078,0.038,0.022,-1.556,0.013,0.09,100.0,68.2,normal,D6
17,35.36,69.9,40.519295,-3.4102690000000004,-0.011,-0.059,0.01,0.004,-1.554,0.002,0.0819999999999999,100.0,69.9,normal,D6
18,36.36,70.6,40.519436,-3.410403,-0.07,-0.0579999999999999,-0.002,-0.002,-1.555,-0.001,0.08,100.0,69.9,normal,D6
19,37.39,70.6,40.519581,-3.410536,0.003,0.012,0.0,-0.0069999999999999,-1.5590000000000002,-0.005,0.084,100.0,70.6,normal,D6
20,38.4,73.6,40.519737,-3.410683,-0.0069999999999999,0.006,-0.017,-0.015,-1.5619999999999998,-0.005,0.0819999999999999,100.0,70.6,normal,D6
21,39.37,70.3,40.519878000000006,-3.410823,0.002,0.0139999999999999,0.005,-0.015,-1.567,-0.013,0.078,100.0,70.3,normal,D6
22,40.38,69.8,40.52002,-3.410966,0.008,-0.0289999999999999,0.004,-0.005,-1.5659999999999998,-0.002,0.078,100.0,69.8,normal,D6
23,41.38,70.4,40.520176,-3.411093,-0.019,0.027,0.021,0.003,-1.561,0.011,0.079,100.0,70.4,normal,D6
24,42.36,70.7,40.520325,-3.41123,0.036,-0.005,0.022,0.022,-1.564,0.015,0.079,100.0,70.7,normal,D6
25,43.38,69.9,40.52047,-3.411363,0.0279999999999999,0.0139999999999999,-0.003,-0.001,-1.5590000000000002,0.009,0.077,100.0,70.7,normal,D6
26,44.37,69.8,40.520615,-3.411509,0.004,-0.013,-0.018,0.0069999999999999,-1.56,-0.004,0.067,100.0,69.8,normal,D6
27,45.38,70.5,40.520756,-3.4116410000000004,0.03,-0.012,0.023,-0.004,-1.561,-0.004,0.067,100.0,69.8,normal,D6
28,46.37,70.4,40.520893,-3.411773,-0.053,0.005,-0.0289999999999999,-0.0139999999999999,-1.5619999999999998,0.002,0.074,100.0,70.4,normal,D6
29,47.37,70.5,40.521034,-3.4119040000000003,-0.063,0.049,-0.065,-0.017,-1.557,0.015,0.078,100.0,69.9,normal,D6
30,48.37,69.9,40.521168,-3.412037,0.024,-0.006,0.016,0.011,-1.557,0.02,0.076,100.0,69.9,normal,D6
31,49.37,69.4,40.521313,-3.412164,0.023,0.004,0.002,0.0069999999999999,-1.555,0.002,0.071,100.0,69.4,normal,D6
32,50.39,69.6,40.521454,-3.412293,-0.037,-0.044,-0.005,0.005,-1.5590000000000002,0.001,0.067,100.0,69.4,normal,D6
33,51.37,69.8,40.521599,-3.4124260000000004,-0.0069999999999999,0.009,-0.002,0.009,-1.557,0.018,0.078,100.0,69.8,normal,D6
34,52.37,69.3,40.52174,-3.412556,0.009,0.051,0.008,-0.0,-1.567,0.023,0.084,100.0,69.8,normal,D6
35,53.39,69.4,40.521881,-3.412693,0.02,-0.001,-0.018,-0.019,-1.569,0.018,0.08,100.0,69.1,normal,D6
36,54.41,69.1,40.522022,-3.412824,-0.009,0.021,-0.016,-0.006,-1.571,0.009,0.076,100.0,69.1,normal,D6
37,55.37,69.3,40.522163,-3.412956,-0.053,-0.023,-0.05,-0.0289999999999999,-1.5759999999999998,0.004,0.077,100.0,69.3,normal,D6
38,56.37,69.3,40.522305,-3.413086,-0.011,0.022,-0.013,-0.012,-1.581,0.009,0.088,100.0,69.3,normal,D6
39,57.43,69.0,40.522446,-3.413207,-0.012,0.003,-0.022,-0.0289999999999999,-1.582,0.01,0.104,100.0,69.0,normal,D6
40,58.41,69.0,40.522587,-3.413334,0.015,-0.011,-0.008,-0.011,-1.575,-0.005,0.12,100.0,69.0,normal,D6
41,59.42,68.1,40.522701,-3.413495,-0.011,0.036,-0.0289999999999999,-0.005,-1.5759999999999998,-0.002,0.141,100.0,68.1,normal,D6
42,60.42,66.9,40.522831,-3.413635,0.047,0.0289999999999999,0.009,-0.004,-1.575,-0.016,0.159,100.0,68.1,normal,D6
43,61.37,66.3,40.522953,-3.4137760000000004,-0.019,-0.004,-0.01,-0.01,-1.579,-0.03,0.174,100.0,65.8,normal,D6
44,62.37,65.8,40.523075,-3.413917,-0.0069999999999999,-0.036,-0.02,-0.008,-1.5730000000000002,-0.0409999999999999,0.195,100.0,65.8,normal,D6
45,63.39,65.2,40.52319,-3.414063,-0.037,-0.055,0.023,0.02,-1.5759999999999998,-0.04,0.213,100.0,64.9,normal,D6
46,64.37,64.9,40.523304,-3.414213,0.039,0.0139999999999999,0.021,0.016,-1.5730000000000002,-0.037,0.237,100.0,64.9,normal,D6
47,65.36,64.6,40.523418,-3.414362,-0.049,-0.066,-0.019,-0.006,-1.574,-0.051,0.257,90.0,64.6,normal,D6
48,66.39,64.4,40.523521,-3.414518,-0.034,-0.1159999999999999,-0.001,-0.005,-1.568,-0.052,0.273,90.0,64.6,normal,D6
49,67.38,64.1,40.523624,-3.414675,-0.0289999999999999,-0.094,0.002,0.02,-1.564,-0.05,0.28,90.0,64.1,normal,D6
50,68.41,63.8,40.523724,-3.414836,-0.087,0.009,-0.011,0.003,-1.561,-0.044,0.286,90.0,63.7,normal,D6
51,69.37,63.7,40.523823,-3.415,0.01,0.096,0.031,0.039,-1.56,-0.0409999999999999,0.297,90.0,63.7,normal,D6
52,70.37,63.8,40.523918,-3.415166,-0.001,0.019,0.04,-0.0,-1.5590000000000002,-0.04,0.313,90.0,63.8,normal,D6
53,71.37,65.1,40.52401,-3.415342,-0.002,0.079,-0.006,0.011,-1.5519999999999998,-0.037,0.317,90.0,65.1,normal,D6
54,72.37,64.4,40.524097,-3.415513,-0.049,0.046,0.004,0.026,-1.5519999999999998,-0.031,0.32,90.0,64.4,normal,D6
55,73.38,64.9,40.524185,-3.415692,0.006,-0.038,0.017,0.011,-1.5730000000000002,-0.05,0.3229999999999999,90.0,64.9,normal,D6
56,74.39,65.5,40.524273,-3.415872,0.038,0.047,0.013,0.008,-1.565,-0.0559999999999999,0.3279999999999999,90.0,65.5,normal,D6
57,75.38,66.1,40.524353000000005,-3.416063,0.025,0.006,0.008,0.01,-1.5630000000000002,-0.055,0.3339999999999999,90.0,66.1,normal,D6
58,76.37,66.8,40.524433,-3.416257,0.008,-0.0559999999999999,-0.012,0.002,-1.5619999999999998,-0.053,0.344,90.0,66.1,normal,D6
59,77.38,67.5,40.524502000000005,-3.4164550000000005,0.054,-0.009,0.012,0.004,-1.5590000000000002,-0.049,0.352,100.0,67.5,normal,D6
60,78.38,68.1,40.524574,-3.41666,0.031,-0.034,0.006,0.009,-1.5530000000000002,-0.049,0.365,100.0,67.5,normal,D6
61,79.39,68.8,40.524647,-3.416864,0.02,0.036,0.006,0.003,-1.557,-0.0409999999999999,0.375,100.0,68.8,normal,D6
62,80.35,69.5,40.524708,-3.417072,0.006,0.043,0.0,-0.0069999999999999,-1.556,-0.055,0.367,100.0,69.5,normal,D6
63,81.35,70.4,40.524769,-3.417292,-0.049,0.017,0.011,-0.001,-1.555,-0.048,0.353,100.0,69.5,normal,D6
64,82.38,71.4,40.52483,-3.417508,0.033,0.04,0.01,-0.024,-1.555,-0.049,0.347,100.0,69.5,normal,D6
65,83.38,72.5,40.524887,-3.417731,0.02,-0.008,0.001,-0.012,-1.556,-0.037,0.3429999999999999,100.0,69.5,normal,D6
66,84.38,73.3,40.52494,-3.417962,-0.02,-0.093,-0.0279999999999999,-0.037,-1.525,-0.013,0.335,100.0,71.6,normal,D6
67,85.35,73.4,40.52499,-3.418192,0.0289999999999999,0.001,0.017,-0.0069999999999999,-1.518,-0.009,0.325,100.0,71.6,normal,D6
68,86.38,73.0,40.52504,-3.418425,-0.025,0.033,-0.023,-0.018,-1.525,-0.003,0.299,100.0,71.6,normal,D6
69,87.38,72.7,40.525089,-3.418654,-0.033,-0.002,-0.02,-0.016,-1.517,-0.025,0.266,100.0,71.6,normal,D6
70,88.35,72.8,40.525139,-3.418884,-0.009,0.011,0.0139999999999999,0.003,-1.495,-0.0069999999999999,0.243,100.0,71.6,normal,D6
71,89.35,71.6,40.525188,-3.419108,-0.0279999999999999,-0.045,-0.009,0.015,-1.51,-0.006,0.214,100.0,71.6,normal,D6
72,90.36,71.7,40.525234000000005,-3.419332,-0.013,0.017,0.015,0.005,-1.519,0.008,0.188,80.0,71.7,normal,D6
73,91.36,70.8,40.525288,-3.4195550000000003,-0.054,-0.0,-0.051,-0.017,-1.518,0.009,0.159,80.0,71.1,normal,D6
74,92.36,71.1,40.525349,-3.4197800000000003,-0.017,0.019,-0.004,-0.003,-1.524,-0.001,0.115,80.0,71.1,normal,D6
75,93.35,71.2,40.525402,-3.419995,0.005,-0.009,-0.019,-0.002,-1.524,0.01,0.072,80.0,71.2,normal,D6
76,94.4,71.1,40.525463,-3.420213,-0.017,0.043,-0.008,-0.002,-1.523,-0.001,0.026,100.0,71.1,normal,D6
77,95.35,70.5,40.525536,-3.420424,0.065,0.001,0.0069999999999999,0.001,-1.517,0.006,-0.009,100.0,71.1,normal,D6
78,96.35,70.7,40.525612,-3.420635,-0.04,-0.0289999999999999,0.024,-0.021,-1.526,-0.001,-0.0279999999999999,100.0,70.7,normal,D6
79,97.36,73.1,40.525688,-3.42085,0.001,-0.0409999999999999,0.019,0.005,-1.527,-0.001,-0.048,100.0,70.7,normal,D6
80,98.36,71.4,40.525764,-3.4210580000000004,0.024,-0.003,0.0069999999999999,0.006,-1.538,-0.018,-0.084,100.0,71.3,normal,D6
81,99.41,71.3,40.525852,-3.4212620000000005,-0.031,-0.013,0.002,-0.017,-1.538,-0.031,-0.127,100.0,71.3,normal,D6
82,100.35,71.7,40.525951,-3.4214550000000004,-0.024,0.0069999999999999,0.0139999999999999,-0.012,-1.541,-0.035,-0.174,100.0,71.7,normal,D6
83,101.35,72.0,40.526051,-3.42166,-0.072,-0.023,-0.018,-0.009,-1.533,-0.038,-0.212,100.0,71.7,normal,D6
84,102.36,72.1,40.526161,-3.421851,0.044,-0.053,-0.006,-0.004,-1.527,-0.01,-0.236,90.0,72.3,normal,D6
85,103.36,72.3,40.526279,-3.422049,-0.024,0.011,-0.021,-0.026,-1.526,-0.004,-0.259,90.0,72.3,normal,D6
86,104.36,71.6,40.526394,-3.4222370000000004,0.026,-0.015,0.01,0.0,-1.523,0.004,-0.282,90.0,71.6,normal,D6
87,105.42,71.5,40.526512,-3.422414,0.06,-0.012,0.0069999999999999,-0.001,-1.52,-0.002,-0.306,90.0,71.6,normal,D6
88,106.36,71.4,40.526638,-3.422574,0.063,-0.0069999999999999,0.021,0.011,-1.519,-0.008,-0.3289999999999999,90.0,71.6,normal,D6
89,107.41,71.6,40.526772,-3.42274,-0.009,-0.0,-0.0,0.02,-1.516,-0.016,-0.357,90.0,71.6,normal,D6
90,108.43,71.7,40.526897,-3.42289,-0.0139999999999999,0.003,-0.009,-0.0069999999999999,-1.523,-0.025,-0.3779999999999999,90.0,71.3,normal,D6
91,109.38,71.3,40.527039,-3.423047,-0.063,0.006,-0.012,-0.003,-1.531,-0.024,-0.3939999999999999,90.0,71.3,normal,D6
92,110.39,72.8,40.52718,-3.423193,-0.015,-0.006,0.003,-0.003,-1.5419999999999998,-0.022,-0.416,90.0,71.8,normal,D6
93,111.37,71.8,40.527328,-3.423334,-0.042,-0.049,0.005,0.01,-1.538,-0.017,-0.439,90.0,71.8,normal,D6
94,112.37,72.0,40.527477000000005,-3.423461,0.004,0.011,-0.015,-0.009,-1.536,-0.023,-0.4579999999999999,90.0,72.1,normal,D6
95,113.37,72.1,40.52763,-3.423582,-0.012,-0.055,-0.022,-0.021,-1.537,-0.037,-0.4679999999999999,90.0,72.1,normal,D6
96,114.42,71.7,40.527794,-3.4237,0.019,-0.0819999999999999,-0.002,-0.011,-1.533,-0.016,-0.471,90.0,71.0,normal,D6
97,115.37,71.0,40.527954,-3.423807,0.006,0.025,0.0139999999999999,-0.01,-1.533,-0.0279999999999999,-0.467,90.0,71.0,normal,D6
98,116.35,71.2,40.528103,-3.423925,-0.052,-0.035,-0.042,-0.0069999999999999,-1.53,-0.0409999999999999,-0.4579999999999999,90.0,71.2,normal,D6
99,117.37,71.9,40.528263,-3.424032,-0.044,-0.0579999999999999,-0.027,-0.012,-1.5319999999999998,-0.033,-0.446,90.0,71.5,normal,D6
100,118.39,71.5,40.528419,-3.424139,-0.025,-0.031,-0.003,-0.001,-1.531,-0.02,-0.429,90.0,71.5,normal,D6
101,119.37,71.3,40.528584,-3.424243,0.005,0.004,-0.005,-0.006,-1.528,-0.023,-0.406,90.0,71.3,normal,D6
102,120.37,71.4,40.528744,-3.424348,0.018,-0.023,0.0289999999999999,0.005,-1.528,-0.012,-0.379,90.0,71.3,normal,D6
103,121.35,70.8,40.528904,-3.4244510000000004,-0.032,-0.01,-0.011,-0.005,-1.521,-0.019,-0.355,90.0,70.8,normal,D6
104,122.43,70.8,40.529049,-3.424554,-0.026,-0.018,-0.008,0.001,-1.516,-0.035,-0.3379999999999999,90.0,71.3,normal,D6
105,123.36,71.3,40.529205,-3.424658,0.009,0.016,0.04,0.025,-1.518,-0.054,-0.319,90.0,71.3,normal,D6
106,124.37,71.3,40.529362,-3.424767,-0.06,-0.033,0.06,0.019,-1.514,-0.043,-0.288,90.0,71.3,normal,D6
107,125.37,71.5,40.529526,-3.424878,0.003,-0.015,0.0139999999999999,0.0,-1.516,-0.03,-0.258,90.0,71.5,normal,D6
108,126.37,71.5,40.529682,-3.4249910000000003,-0.038,-0.003,-0.001,-0.001,-1.521,-0.016,-0.2269999999999999,90.0,71.5,normal,D6
109,127.37,71.7,40.529839,-3.425117,0.0409999999999999,0.039,0.049,0.037,-1.516,-0.0139999999999999,-0.1939999999999999,90.0,72.0,normal,D6
110,128.38,72.0,40.529999,-3.425241,-0.042,0.074,0.012,0.018,-1.519,-0.01,-0.171,90.0,72.0,normal,D6
111,129.37,72.1,40.530148,-3.425368,-0.068,0.081,-0.017,0.006,-1.517,-0.008,-0.148,90.0,72.3,normal,D6
112,130.37,72.3,40.5303,-3.42551,0.009,0.013,0.027,0.013,-1.526,-0.005,-0.113,90.0,72.3,normal,D6
113,131.37,71.4,40.530453,-3.42564,0.079,0.003,0.05,0.004,-1.536,-0.004,-0.074,90.0,71.4,normal,D6
114,132.36,72.8,40.530602,-3.425768,0.044,0.038,0.017,0.001,-1.531,-0.003,-0.0409999999999999,90.0,71.4,normal,D6
115,133.37,72.3,40.530746,-3.425917,0.0279999999999999,0.034,0.024,-0.001,-1.527,-0.012,-0.025,90.0,72.1,normal,D6
116,134.41,72.1,40.530888,-3.426076,0.0289999999999999,0.018,0.017,0.0,-1.531,-0.012,-0.004,90.0,72.1,normal,D6
117,135.39,72.1,40.531021,-3.426229,-0.009,0.088,-0.012,0.003,-1.535,0.0139999999999999,0.02,90.0,72.1,normal,D6
118,136.38,70.9,40.531147,-3.426389,-0.012,0.027,-0.004,0.0139999999999999,-1.539,-0.018,0.035,90.0,70.9,normal,D6
119,137.38,72.4,40.531277,-3.426553,0.001,0.003,0.019,-0.009,-1.534,-0.038,0.045,90.0,72.4,normal,D6
120,138.36,72.3,40.531406,-3.4267199999999995,-0.034,0.024,-0.004,-0.013,-1.545,-0.035,0.05,90.0,72.4,normal,D6
121,139.36,72.1,40.531528,-3.426884,-0.0279999999999999,0.065,0.002,0.002,-1.541,-0.053,0.051,90.0,72.1,normal,D6
122,140.42,71.7,40.531654,-3.427052,-0.048,-0.049,-0.022,0.006,-1.5519999999999998,-0.031,0.077,90.0,71.7,normal,D6
123,141.38,71.3,40.531773,-3.427221,-0.025,-0.037,-0.01,-0.0139999999999999,-1.557,-0.036,0.091,90.0,71.3,normal,D6
124,142.41,71.4,40.531887,-3.427389,-0.047,0.009,-0.017,-0.005,-1.5590000000000002,-0.046,0.105,90.0,71.4,normal,D6
125,143.36,70.7,40.532001,-3.427571,-0.009,0.039,-0.0279999999999999,-0.025,-1.5659999999999998,-0.0559999999999999,0.105,90.0,70.7,normal,D6
126,144.36,70.2,40.532108,-3.427757,0.0289999999999999,0.023,-0.032,-0.0279999999999999,-1.567,-0.049,0.105,90.0,70.2,normal,D6
127,145.38,69.2,40.532227,-3.427957,-0.037,-0.0139999999999999,-0.017,-0.01,-1.565,-0.044,0.1119999999999999,90.0,69.2,normal,D6
128,146.36,68.3,40.532326,-3.428142,-0.044,0.066,-0.023,-0.022,-1.5619999999999998,-0.039,0.12,90.0,68.3,normal,D6
129,147.36,67.5,40.532436,-3.428321,-0.046,-0.008,-0.001,0.008,-1.5619999999999998,-0.039,0.123,90.0,67.5,normal,D6
130,148.35,66.6,40.532524,-3.42851,-0.009,0.025,0.0069999999999999,0.004,-1.565,-0.042,0.126,90.0,65.4,normal,D6
131,149.35,65.4,40.532612,-3.428693,0.011,-0.049,0.01,0.006,-1.565,-0.052,0.13,90.0,65.4,normal,D6
132,150.35,64.9,40.5327,-3.428879,-0.0,-0.062,0.046,0.019,-1.561,-0.05,0.134,90.0,64.9,normal,D6
133,151.37,63.7,40.532784,-3.429049,-0.024,-0.025,-0.001,0.003,-1.557,-0.051,0.14,90.0,63.7,normal,D6
134,152.4,64.3,40.53286,-3.429232,0.018,0.07,0.025,0.013,-1.557,-0.05,0.143,90.0,64.3,normal,D6
135,153.35,62.3,40.532928000000005,-3.429413,-0.066,0.036,-0.015,-0.003,-1.569,-0.072,0.135,90.0,62.3,normal,D6
136,154.36,61.8,40.533001,-3.429593,-0.0139999999999999,-0.054,-0.005,0.005,-1.5659999999999998,-0.063,0.1369999999999999,90.0,62.3,normal,D6
137,155.37,60.6,40.533058,-3.4297730000000004,0.021,-0.036,0.0279999999999999,0.006,-1.564,-0.065,0.14,90.0,60.6,normal,D6
138,156.35,60.0,40.533123,-3.42995,0.0139999999999999,0.001,0.026,0.018,-1.5659999999999998,-0.04,0.134,90.0,60.6,normal,D6
139,157.36,58.8,40.53318,-3.430132,-0.006,0.036,0.015,0.004,-1.5730000000000002,-0.054,0.127,90.0,58.8,normal,D6
140,158.36,58.6,40.533241,-3.43031,-0.0289999999999999,-0.019,0.001,-0.001,-1.574,-0.048,0.128,90.0,58.8,normal,D6
141,159.39,57.7,40.533295,-3.430489,-0.001,-0.023,-0.003,-0.004,-1.5719999999999998,-0.052,0.135,90.0,57.7,normal,D6
142,160.36,57.3,40.533344,-3.4306690000000004,-0.0139999999999999,-0.027,0.004,0.006,-1.58,-0.071,0.126,90.0,57.7,normal,D6
143,161.36,56.6,40.533386,-3.430848,-0.008,-0.0279999999999999,0.022,0.005,-1.58,-0.069,0.134,90.0,56.6,normal,D6
144,162.38,56.1,40.533432,-3.431023,-0.009,0.008,0.023,0.015,-1.581,-0.07,0.133,90.0,55.7,normal,D6
145,163.36,55.7,40.53347,-3.431202,-0.04,0.017,-0.004,-0.011,-1.588,-0.08,0.122,90.0,55.7,normal,D6
146,164.36,55.6,40.533516,-3.431376,-0.001,-0.027,0.001,0.015,-1.585,-0.076,0.124,90.0,55.6,normal,D6
147,165.36,55.6,40.533554,-3.431553,0.062,-0.004,0.0579999999999999,0.023,-1.584,-0.07,0.126,90.0,55.6,normal,D6
148,166.36,55.4,40.533596,-3.431719,-0.031,-0.065,-0.023,-0.003,-1.579,-0.0559999999999999,0.128,90.0,55.6,normal,D6
149,167.36,55.2,40.533623,-3.431894,-0.0579999999999999,0.026,-0.006,0.006,-1.585,-0.051,0.132,90.0,54.2,normal,D6
150,168.36,54.2,40.533657,-3.432068,-0.021,0.025,-0.004,0.008,-1.584,-0.051,0.135,90.0,54.2,normal,D6
151,169.4,54.3,40.533695,-3.4322410000000003,-0.006,-0.043,0.002,-0.015,-1.588,-0.047,0.13,90.0,52.7,normal,D6
152,170.4,52.7,40.533733000000005,-3.432415,-0.02,0.034,-0.004,-0.006,-1.589,-0.059,0.123,90.0,52.7,normal,D6
153,171.37,53.2,40.533756,-3.432584,-0.018,0.047,0.044,0.019,-1.586,-0.04,0.1159999999999999,90.0,53.6,normal,D6
154,172.38,53.6,40.533779,-3.432754,-0.026,0.023,-0.013,-0.005,-1.59,-0.057,0.113,90.0,53.6,normal,D6
155,173.37,54.1,40.533794,-3.432923,0.025,0.048,0.0139999999999999,0.015,-1.592,-0.047,0.113,90.0,53.6,normal,D6
156,174.36,54.5,40.53381,-3.4331160000000005,0.002,0.047,0.004,0.005,-1.592,-0.0409999999999999,0.1159999999999999,90.0,54.0,normal,D6
157,175.41,54.0,40.533813,-3.433295,-0.002,0.027,0.001,0.003,-1.5930000000000002,-0.035,0.119,90.0,54.0,normal,D6
158,176.36,54.3,40.533821,-3.433477,0.017,0.048,0.004,0.021,-1.586,-0.037,0.122,90.0,54.0,normal,D6
159,177.37,54.0,40.533825,-3.433653,-0.016,0.057,0.003,0.001,-1.597,-0.033,0.12,90.0,54.2,normal,D6
160,178.37,54.2,40.533829,-3.433831,0.018,0.0289999999999999,0.01,-0.002,-1.6,-0.033,0.1119999999999999,90.0,54.2,normal,D6
161,179.37,53.6,40.533833,-3.4340050000000004,-0.054,0.04,-0.006,-0.009,-1.601,-0.049,0.094,90.0,52.5,normal,D6
162,180.37,52.5,40.533840000000005,-3.434177,0.166,0.0069999999999999,0.002,0.003,-1.599,-0.034,0.088,90.0,52.5,normal,D6
163,181.36,53.4,40.533844,-3.434352,0.0289999999999999,-0.062,0.023,0.01,-1.59,-0.038,0.083,90.0,52.5,normal,D6
164,182.38,54.0,40.533848,-3.434533,-0.013,-0.04,0.001,-0.003,-1.598,-0.034,0.074,90.0,54.0,normal,D6
165,183.38,53.7,40.533844,-3.434711,-0.018,0.025,-0.0139999999999999,-0.0069999999999999,-1.599,-0.036,0.064,90.0,54.2,normal,D6
166,184.37,54.2,40.533848,-3.4348980000000005,0.01,0.038,0.01,-0.009,-1.591,-0.049,0.0559999999999999,90.0,54.2,normal,D6
167,185.37,53.7,40.533848,-3.43508,0.005,0.011,-0.012,-0.011,-1.594,-0.026,0.048,90.0,54.2,normal,D6
168,186.37,53.8,40.533852,-3.435254,-0.0579999999999999,0.019,-0.012,-0.0069999999999999,-1.597,-0.006,0.039,90.0,54.2,normal,D6
169,187.42,54.3,40.533848,-3.43543,-0.018,-0.0069999999999999,-0.027,-0.011,-1.594,-0.017,0.023,90.0,54.2,normal,D6
170,188.37,54.1,40.533844,-3.4356089999999995,0.026,-0.025,0.008,-0.003,-1.602,-0.025,0.01,90.0,54.2,normal,D6
171,189.38,54.1,40.533844,-3.435786,-0.009,-0.023,0.001,-0.012,-1.605,-0.0139999999999999,0.002,90.0,54.2,normal,D6
172,190.37,53.6,40.533844,-3.435964,-0.0139999999999999,-0.016,0.0,-0.009,-1.605,0.021,0.006,90.0,54.2,normal,D6
173,191.39,53.1,40.533844,-3.436145,-0.017,-0.015,-0.025,-0.005,-1.606,0.0069999999999999,-0.003,90.0,54.2,normal,D6
174,192.37,53.7,40.533840000000005,-3.436319,-0.032,-0.013,-0.006,-0.011,-1.605,0.004,-0.013,90.0,54.2,normal,D6
175,193.38,53.6,40.533836,-3.436496,-0.018,0.013,-0.001,-0.004,-1.604,0.023,-0.02,90.0,54.2,normal,D6
176,194.38,54.2,40.533833,-3.436675,0.02,0.006,0.012,0.0069999999999999,-1.607,0.027,-0.023,90.0,54.2,normal,D6
177,195.42,53.9,40.533829,-3.43685,0.025,0.025,-0.01,-0.006,-1.6030000000000002,0.01,-0.022,90.0,54.2,normal,D6
178,196.36,53.5,40.533825,-3.437027,0.021,-0.001,0.019,-0.008,-1.599,0.019,-0.03,90.0,54.6,normal,D6
179,197.39,54.6,40.533817,-3.437215,0.009,0.038,-0.003,0.004,-1.6,0.019,-0.039,90.0,54.6,normal,D6
180,198.39,54.6,40.533813,-3.4373910000000003,0.031,-0.006,0.025,0.013,-1.599,0.003,-0.045,90.0,54.6,normal,D6
181,199.36,54.6,40.53381,-3.437567,-0.01,0.002,0.0139999999999999,0.004,-1.6,0.011,-0.049,90.0,53.6,normal,D6
182,200.35,53.6,40.533806,-3.437739,0.038,0.016,0.01,-0.001,-1.602,-0.006,-0.05,90.0,53.6,normal,D6
183,201.35,54.1,40.533806,-3.437914,-0.042,0.048,0.004,0.0069999999999999,-1.601,0.01,-0.047,90.0,53.6,normal,D6
184,202.39,53.9,40.533802,-3.4381,-0.01,0.001,-0.009,-0.016,-1.604,0.015,-0.046,90.0,53.6,normal,D6
185,203.41,54.1,40.533802,-3.438273,0.01,0.022,0.022,0.019,-1.599,0.011,-0.05,90.0,53.6,normal,D6
186,204.39,54.9,40.533802,-3.438457,0.031,-0.034,0.006,-0.002,-1.598,0.006,-0.0559999999999999,90.0,56.3,normal,D6
187,205.35,54.9,40.533802,-3.438639,-0.024,0.016,0.006,0.005,-1.594,-0.0,-0.061,90.0,56.3,normal,D6
188,206.4,56.1,40.533791,-3.438831,0.032,0.017,0.021,0.0139999999999999,-1.597,0.02,-0.062,90.0,56.3,normal,D6
189,207.38,56.3,40.533794,-3.439019,-0.021,-0.0069999999999999,0.006,0.005,-1.6,0.021,-0.059,90.0,56.3,normal,D6
190,208.36,57.4,40.533794,-3.4392050000000003,-0.055,0.006,-0.021,-0.004,-1.598,0.003,-0.054,90.0,56.3,normal,D6
191,209.39,57.2,40.533791,-3.439385,0.035,0.0289999999999999,0.01,-0.001,-1.597,0.005,-0.05,90.0,56.3,normal,D6
192,210.37,58.2,40.533787,-3.439577,-0.023,-0.035,-0.013,-0.016,-1.5930000000000002,0.019,-0.052,90.0,56.3,normal,D6
193,211.37,58.5,40.533791,-3.439754,0.024,0.0139999999999999,-0.001,-0.002,-1.587,-0.002,-0.057,90.0,61.4,normal,D6
194,212.35,59.6,40.533787,-3.439948,-0.016,-0.1169999999999999,-0.0,-0.0,-1.589,-0.002,-0.062,90.0,61.4,normal,D6
195,213.36,60.2,40.533783,-3.440153,-0.016,-0.017,-0.005,-0.003,-1.588,-0.0069999999999999,-0.065,90.0,61.4,normal,D6
196,214.37,60.9,40.533794,-3.4403410000000005,-0.004,0.033,-0.021,-0.005,-1.586,-0.0069999999999999,-0.064,90.0,61.4,normal,D6
197,215.42,61.4,40.533798,-3.4405410000000005,-0.055,-0.022,-0.02,-0.003,-1.582,-0.009,-0.065,90.0,61.4,normal,D6
198,216.35,62.0,40.533794,-3.440739,-0.049,-0.035,-0.049,-0.031,-1.582,-0.01,-0.069,90.0,62.0,normal,D6
199,217.36,62.7,40.533798,-3.440945,0.004,0.044,-0.009,-0.004,-1.58,-0.013,-0.071,90.0,62.0,normal,D6
200,218.36,63.8,40.533794,-3.441151,-0.049,-0.003,-0.023,-0.022,-1.58,-0.015,-0.071,90.0,63.1,normal,D6
201,219.38,63.1,40.533791,-3.441356,0.021,0.071,-0.017,-0.023,-1.58,-0.0139999999999999,-0.072,90.0,63.1,normal,D6
202,220.36,64.4,40.533787,-3.441565,-0.04,-0.124,-0.033,-0.021,-1.582,-0.057,-0.072,90.0,64.4,normal,D6
203,221.36,64.9,40.533787,-3.441771,0.001,-0.118,-0.023,-0.024,-1.5830000000000002,-0.059,-0.072,90.0,65.8,normal,D6
204,222.36,65.8,40.533779,-3.441985,-0.079,-0.078,-0.03,0.003,-1.5719999999999998,-0.078,-0.074,90.0,65.8,normal,D6
205,223.35,66.5,40.533783,-3.442211,0.002,-0.023,-0.005,-0.002,-1.567,-0.054,-0.074,90.0,66.5,normal,D6
206,224.36,66.7,40.533783,-3.442426,-0.016,-0.039,-0.031,-0.022,-1.561,-0.025,-0.073,90.0,66.5,normal,D6
207,225.41,67.8,40.533775,-3.442643,-0.0139999999999999,-0.003,-0.0069999999999999,-0.01,-1.557,0.004,-0.069,90.0,67.8,normal,D6
208,226.36,68.4,40.533779,-3.44286,-0.011,-0.011,0.009,0.011,-1.5530000000000002,-0.021,-0.069,90.0,69.4,normal,D6
209,227.36,69.4,40.533779,-3.443084,-0.02,0.017,0.011,0.005,-1.5530000000000002,-0.01,-0.074,90.0,69.4,normal,D6
210,228.38,70.5,40.533775,-3.443304,-0.022,-0.027,-0.022,-0.01,-1.5490000000000002,-0.009,-0.084,90.0,70.7,normal,D6
211,229.36,70.7,40.533775,-3.443537,-0.0279999999999999,-0.102,-0.023,-0.009,-1.548,-0.002,-0.077,90.0,70.7,normal,D6
212,230.38,71.4,40.533772,-3.443773,-0.034,0.064,0.0,-0.001,-1.551,-0.0069999999999999,-0.079,90.0,71.4,normal,D6
213,231.36,72.1,40.533768,-3.444022,0.011,0.025,0.013,-0.003,-1.545,0.001,-0.0819999999999999,90.0,72.8,normal,D6
214,232.37,72.8,40.533764,-3.444259,0.032,-0.05,-0.006,-0.002,-1.546,-0.004,-0.0819999999999999,90.0,72.8,normal,D6
215,233.37,74.3,40.533768,-3.4445050000000004,0.003,-0.0289999999999999,-0.009,0.001,-1.54,0.001,-0.081,90.0,74.5,normal,D6
216,234.36,74.5,40.533764,-3.44475,-0.122,-0.013,-0.016,0.003,-1.537,-0.002,-0.079,90.0,74.5,normal,D6
217,235.36,74.6,40.533764,-3.444992,-0.0069999999999999,0.009,-0.004,-0.006,-1.546,0.008,-0.08,90.0,74.6,normal,D6
218,236.37,73.8,40.53376,-3.445234,0.009,-0.038,-0.001,0.001,-1.548,-0.015,-0.081,90.0,74.6,normal,D6
219,237.4,73.9,40.533752,-3.445476,-0.042,-0.022,-0.039,-0.023,-1.548,-0.016,-0.083,90.0,73.9,normal,D6
220,238.37,77.0,40.533749,-3.445743,0.011,0.024,0.002,0.013,-1.56,-0.002,-0.081,90.0,73.9,normal,D6
221,239.37,76.9,40.533733000000005,-3.445994,-0.008,0.0,0.009,0.003,-1.55,0.009,-0.077,90.0,76.9,normal,D6
222,240.36,77.7,40.533726,-3.446248,0.026,0.01,0.012,0.0139999999999999,-1.548,0.003,-0.076,90.0,76.9,normal,D6
223,241.43,78.6,40.533726,-3.446502,-0.023,-0.012,-0.017,-0.013,-1.5519999999999998,-0.011,-0.0819999999999999,90.0,78.6,normal,D6
224,242.37,78.8,40.53373,-3.4467550000000005,0.062,-0.0279999999999999,0.019,-0.006,-1.55,-0.011,-0.087,90.0,80.0,normal,D6
225,243.37,80.0,40.533733000000005,-3.447019,0.055,0.02,0.03,0.0,-1.548,-0.006,-0.085,90.0,80.0,normal,D6
226,244.37,80.4,40.53373,-3.44728,0.006,-0.01,0.013,0.01,-1.55,-0.001,-0.083,90.0,82.7,normal,D6
227,245.37,82.7,40.533733000000005,-3.447547,-0.0279999999999999,-0.021,-0.02,-0.025,-1.5519999999999998,0.012,-0.081,90.0,82.7,normal,D6
228,246.37,82.4,40.53373,-3.44783,-0.0069999999999999,-0.0289999999999999,-0.018,-0.0069999999999999,-1.5519999999999998,0.005,-0.08,90.0,82.4,normal,D6
229,247.35,84.1,40.533745,-3.448096,-0.032,-0.024,-0.027,-0.021,-1.5530000000000002,-0.012,-0.078,90.0,82.4,normal,D6
230,248.37,83.3,40.533752,-3.44837,0.018,-0.044,-0.006,-0.013,-1.5490000000000002,-0.017,-0.074,90.0,83.3,normal,D6
231,249.37,83.5,40.533749,-3.44864,-0.004,0.062,-0.027,-0.03,-1.539,-0.002,-0.072,90.0,83.5,normal,D6
232,250.37,83.7,40.533749,-3.4489160000000005,-0.0279999999999999,-0.018,-0.04,-0.016,-1.534,-0.005,-0.075,90.0,83.7,normal,D6
233,251.38,83.8,40.533768,-3.449164,-0.039,0.013,-0.008,-0.008,-1.524,-0.0069999999999999,-0.076,90.0,83.8,normal,D6
234,252.35,83.3,40.53376,-3.449447,-0.0559999999999999,0.009,-0.048,-0.004,-1.526,-0.012,-0.078,90.0,83.2,normal,D6
235,253.35,83.2,40.53376,-3.449717,0.018,-0.008,0.003,0.012,-1.528,-0.001,-0.076,90.0,83.2,normal,D6
236,254.37,83.2,40.53376,-3.449987,-0.0069999999999999,-0.005,0.0069999999999999,0.015,-1.521,0.002,-0.075,90.0,83.2,normal,D6
237,255.35,83.4,40.533764,-3.450251,0.026,0.023,0.026,0.008,-1.523,0.022,-0.077,90.0,83.4,normal,D6
238,256.44,83.0,40.533772,-3.450538,-0.035,0.018,-0.008,-0.01,-1.523,0.001,-0.076,90.0,83.4,normal,D6
239,257.38,83.4,40.533775,-3.450804,0.0069999999999999,0.011,0.0,-0.01,-1.518,0.009,-0.074,90.0,83.4,normal,D6
240,258.38,82.1,40.533775,-3.451076,0.0139999999999999,0.018,0.03,0.015,-1.5219999999999998,0.012,-0.071,90.0,82.1,normal,D6
241,259.36,82.3,40.533775,-3.45135,-0.016,0.059,-0.017,-0.009,-1.5219999999999998,0.011,-0.073,90.0,82.3,normal,D6
242,260.4,82.6,40.533772,-3.451617,-0.006,-0.018,0.0069999999999999,0.006,-1.523,0.016,-0.075,90.0,82.6,normal,D6
243,261.41,82.5,40.533775,-3.45189,-0.066,0.077,0.032,0.016,-1.521,0.02,-0.073,90.0,82.6,normal,D6
244,262.38,83.0,40.533775,-3.452163,-0.036,0.001,0.002,0.004,-1.524,-0.016,-0.078,90.0,83.0,normal,D6
245,263.41,82.7,40.533775,-3.452435,-0.009,-0.031,-0.011,0.003,-1.526,-0.0,-0.079,90.0,83.0,normal,D6
246,264.36,83.0,40.533764,-3.452704,0.022,0.013,0.0139999999999999,0.01,-1.534,0.004,-0.075,90.0,82.7,normal,D6
247,265.38,82.7,40.53376,-3.4529910000000004,-0.064,-0.039,0.002,0.01,-1.54,-0.019,-0.073,90.0,82.7,normal,D6
248,266.38,84.1,40.53376,-3.453267,0.023,-0.03,0.013,0.0069999999999999,-1.538,-0.01,-0.074,90.0,84.1,normal,D6
249,267.38,84.6,40.533764,-3.453552,0.022,0.02,0.021,0.016,-1.54,0.001,-0.077,90.0,84.1,normal,D6
250,268.35,84.9,40.533764,-3.453834,0.043,0.039,0.005,-0.008,-1.536,0.01,-0.077,90.0,84.6,normal,D6
251,269.36,84.6,40.533768,-3.4541150000000003,0.022,0.001,0.018,0.01,-1.523,0.02,-0.076,90.0,84.6,normal,D6
252,270.35,85.1,40.533772,-3.454385,-0.006,-0.045,-0.009,-0.006,-1.5219999999999998,-0.018,-0.083,90.0,85.1,normal,D6
253,271.37,85.1,40.533764,-3.454664,0.0559999999999999,-0.043,0.033,0.018,-1.517,-0.008,-0.084,90.0,85.1,normal,D6
254,272.36,84.5,40.533764,-3.45494,-0.023,-0.047,-0.002,-0.006,-1.514,-0.012,-0.0819999999999999,90.0,84.1,normal,D6
255,273.36,84.1,40.533768,-3.455219,0.087,-0.0579999999999999,0.002,0.002,-1.52,0.001,-0.078,90.0,84.1,normal,D6
256,274.39,84.0,40.533772,-3.455481,0.068,-0.0,0.02,-0.0069999999999999,-1.527,0.003,-0.076,90.0,84.0,normal,D6
257,275.35,84.1,40.533772,-3.45576,-0.04,0.04,0.006,-0.003,-1.535,-0.018,-0.0819999999999999,90.0,84.0,normal,D6
258,276.36,84.3,40.533768,-3.456043,0.008,-0.023,-0.0069999999999999,-0.005,-1.55,-0.012,-0.085,90.0,84.3,normal,D6
259,277.38,84.4,40.533764,-3.456315,-0.006,0.005,-0.006,-0.001,-1.545,0.003,-0.078,90.0,84.3,normal,D6
260,278.41,85.0,40.533768,-3.4565879999999995,0.012,-0.019,0.004,-0.009,-1.546,0.004,-0.0819999999999999,90.0,84.9,normal,D6
261,279.36,84.9,40.533768,-3.45687,0.0069999999999999,0.0139999999999999,-0.005,-0.001,-1.5530000000000002,-0.005,-0.085,90.0,84.9,normal,D6
262,280.38,84.9,40.53376,-3.457146,-0.038,-0.034,-0.005,0.01,-1.557,0.001,-0.085,90.0,84.9,normal,D6
263,281.36,84.0,40.533756,-3.4574199999999995,-0.033,0.0279999999999999,-0.024,-0.009,-1.546,0.01,-0.083,90.0,84.5,normal,D6
264,282.36,84.5,40.533752,-3.457701,-0.045,0.093,-0.011,0.009,-1.547,0.025,-0.08,90.0,84.5,normal,D6
265,283.39,84.4,40.533745,-3.457978,-0.011,0.054,-0.006,-0.01,-1.548,0.032,-0.083,90.0,84.4,normal,D6
266,284.42,84.3,40.533737,-3.4582580000000003,-0.003,0.04,0.0139999999999999,0.016,-1.545,0.003,-0.086,90.0,84.4,normal,D6
267,285.38,84.6,40.533741,-3.458528,0.015,0.002,-0.033,-0.008,-1.5530000000000002,0.002,-0.093,90.0,84.6,normal,D6
268,286.36,84.3,40.533745,-3.458792,-0.059,0.001,-0.0139999999999999,-0.019,-1.554,-0.004,-0.096,90.0,84.6,normal,D6
269,287.36,85.0,40.533741,-3.459078,-0.015,0.009,-0.011,-0.04,-1.534,0.015,-0.095,90.0,85.0,normal,D6
270,288.39,82.9,40.533741,-3.459356,0.01,-0.053,-0.1889999999999999,-0.108,-1.506,0.013,-0.091,90.0,85.0,normal,D6
271,289.38,79.7,40.533737,-3.459621,-0.069,0.013,-0.005,0.015,-1.539,-0.004,-0.088,90.0,79.7,normal,D6
272,290.36,79.7,40.533733000000005,-3.459883,-0.0,-0.055,-0.013,-0.01,-1.5490000000000002,-0.01,-0.087,90.0,79.7,normal,D6
273,291.39,79.5,40.533726,-3.46015,-0.008,-0.035,-0.033,-0.017,-1.5490000000000002,-0.013,-0.086,90.0,78.2,normal,D6
274,292.36,78.6,40.533726,-3.4604129999999995,-0.027,-0.008,-0.034,-0.027,-1.5319999999999998,-0.0069999999999999,-0.085,90.0,78.2,normal,D6
275,293.36,78.2,40.533722,-3.460672,0.006,0.038,0.017,0.008,-1.528,-0.0,-0.087,90.0,78.2,normal,D6
276,294.44,77.0,40.533726,-3.460918,-0.02,0.048,-0.002,0.012,-1.536,0.002,-0.096,90.0,77.0,normal,D6
277,295.36,76.8,40.533718,-3.4611730000000005,0.003,-0.003,0.036,0.0409999999999999,-1.5419999999999998,0.004,-0.1,90.0,76.3,normal,D6
278,296.39,76.3,40.533718,-3.461422,-0.048,0.036,0.006,0.01,-1.538,-0.005,-0.094,90.0,76.3,normal,D6
279,297.37,75.8,40.533714,-3.461674,0.002,-0.013,0.052,0.019,-1.537,-0.0069999999999999,-0.088,90.0,75.2,normal,D6
280,298.37,75.2,40.533718,-3.461922,-0.004,0.034,0.019,0.0069999999999999,-1.539,0.01,-0.089,90.0,75.2,normal,D6
281,299.39,74.5,40.53371,-3.462165,-0.011,0.0139999999999999,-0.004,0.004,-1.5419999999999998,-0.005,-0.096,90.0,74.1,normal,D6
282,300.38,74.1,40.53371,-3.462413,0.021,0.017,0.031,0.005,-1.543,0.005,-0.102,90.0,74.1,normal,D6
283,301.36,73.6,40.53371,-3.462647,-0.05,-0.023,0.016,0.013,-1.544,0.006,-0.1,90.0,73.4,normal,D6
284,302.37,73.4,40.533707,-3.4628879999999995,0.003,0.033,0.011,0.006,-1.544,0.008,-0.096,90.0,73.4,normal,D6
285,303.37,72.5,40.533707,-3.463125,-0.003,-0.0,0.009,0.008,-1.5419999999999998,-0.016,-0.102,90.0,72.5,normal,D6
286,304.39,72.7,40.533703,-3.463357,0.019,-0.01,0.039,0.009,-1.5590000000000002,-0.031,-0.11,90.0,72.5,normal,D6
287,305.36,72.3,40.533707,-3.463594,-0.018,-0.025,-0.0,-0.0,-1.554,-0.04,-0.11,90.0,72.1,normal,D6
288,306.39,72.1,40.53371,-3.46383,-0.0,-0.063,0.0139999999999999,0.0,-1.5530000000000002,-0.022,-0.111,90.0,72.1,normal,D6
289,307.37,71.5,40.533714,-3.464061,-0.011,-0.003,-0.008,0.003,-1.551,-0.013,-0.1119999999999999,90.0,72.1,normal,D6
290,308.37,71.7,40.53371,-3.4643,0.0279999999999999,-0.017,0.017,0.01,-1.548,-0.003,-0.1169999999999999,90.0,71.0,normal,D6
291,309.38,71.0,40.533714,-3.464536,-0.008,0.022,0.015,0.011,-1.551,0.0139999999999999,-0.121,90.0,71.0,normal,D6
292,310.36,71.0,40.53371,-3.464775,0.017,0.023,0.015,0.004,-1.546,0.008,-0.13,90.0,71.1,normal,D6
293,311.36,71.1,40.533714,-3.465009,-0.009,0.01,0.022,0.008,-1.554,-0.002,-0.153,90.0,71.1,normal,D6
294,312.41,70.1,40.53373,-3.465237,-0.115,0.0559999999999999,-0.015,0.003,-1.558,0.0,-0.179,90.0,70.0,normal,D6
295,313.4,70.0,40.533737,-3.465465,0.0069999999999999,-0.035,0.023,0.013,-1.5590000000000002,-0.01,-0.208,90.0,70.0,normal,D6
296,314.37,70.0,40.533756,-3.465702,0.0,0.054,0.005,-0.008,-1.57,0.005,-0.241,90.0,70.0,normal,D6
297,315.36,69.7,40.533779,-3.465934,-0.02,0.059,-0.034,-0.0139999999999999,-1.565,-0.006,-0.27,90.0,70.0,normal,D6
298,316.36,69.4,40.533806,-3.4661660000000003,-0.0069999999999999,-0.017,-0.031,-0.005,-1.568,-0.031,-0.297,90.0,70.0,normal,D6
299,317.37,69.0,40.533836,-3.46639,-0.019,0.008,-0.025,-0.027,-1.574,-0.016,-0.325,90.0,70.0,normal,D6
300,318.36,68.8,40.533882,-3.466603,-0.021,-0.008,-0.023,-0.019,-1.567,-0.038,-0.358,90.0,68.5,normal,D6
301,319.39,68.8,40.533936,-3.466817,-0.038,0.006,-0.019,-0.003,-1.564,-0.044,-0.402,90.0,68.5,normal,D6
302,320.38,69.3,40.533989,-3.4670300000000003,-0.022,-0.045,-0.01,-0.006,-1.564,-0.02,-0.419,90.0,68.5,normal,D6
303,321.43,68.4,40.534054,-3.467242,-0.019,-0.048,-0.0139999999999999,-0.005,-1.558,-0.023,-0.432,90.0,68.5,normal,D6
304,322.35,68.3,40.534126,-3.467447,-0.019,-0.057,-0.015,-0.006,-1.5590000000000002,-0.033,-0.4429999999999999,90.0,68.5,normal,D6
305,323.39,68.5,40.534199,-3.467649,0.01,-0.01,0.002,0.01,-1.558,-0.046,-0.465,90.0,68.5,normal,D6
306,324.4,67.8,40.534279,-3.4678440000000004,0.02,-0.034,0.015,0.006,-1.5630000000000002,-0.047,-0.492,90.0,67.8,normal,D6
307,325.38,67.9,40.53437,-3.468031,0.012,0.0279999999999999,-0.011,-0.008,-1.565,-0.047,-0.514,90.0,67.9,normal,D6
308,326.35,68.4,40.534458,-3.4682129999999995,-0.022,-0.022,-0.022,-0.019,-1.5630000000000002,-0.026,-0.522,90.0,68.4,normal,D6
309,327.38,68.0,40.534557,-3.468404,-0.0139999999999999,-0.084,0.008,-0.005,-1.5619999999999998,-0.031,-0.529,90.0,68.4,normal,D6
310,328.35,67.2,40.53466,-3.46857,-0.017,-0.008,0.024,0.008,-1.5590000000000002,-0.0289999999999999,-0.54,90.0,67.1,normal,D6
311,329.35,67.1,40.53476,-3.468743,-0.11,-0.016,-0.043,-0.0069999999999999,-1.558,-0.0409999999999999,-0.561,90.0,67.1,normal,D6
312,330.35,67.1,40.534866,-3.468913,0.012,-0.052,0.016,0.0069999999999999,-1.561,-0.043,-0.5770000000000001,100.0,67.1,normal,D6
313,331.35,66.9,40.534985,-3.4690800000000004,-0.03,0.003,0.024,-0.013,-1.56,-0.012,-0.5820000000000001,100.0,66.9,normal,D6
314,332.35,67.1,40.535107,-3.469232,0.006,0.069,0.0069999999999999,-0.005,-1.5619999999999998,-0.011,-0.588,100.0,66.9,normal,D6
315,333.41,67.0,40.535233000000005,-3.469384,0.012,-0.066,0.027,0.019,-1.5619999999999998,0.005,-0.602,100.0,67.2,normal,D6
316,334.36,67.2,40.535358,-3.469521,-0.027,0.061,0.006,0.003,-1.5619999999999998,-0.001,-0.616,100.0,67.2,normal,D6
317,335.37,67.8,40.535507,-3.469667,0.047,-0.039,0.0279999999999999,0.0139999999999999,-1.5619999999999998,-0.024,-0.627,100.0,67.8,normal,D6
318,336.35,67.2,40.535645,-3.469789,-0.032,-0.044,-0.0069999999999999,-0.0,-1.568,-0.016,-0.627,100.0,67.4,normal,D6
319,337.38,67.4,40.535782,-3.469905,-0.003,0.004,0.002,-0.018,-1.579,-0.0409999999999999,-0.629,100.0,67.4,normal,D6
320,338.36,67.5,40.535931,-3.470019,0.06,-0.038,0.044,0.005,-1.5719999999999998,-0.031,-0.631,100.0,67.3,normal,D6
321,339.36,67.3,40.536079,-3.470121,0.013,0.02,0.01,-0.002,-1.5730000000000002,-0.016,-0.64,100.0,67.3,normal,D6
322,340.37,67.5,40.536224,-3.470232,-0.0139999999999999,0.01,0.0139999999999999,0.012,-1.571,-0.0289999999999999,-0.655,100.0,67.5,normal,D6
323,341.38,67.4,40.536373,-3.470334,-0.105,0.0409999999999999,-0.035,-0.024,-1.5759999999999998,-0.031,-0.662,100.0,67.4,normal,D6
324,342.38,67.8,40.53653,-3.4704230000000003,-0.036,0.0409999999999999,0.02,-0.0069999999999999,-1.574,-0.042,-0.67,100.0,67.4,normal,D6
325,343.38,66.8,40.53669,-3.470502,-0.0289999999999999,-0.061,-0.03,-0.02,-1.5730000000000002,-0.062,-0.684,100.0,66.8,normal,D6
326,344.37,66.8,40.536846,-3.470577,0.024,-0.03,-0.0069999999999999,-0.008,-1.5619999999999998,-0.039,-0.68,100.0,66.8,normal,D6
327,345.37,68.0,40.53701,-3.470645,-0.073,0.018,-0.0279999999999999,-0.0069999999999999,-1.5590000000000002,-0.021,-0.665,100.0,67.1,normal,D6
328,346.36,67.1,40.537174,-3.4707,0.018,-0.0289999999999999,0.016,0.019,-1.558,-0.025,-0.64,100.0,67.1,normal,D6
329,347.36,67.2,40.537327000000005,-3.470758,-0.012,-0.053,-0.005,-0.001,-1.561,-0.013,-0.614,90.0,67.1,normal,D6
330,348.38,67.1,40.537491,-3.47082,-0.02,0.01,0.0139999999999999,0.011,-1.558,-0.015,-0.5870000000000001,90.0,67.1,normal,D6
331,349.38,66.7,40.537651,-3.470877,0.019,-0.043,0.021,0.015,-1.561,-0.023,-0.562,90.0,66.7,normal,D6
332,350.36,67.0,40.537823,-3.470932,-0.0279999999999999,-0.022,-0.004,0.001,-1.5619999999999998,-0.023,-0.536,90.0,66.7,normal,D6
333,351.38,66.8,40.537979,-3.470989,0.032,-0.031,0.0069999999999999,0.0069999999999999,-1.5619999999999998,-0.0289999999999999,-0.511,90.0,66.6,normal,D6
334,352.37,66.6,40.538132,-3.4710410000000005,0.019,0.011,0.023,0.011,-1.561,-0.011,-0.499,90.0,66.6,normal,D6
335,353.36,66.7,40.538296,-3.471103,-0.038,0.032,-0.027,-0.002,-1.567,-0.015,-0.479,90.0,67.6,normal,D6
336,354.35,67.6,40.538456,-3.471159,0.012,-0.063,0.015,-0.006,-1.5659999999999998,-0.0069999999999999,-0.46,90.0,67.6,normal,D6
337,355.4,67.6,40.53862,-3.471214,0.038,-0.022,0.02,0.015,-1.565,-0.013,-0.442,90.0,67.6,normal,D6
338,356.4,66.5,40.538776,-3.47127,0.003,0.073,-0.02,-0.0139999999999999,-1.58,-0.0069999999999999,-0.421,90.0,68.6,normal,D6
339,357.36,68.6,40.538937,-3.471321,0.0279999999999999,0.032,-0.009,0.004,-1.584,-0.008,-0.41,90.0,68.6,normal,D6
340,358.41,69.3,40.539097,-3.4713800000000004,-0.008,-0.005,-0.011,-0.012,-1.578,-0.009,-0.4029999999999999,90.0,69.3,normal,D6
341,359.37,69.3,40.539265,-3.471436,0.027,-0.022,-0.017,-0.005,-1.5759999999999998,0.01,-0.384,90.0,69.3,normal,D6
342,360.38,68.7,40.539429,-3.471481,0.01,0.004,-0.034,-0.01,-1.5759999999999998,0.008,-0.372,90.0,68.7,normal,D6
343,361.37,70.5,40.5396,-3.471533,0.024,-0.0069999999999999,0.053,0.003,-1.577,0.017,-0.365,90.0,70.5,normal,D6
344,362.41,71.0,40.539764,-3.471596,0.015,0.024,-0.015,0.003,-1.586,0.013,-0.358,90.0,71.4,normal,D6
345,363.35,71.4,40.539936,-3.471653,0.006,0.008,0.0279999999999999,0.011,-1.586,0.008,-0.352,90.0,71.4,normal,D6
346,364.37,72.5,40.540115,-3.471709,-0.034,-0.022,-0.018,-0.0139999999999999,-1.582,-0.0139999999999999,-0.344,90.0,72.4,normal,D6
347,365.36,72.4,40.540298,-3.471763,-0.022,-0.005,-0.0139999999999999,-0.009,-1.579,-0.012,-0.337,90.0,72.4,normal,D6
348,366.43,72.3,40.540478,-3.471823,0.051,0.049,0.003,-0.008,-1.569,-0.013,-0.332,90.0,72.3,normal,D6
349,367.41,72.5,40.540653000000006,-3.471886,-0.0409999999999999,0.018,-0.01,-0.013,-1.57,-0.021,-0.3289999999999999,90.0,72.5,normal,D6
350,368.37,72.1,40.540829,-3.471946,0.006,-0.042,0.002,0.015,-1.567,-0.021,-0.326,90.0,72.1,normal,D6
351,369.39,70.4,40.541,-3.471999,-0.009,-0.043,0.009,0.004,-1.567,-0.016,-0.321,90.0,72.1,normal,D6
352,370.39,72.5,40.541176,-3.472059,-0.037,-0.018,-0.0069999999999999,-0.003,-1.5659999999999998,-0.012,-0.319,30.0,72.5,normal,D6
353,371.36,72.4,40.541359,-3.472117,-0.031,-0.003,-0.012,-0.0,-1.556,-0.019,-0.317,30.0,72.5,normal,D6
354,372.35,72.0,40.541534000000006,-3.472176,0.003,0.009,0.006,0.006,-1.556,-0.0069999999999999,-0.315,30.0,71.6,normal,D6
355,373.38,71.6,40.541714,-3.472238,-0.022,0.049,0.012,-0.001,-1.5619999999999998,-0.011,-0.318,30.0,71.6,normal,D6
356,374.35,71.0,40.541889000000005,-3.472297,-0.071,0.0069999999999999,-0.033,-0.006,-1.556,-0.008,-0.311,30.0,71.0,normal,D6
357,375.38,71.0,40.542061,-3.472353,0.008,0.008,-0.002,0.013,-1.5619999999999998,0.016,-0.303,30.0,71.0,normal,D6
358,376.38,71.1,40.542236,-3.47241,-0.08,0.027,-0.019,0.012,-1.5630000000000002,0.017,-0.302,30.0,71.1,normal,D6
359,377.36,71.3,40.542408,-3.472463,0.015,0.045,0.015,-0.0,-1.565,0.0069999999999999,-0.305,30.0,71.1,normal,D6
360,378.35,71.5,40.54258,-3.472522,0.034,-0.04,-0.008,0.009,-1.569,0.001,-0.303,30.0,71.5,normal,D6
361,379.36,71.4,40.542755,-3.472578,0.023,-0.002,0.017,0.02,-1.574,0.015,-0.301,30.0,71.5,normal,D6
362,380.36,71.7,40.542934,-3.472633,-0.018,0.022,-0.01,-0.001,-1.584,0.002,-0.299,30.0,71.7,normal,D6
363,381.38,72.9,40.543114,-3.472685,-0.083,0.073,-0.034,0.012,-1.589,0.006,-0.301,30.0,71.7,normal,D6
364,382.4,72.6,40.543293,-3.47274,-0.076,0.001,-0.033,-0.009,-1.592,-0.016,-0.305,30.0,72.6,normal,D6
365,383.36,73.2,40.543468,-3.472799,0.015,-0.0279999999999999,0.023,-0.003,-1.595,-0.0139999999999999,-0.305,30.0,73.2,normal,D6
366,384.4,73.3,40.543648,-3.472865,0.011,0.001,-0.001,-0.02,-1.5830000000000002,0.002,-0.302,30.0,73.3,normal,D6
367,385.37,72.0,40.543819,-3.472921,-0.004,-0.01,-0.012,-0.0069999999999999,-1.584,0.005,-0.299,30.0,73.3,normal,D6
368,386.36,72.0,40.543995,-3.47298,-0.008,0.0,0.025,0.008,-1.585,0.001,-0.293,90.0,72.1,normal,D6
369,387.4,72.1,40.544174,-3.47304,-0.009,-0.038,0.0069999999999999,0.008,-1.585,-0.0069999999999999,-0.297,90.0,72.1,normal,D6
370,388.36,73.2,40.544353,-3.4731050000000003,-0.044,-0.001,0.001,0.01,-1.588,-0.008,-0.291,90.0,73.5,normal,D6
371,389.4,73.5,40.544533,-3.4731690000000004,-0.031,-0.004,-0.032,-0.021,-1.59,-0.011,-0.296,90.0,73.5,normal,D6
372,390.36,73.8,40.544708,-3.473231,0.0279999999999999,0.027,-0.012,-0.015,-1.581,-0.031,-0.299,90.0,73.8,normal,D6
373,391.4,73.6,40.544891,-3.473291,0.038,-0.027,0.022,0.006,-1.568,-0.039,-0.298,90.0,73.6,normal,D6
374,392.38,73.0,40.545067,-3.473356,-0.037,0.003,-0.025,-0.0069999999999999,-1.571,-0.025,-0.296,90.0,73.0,normal,D6
375,393.36,72.7,40.545242,-3.473415,0.012,-0.0069999999999999,0.0139999999999999,0.018,-1.5730000000000002,-0.022,-0.298,90.0,72.7,normal,D6
376,394.4,72.6,40.545418,-3.473476,-0.061,0.013,-0.015,0.001,-1.58,-0.03,-0.298,90.0,72.7,normal,D6
377,395.35,72.6,40.545593,-3.473539,-0.017,-0.022,0.005,0.005,-1.5759999999999998,-0.032,-0.297,90.0,72.6,normal,D6
378,396.36,72.8,40.545769,-3.473596,-0.0819999999999999,0.003,0.0139999999999999,0.017,-1.575,-0.038,-0.294,90.0,72.6,normal,D6
379,397.36,73.1,40.54594,-3.4736550000000004,-0.08,-0.018,-0.049,0.013,-1.579,-0.043,-0.294,90.0,73.1,normal,D6
380,398.39,73.3,40.54612,-3.4737160000000005,0.0559999999999999,0.002,0.0559999999999999,0.033,-1.579,-0.046,-0.291,90.0,73.1,normal,D6
381,399.35,73.4,40.546295,-3.473777,-0.046,0.012,0.004,0.008,-1.5759999999999998,-0.036,-0.282,90.0,73.7,normal,D6
382,400.36,73.7,40.546474,-3.473839,-0.0819999999999999,0.063,-0.001,-0.006,-1.574,-0.053,-0.273,90.0,73.7,normal,D6
383,401.36,73.8,40.546654,-3.473904,0.022,-0.023,0.049,0.006,-1.586,-0.0579999999999999,-0.266,90.0,73.8,normal,D6
384,402.37,73.7,40.546829,-3.473968,-0.051,-0.0279999999999999,-0.037,-0.0139999999999999,-1.587,-0.055,-0.257,90.0,74.0,normal,D6
385,403.42,74.0,40.547005,-3.474036,-0.047,0.031,-0.012,-0.0289999999999999,-1.591,-0.054,-0.249,90.0,74.0,normal,D6
386,404.37,74.2,40.54718,-3.474111,0.044,-0.04,0.034,0.013,-1.59,-0.034,-0.241,90.0,74.2,normal,D6
387,405.36,74.4,40.547363,-3.474188,-0.011,-0.006,0.003,-0.001,-1.589,-0.037,-0.237,90.0,74.2,normal,D6
388,406.42,74.7,40.547543,-3.4742660000000005,0.0279999999999999,-0.024,0.027,0.0069999999999999,-1.59,-0.048,-0.231,90.0,75.2,normal,D6
389,407.4,75.2,40.547726,-3.474355,-0.016,-0.083,-0.024,-0.018,-1.591,-0.047,-0.22,90.0,75.2,normal,D6
390,408.36,75.2,40.547901,-3.474449,0.017,-0.006,-0.003,-0.016,-1.591,-0.043,-0.206,90.0,75.2,normal,D6
391,409.41,75.0,40.548069,-3.47454,0.018,0.053,-0.022,-0.016,-1.582,-0.044,-0.1969999999999999,90.0,75.0,normal,D6
392,410.38,74.2,40.548244,-3.4746330000000003,0.064,-0.026,0.016,-0.005,-1.585,-0.038,-0.19,90.0,74.2,normal,D6
393,411.36,74.4,40.548412,-3.474733,-0.038,0.026,-0.02,-0.008,-1.579,-0.048,-0.187,90.0,74.4,normal,D6
394,412.36,74.5,40.54858,-3.4748360000000003,-0.0069999999999999,0.034,-0.012,0.0139999999999999,-1.571,-0.024,-0.18,90.0,74.5,normal,D6
395,413.38,73.6,40.548748,-3.4749480000000004,0.034,-0.01,0.017,0.003,-1.5759999999999998,-0.022,-0.172,90.0,74.2,normal,D6
396,414.37,74.2,40.548908,-3.4750589999999995,-0.0139999999999999,0.016,0.009,-0.004,-1.578,-0.036,-0.166,90.0,74.2,normal,D6
397,415.36,74.4,40.549068,-3.475171,-0.026,-0.033,-0.013,-0.01,-1.5659999999999998,-0.05,-0.17,90.0,74.4,normal,D6
398,416.4,74.7,40.549232,-3.475287,-0.017,0.005,0.052,0.038,-1.5619999999999998,-0.049,-0.1689999999999999,90.0,74.7,normal,D6
399,417.37,74.7,40.549397,-3.475403,0.009,-0.005,0.021,0.01,-1.57,-0.04,-0.165,90.0,74.7,normal,D6
400,418.37,74.4,40.549561,-3.475525,-0.004,-0.03,0.006,0.003,-1.575,-0.055,-0.159,90.0,75.6,normal,D6
401,419.37,75.6,40.549725,-3.475649,-0.0139999999999999,-0.024,-0.006,0.003,-1.586,-0.044,-0.156,90.0,75.6,normal,D6
402,420.37,74.4,40.549885,-3.475772,-0.013,0.006,0.001,0.008,-1.5930000000000002,-0.039,-0.156,90.0,74.7,normal,D6
403,421.42,74.7,40.550053000000005,-3.475893,0.002,-0.022,0.001,0.01,-1.588,-0.047,-0.157,90.0,74.7,normal,D6
404,422.37,75.5,40.550213,-3.476026,-0.027,-0.022,-0.0579999999999999,-0.021,-1.586,-0.047,-0.149,90.0,75.5,normal,D6
405,423.36,75.8,40.550373,-3.476164,-0.033,0.017,0.004,-0.009,-1.594,-0.047,-0.142,90.0,75.5,normal,D6
406,424.37,75.9,40.550533,-3.476309,-0.024,0.018,-0.033,-0.015,-1.584,-0.031,-0.141,90.0,74.7,normal,D6
407,425.42,74.7,40.550682,-3.4764480000000004,0.016,0.027,0.021,0.0139999999999999,-1.578,-0.0409999999999999,-0.141,90.0,74.7,normal,D6
408,426.39,74.4,40.550831,-3.4765910000000004,-0.0289999999999999,-0.001,0.059,0.015,-1.578,-0.04,-0.146,90.0,75.3,normal,D6
409,427.35,75.3,40.550983,-3.476744,0.061,0.03,0.049,0.037,-1.578,-0.045,-0.149,90.0,75.3,normal,D6
410,428.36,75.5,40.551136,-3.476893,0.005,0.045,0.017,0.0069999999999999,-1.585,-0.055,-0.148,90.0,75.5,normal,D6
411,429.39,76.1,40.551289,-3.477047,-0.0279999999999999,0.022,-0.004,-0.01,-1.586,-0.048,-0.143,90.0,75.5,normal,D6
412,430.36,75.9,40.551445,-3.477207,-0.023,0.042,0.004,-0.012,-1.587,-0.05,-0.141,90.0,75.9,normal,D6
413,431.38,74.8,40.551575,-3.4773660000000004,0.021,-0.001,-0.001,0.004,-1.584,-0.045,-0.145,90.0,75.9,normal,D6
414,432.38,74.5,40.55172,-3.477532,-0.0069999999999999,-0.001,-0.005,0.005,-1.5759999999999998,-0.034,-0.147,90.0,74.5,normal,D6
415,433.38,75.5,40.551865,-3.4776870000000004,0.018,0.001,-0.002,-0.004,-1.581,-0.024,-0.138,90.0,74.5,normal,D6
416,434.36,76.1,40.552002,-3.47786,-0.065,0.111,-0.0289999999999999,-0.003,-1.589,-0.038,-0.134,90.0,76.1,normal,D6
417,435.43,76.0,40.552139,-3.478037,0.005,0.02,-0.009,-0.021,-1.585,-0.037,-0.136,90.0,76.1,normal,D6
418,436.35,76.2,40.552273,-3.478216,0.0069999999999999,-0.066,0.0279999999999999,0.016,-1.578,-0.0289999999999999,-0.135,90.0,76.1,normal,D6
419,437.39,76.4,40.552399,-3.478396,-0.0139999999999999,0.008,0.019,0.005,-1.58,-0.043,-0.134,90.0,76.0,normal,D6
420,438.38,76.5,40.552528,-3.478586,-0.016,0.0409999999999999,0.018,0.015,-1.574,-0.04,-0.1369999999999999,90.0,76.0,normal,D6
421,439.43,76.0,40.55265,-3.4787760000000003,0.03,-0.0139999999999999,0.032,0.004,-1.589,-0.057,-0.139,90.0,76.0,normal,D6
422,440.37,76.7,40.552784,-3.478966,0.012,-0.0139999999999999,0.009,-0.009,-1.5759999999999998,-0.0579999999999999,-0.1369999999999999,90.0,76.0,normal,D6
423,441.38,76.8,40.55291,-3.4791540000000003,-0.021,0.039,-0.001,-0.004,-1.581,-0.043,-0.142,90.0,76.8,normal,D6
424,442.44,77.3,40.553032,-3.479336,0.12,-0.077,-0.0279999999999999,-0.023,-1.575,-0.044,-0.145,90.0,76.8,normal,D6
425,443.39,77.1,40.553158,-3.479532,-0.005,-0.027,0.001,-0.001,-1.5730000000000002,-0.044,-0.141,90.0,76.8,normal,D6
426,444.35,77.1,40.553284000000005,-3.479734,-0.038,0.044,-0.034,-0.006,-1.5730000000000002,-0.035,-0.136,90.0,76.8,normal,D6
427,445.37,78.2,40.553406,-3.479935,-0.006,-0.009,0.001,0.003,-1.578,-0.033,-0.128,90.0,76.8,normal,D6
428,446.37,77.8,40.553524,-3.4801370000000005,0.019,0.02,-0.038,-0.002,-1.581,-0.043,-0.131,90.0,76.8,normal,D6
429,447.38,78.0,40.553635,-3.4803550000000003,0.009,0.013,-0.004,-0.016,-1.585,-0.052,-0.1369999999999999,90.0,76.8,normal,D6
430,448.35,78.6,40.553745,-3.480568,0.0139999999999999,0.027,-0.004,-0.004,-1.594,-0.0579999999999999,-0.134,90.0,76.8,normal,D6
431,449.36,78.6,40.553848,-3.4807900000000003,-0.037,-0.008,-0.016,-0.013,-1.582,-0.053,-0.134,90.0,76.8,normal,D6
432,450.37,78.7,40.553959000000006,-3.4809980000000005,-0.018,-0.009,-0.017,-0.006,-1.5759999999999998,-0.069,-0.134,90.0,76.8,normal,D6
433,451.36,78.4,40.554066,-3.481224,-0.012,-0.042,-0.012,-0.008,-1.581,-0.062,-0.143,90.0,76.8,normal,D6
434,452.4,79.0,40.554169,-3.481438,-0.0819999999999999,-0.002,-0.042,-0.02,-1.582,-0.057,-0.133,90.0,79.5,normal,D6
435,453.35,78.5,40.554264,-3.481657,0.02,0.027,0.0069999999999999,-0.019,-1.581,-0.053,-0.132,90.0,79.5,normal,D6
436,454.36,79.5,40.554352,-3.481877,0.001,0.006,0.016,-0.001,-1.5759999999999998,-0.053,-0.131,90.0,79.5,normal,D6
437,455.37,79.6,40.554447,-3.4820900000000004,-0.0069999999999999,-0.011,0.01,-0.004,-1.5719999999999998,-0.046,-0.128,90.0,79.5,normal,D6
438,456.35,79.5,40.55455,-3.4823120000000003,-0.055,-0.0139999999999999,-0.018,-0.012,-1.578,-0.061,-0.127,90.0,79.5,normal,D6
439,457.35,80.0,40.554642,-3.4825440000000003,-0.025,-0.022,-0.077,-0.042,-1.579,-0.057,-0.129,90.0,79.5,normal,D6
440,458.36,80.5,40.554741,-3.482775,-0.012,0.008,-0.003,-0.026,-1.565,-0.065,-0.13,90.0,79.5,normal,D6
441,459.37,79.8,40.554825,-3.483016000000001,-0.004,-0.045,-0.004,0.0,-1.556,-0.049,-0.126,90.0,79.5,normal,D6
442,460.42,80.5,40.554905,-3.483258,0.035,-0.0289999999999999,0.003,-0.004,-1.555,-0.034,-0.121,90.0,79.5,normal,D6
443,461.36,79.5,40.554985,-3.4834970000000003,0.0069999999999999,0.015,-0.021,0.016,-1.558,-0.0409999999999999,-0.1159999999999999,90.0,79.5,normal,D6
444,462.38,79.5,40.555061,-3.483738,0.026,-0.021,0.015,-0.003,-1.5619999999999998,-0.049,-0.122,90.0,79.5,normal,D6
445,463.36,79.8,40.555138,-3.483981,0.013,-0.015,0.002,0.006,-1.57,-0.0289999999999999,-0.121,90.0,79.5,normal,D6
446,464.38,80.7,40.55521,-3.484231,0.001,0.026,-0.002,0.01,-1.561,-0.027,-0.118,90.0,79.5,normal,D6
447,465.35,80.8,40.555279,-3.4844800000000005,0.02,-0.008,-0.006,-0.001,-1.565,-0.021,-0.1169999999999999,90.0,79.5,normal,D6
448,466.39,80.9,40.555344,-3.484739,0.012,0.01,-0.022,-0.026,-1.564,-0.035,-0.123,90.0,79.5,normal,D6
449,467.39,80.9,40.555405,-3.484992,0.034,-0.006,0.022,-0.001,-1.5759999999999998,-0.036,-0.125,90.0,79.5,normal,D6
450,468.36,81.3,40.555458,-3.485249,-0.015,-0.02,0.001,-0.004,-1.57,-0.023,-0.1159999999999999,90.0,79.5,normal,D6
451,469.39,81.5,40.555508,-3.485504,0.001,0.01,-0.006,0.005,-1.5630000000000002,-0.033,-0.111,90.0,79.5,normal,D6
452,470.38,80.2,40.555557,-3.485758,-0.027,-0.018,0.001,-0.009,-1.5590000000000002,-0.019,-0.107,90.0,79.5,normal,D6
453,471.37,81.6,40.555607,-3.486016,0.0579999999999999,0.009,-0.009,-0.0,-1.554,-0.0289999999999999,-0.104,90.0,79.5,normal,D6
454,472.37,81.4,40.555649,-3.486272,-0.02,0.025,-0.0,0.0069999999999999,-1.551,-0.0409999999999999,-0.107,90.0,79.5,normal,D6
455,473.35,81.4,40.555691,-3.4865410000000003,-0.075,0.018,-0.05,-0.026,-1.5530000000000002,-0.022,-0.109,90.0,79.5,normal,D6
456,474.39,81.8,40.555721000000005,-3.486806,-0.127,0.077,-0.0279999999999999,-0.01,-1.557,-0.006,-0.104,90.0,79.5,normal,D6
457,475.36,81.5,40.555759,-3.487076,0.016,0.039,0.027,0.017,-1.5590000000000002,-0.009,-0.102,90.0,79.5,normal,D6
458,476.39,81.5,40.555794,-3.487328,-0.03,0.037,0.009,-0.003,-1.56,-0.016,-0.099,90.0,79.5,normal,D6
459,477.37,81.7,40.555824,-3.487598,0.017,-0.0279999999999999,-0.033,-0.023,-1.5619999999999998,-0.043,-0.098,90.0,79.5,normal,D6
460,478.4,81.6,40.555847,-3.48786,0.018,0.004,0.047,0.011,-1.565,-0.045,-0.096,90.0,79.5,normal,D6
461,479.37,81.8,40.555874,-3.488125,-0.018,-0.016,-0.046,-0.006,-1.564,-0.045,-0.093,90.0,79.5,normal,D6
462,480.37,81.7,40.555893,-3.4884,-0.0139999999999999,-0.011,-0.001,-0.015,-1.567,-0.063,-0.081,90.0,79.5,normal,D6
463,481.38,82.1,40.555908,-3.488667,-0.1009999999999999,-0.018,-0.049,-0.024,-1.564,-0.073,-0.061,90.0,79.5,normal,D6
464,482.36,81.8,40.555912,-3.488928,-0.016,-0.01,-0.054,-0.0069999999999999,-1.56,-0.062,-0.047,90.0,79.5,normal,D6
465,483.37,80.5,40.555908,-3.489195,-0.051,0.043,-0.027,-0.025,-1.561,-0.069,-0.046,90.0,84.0,normal,D6
466,484.37,81.6,40.555904,-3.489459,0.039,-0.079,0.0139999999999999,0.002,-1.56,-0.066,-0.03,90.0,84.0,normal,D6
467,485.4,81.4,40.555897,-3.489725,0.002,-0.032,0.05,0.0139999999999999,-1.5630000000000002,-0.048,-0.01,90.0,84.0,normal,D6
468,486.37,81.9,40.555878,-3.489989,0.012,0.026,0.048,0.006,-1.5619999999999998,-0.045,-0.002,90.0,84.0,normal,D6
469,487.37,82.3,40.555851,-3.490257,-0.057,0.0139999999999999,-0.043,-0.0069999999999999,-1.558,-0.016,0.009,90.0,84.0,normal,D6
470,488.36,82.1,40.555813,-3.490525,-0.0139999999999999,-0.02,-0.0069999999999999,-0.001,-1.571,-0.021,0.0279999999999999,90.0,84.0,normal,D6
471,489.35,81.8,40.555782,-3.4907980000000003,-0.004,-0.016,-0.019,-0.004,-1.558,-0.027,0.046,90.0,84.0,normal,D6
472,490.39,82.3,40.555737,-3.491052,-0.022,0.071,0.008,0.0,-1.5619999999999998,-0.03,0.053,90.0,84.0,normal,D6
473,491.36,82.6,40.555687,-3.491311,-0.043,0.042,0.002,0.006,-1.5630000000000002,-0.018,0.062,90.0,84.0,normal,D6
474,492.38,82.1,40.555634000000005,-3.491571,-0.015,0.026,-0.081,-0.019,-1.565,-0.031,0.068,90.0,84.0,normal,D6
475,493.41,82.5,40.555565,-3.491826,-0.004,0.012,0.0409999999999999,-0.009,-1.574,-0.023,0.066,90.0,84.0,normal,D6
476,494.4,82.9,40.5555,-3.49208,0.052,-0.052,0.002,-0.019,-1.569,-0.024,0.073,90.0,84.0,normal,D6
477,495.38,83.2,40.555428000000006,-3.492343,0.018,0.004,0.0,-0.02,-1.564,-0.0139999999999999,0.088,90.0,84.0,normal,D6
478,496.39,83.0,40.555344,-3.4925980000000005,-0.091,0.026,0.033,0.005,-1.55,-0.025,0.093,90.0,84.0,normal,D6
479,497.37,83.3,40.55526,-3.4928440000000003,-0.046,0.06,-0.026,-0.013,-1.5530000000000002,-0.011,0.081,90.0,84.0,normal,D6
480,498.35,82.4,40.555168,-3.493088,-0.037,0.061,0.013,0.001,-1.557,0.0,0.062,90.0,84.0,normal,D6
481,499.35,83.0,40.555077,-3.493328,-0.023,0.03,-0.006,0.0139999999999999,-1.554,0.026,0.045,90.0,84.0,normal,D6
482,500.45,83.8,40.554981,-3.493567,-0.043,0.067,-0.011,-0.0139999999999999,-1.557,0.008,0.013,90.0,84.0,normal,D6
483,501.36,82.7,40.554882,-3.493813,0.019,0.1009999999999999,0.055,0.004,-1.556,0.0069999999999999,-0.026,90.0,84.0,normal,D6
484,502.38,84.1,40.554779,-3.494061,-0.012,0.046,-0.0139999999999999,0.009,-1.557,0.015,-0.077,90.0,84.0,normal,D6
485,503.38,84.0,40.554688,-3.4943089999999994,-0.047,0.037,-0.012,-0.006,-1.565,-0.005,-0.14,90.0,84.0,normal,D6
486,504.38,84.1,40.554607,-3.494565,0.048,-0.013,-0.0409999999999999,-0.004,-1.557,-0.022,-0.1989999999999999,90.0,84.6,normal,D6
487,505.36,84.6,40.554527,-3.494824,0.052,-0.019,0.002,0.017,-1.5490000000000002,-0.035,-0.255,90.0,84.6,normal,D6
488,506.35,84.1,40.554455,-3.4950980000000005,0.0069999999999999,0.043,0.009,0.022,-1.557,-0.045,-0.32,100.0,84.1,normal,D6
489,507.38,84.3,40.554401,-3.495369,-0.011,0.02,-0.001,0.009,-1.551,-0.049,-0.377,100.0,84.1,normal,D6
490,508.44,83.8,40.554356,-3.495619,0.08,0.0139999999999999,0.0409999999999999,-0.003,-1.554,-0.06,-0.43,100.0,83.8,normal,D6
491,509.41,84.3,40.554325,-3.495884,-0.13,0.01,0.036,0.045,-1.5630000000000002,-0.043,-0.481,100.0,83.8,normal,D6
492,510.39,84.5,40.554283,-3.49615,0.013,-0.064,0.011,0.012,-1.555,-0.005,-0.512,100.0,84.5,normal,D6
493,511.38,83.6,40.554249,-3.496418,0.02,0.021,0.013,0.009,-1.544,-0.0279999999999999,-0.5529999999999999,100.0,84.5,normal,D6
494,512.37,84.7,40.55423,-3.496696,-0.038,0.064,0.012,-0.005,-1.547,-0.0289999999999999,-0.593,90.0,84.7,normal,D6
495,513.43,83.6,40.554218,-3.4969660000000005,-0.054,0.031,-0.051,-0.019,-1.555,-0.0409999999999999,-0.6409999999999999,90.0,84.7,normal,D6
496,514.35,83.6,40.554211,-3.4972410000000003,0.002,-0.022,0.006,0.017,-1.568,-0.046,-0.674,90.0,83.6,normal,D6
497,515.37,84.0,40.554214,-3.4975080000000003,-0.043,0.001,-0.0559999999999999,-0.043,-1.5719999999999998,-0.06,-0.708,90.0,83.9,normal,D6
498,516.43,83.9,40.554234,-3.497778,-0.008,-0.013,0.0279999999999999,-0.006,-1.57,-0.077,-0.752,90.0,83.9,normal,D6
499,517.4,84.1,40.554256,-3.49805,-0.075,0.016,-0.01,-0.009,-1.568,-0.069,-0.787,90.0,84.1,normal,D6
500,518.42,84.4,40.554283,-3.498325,-0.1009999999999999,0.051,-0.0069999999999999,-0.013,-1.5630000000000002,-0.063,-0.815,90.0,85.0,normal,D6
501,519.4,85.0,40.554321,-3.4986040000000003,-0.048,-0.011,-0.03,-0.02,-1.5730000000000002,-0.079,-0.836,90.0,85.0,normal,D6
502,520.37,85.0,40.554359000000005,-3.498877,0.002,-0.067,-0.006,0.001,-1.564,-0.1,-0.86,90.0,85.0,normal,D6
503,521.36,85.5,40.554417,-3.499154,0.065,-0.088,0.013,0.004,-1.554,-0.111,-0.865,90.0,85.0,normal,D6
504,522.36,86.2,40.554478,-3.499427,0.011,-0.0279999999999999,-0.0,0.003,-1.541,-0.0409999999999999,-0.856,90.0,87.2,normal,D6
505,523.4,87.2,40.554543,-3.4997010000000004,0.073,-0.038,0.018,0.027,-1.535,0.003,-0.85,90.0,87.2,normal,D6
506,524.35,88.2,40.554596,-3.499963,-0.0409999999999999,0.032,-0.075,-0.054,-1.519,0.012,-0.846,90.0,87.2,normal,D6
507,525.36,87.8,40.554661,-3.5002370000000003,0.001,0.099,-0.04,-0.044,-1.4580000000000002,-0.074,-0.892,90.0,87.8,normal,D6
508,526.36,84.7,40.554726,-3.50051,0.059,0.127,-0.019,-0.0409999999999999,-1.454,-0.111,-0.948,90.0,81.8,normal,D6
509,527.36,81.8,40.554813,-3.500772,0.017,0.043,0.047,0.051,-1.4680000000000002,-0.153,-1.032,90.0,81.8,normal,D6
510,528.36,82.3,40.554916,-3.501011,-0.051,-0.003,0.045,0.043,-1.467,-0.155,-1.068,90.0,82.3,normal,D6
511,529.38,82.6,40.555027,-3.50124,-0.035,-0.1159999999999999,0.031,0.0279999999999999,-1.5,-0.126,-1.085,90.0,82.3,normal,D6
512,530.37,83.5,40.555145,-3.501464,-0.0579999999999999,-0.047,0.005,0.011,-1.5119999999999998,-0.095,-1.082,90.0,83.5,normal,D6
513,531.4,84.4,40.555275,-3.50169,-0.0069999999999999,-0.095,0.012,0.023,-1.508,-0.102,-1.063,90.0,83.5,normal,D6
514,532.4,85.8,40.555397,-3.501918,-0.0409999999999999,-0.1119999999999999,0.033,0.026,-1.508,-0.083,-1.032,90.0,85.8,normal,D6
515,533.37,86.9,40.555523,-3.502151,-0.016,-0.0289999999999999,0.0,-0.017,-1.51,-0.0579999999999999,-1.0,90.0,85.8,normal,D6
516,534.37,87.7,40.555649,-3.502386,-0.036,-0.051,-0.012,-0.0069999999999999,-1.504,-0.06,-0.964,90.0,89.0,normal,D6
517,535.37,89.0,40.555767,-3.502628,-0.004,-0.145,0.03,0.021,-1.504,-0.057,-0.927,90.0,89.0,normal,D6
